# NMEA GPS data followed by ## then the time in ms before next message was sent
$GPGGA,132041.996,2931.3316,N,09501.0666,W,1,06,1.3,-34.6,M,-23.9,M,,0000*75##120
$GPGSA,A,3,10,24,29,30,12,02,,,,,,,3.7,1.3,3.4*3D##161
$GPGSV,3,1,10,10,69,037,40,24,44,305,35,29,40,321,36,30,39,255,34*74##150
$GPGSV,3,2,10,12,36,212,29,02,33,060,35,15,24,159,,26,14,167,*79##110
$PSRFTXT,Version:GSW3.2.4_3.1.00.12-SDK003P1.00a##80
$PSRFTXT,Version2:F-GPS-03-0701301##60
$PSRFTXT,WAAS Enable##50
$PSRFTXT,TOW:  220855##50
$PSRFTXT,WK:   1527##90
$PSRFTXT,POS:  -485823 -5533209 3124367##181
$GPGGA,132042.998,2931.3401,N,09501.0558,W,1,08,1.1,-34.5,M,-23.9,M,,0000*78##120
$GPGSA,A,3,10,24,29,30,12,02,15,26,,,,,3.0,1.1,2.8*35##160
$GPRMC,132042.998,A,2931.3401,N,09501.0558,W,44.32,49.20,140409,,*13##120
$PSRFTXT,Version:GSW3.2.4_3.1.00.12-SDK003P1.00a##80
$PSRFTXT,Version2:F-GPS-03-0701301##51
$PSRFTXT,WAAS Enable##60
$PSRFTXT,TOW:  220856##40
$PSRFTXT,WK:   1527##100
$PSRFTXT,POS:  -485805 -5533203 3124381##50
$PSRFTXT,CLK:  95849##40
$PSRFTXT,CHNL: 12##180
$GPGGA,132044.003,2931.3478,N,09501.0451,W,1,08,1.1,-35.6,M,-23.9,M,,0000*71##130
$GPGSA,A,3,10,24,29,30,12,02,15,26,,,,,3.0,1.1,2.8*35##161
$GPRMC,132044.003,A,2931.3478,N,09501.0451,W,43.94,49.64,140409,,*13##110
$PSRFTXT,Version:GSW3.2.4_3.1.00.12-SDK003P1.00a##80
$PSRFTXT,Version2:F-GPS-03-0701301##50
$PSRFTXT,WAAS Enable##60
$PSRFTXT,TOW:  220858##50
$PSRFTXT,WK:   1527##90
$PSRFTXT,POS:  -485787 -5533197 3124392##60
$PSRFTXT,CLK:  95850##30
$PSRFTXT,CHNL: 12##181
$GPGGA,132044.996,2931.3555,N,09501.0345,W,1,08,1.1,-35.1,M,-23.9,M,,0000*7F##130
$GPGSA,A,3,10,24,29,30,12,02,15,26,,,,,3.0,1.1,2.8*35##160
$GPRMC,132044.996,A,2931.3555,N,09501.0345,W,44.28,49.42,140409,,*1E##110
$PSRFTXT,Version:GSW3.2.4_3.1.00.12-SDK003P1.00a##90
$PSRFTXT,Version2:F-GPS-03-0701301##50
$PSRFTXT,WAAS Enable##50
$PSRFTXT,TOW:  220858##51
$PSRFTXT,WK:   1527##90
$PSRFTXT,POS:  -485769 -5533192 3124405##180
$GPGGA,132046.001,2931.3636,N,09501.0233,W,1,07,1.1,-35.0,M,-23.9,M,,0000*72##120
$GPGSA,A,3,10,24,29,30,12,02,15,,,,,,3.4,1.1,3.2*3E##160
$GPRMC,132046.001,A,2931.3636,N,09501.0233,W,44.45,49.51,140409,,*14##121
$PSRFTXT,Version:GSW3.2.4_3.1.00.12-SDK003P1.00a##80
$PSRFTXT,Version2:F-GPS-03-0701301##50
$PSRFTXT,WAAS Enable##50
$PSRFTXT,TOW:  220860##50
$PSRFTXT,WK:   1527##90
$PSRFTXT,POS:  -485751 -5533186 3124418##50
$PSRFTXT,CLK:  95850##180
$GPGGA,132047.002,2931.3715,N,09501.0124,W,1,07,1.2,-35.2,M,-23.9,M,,0000*74##120
$GPGSA,A,3,10,24,29,30,12,02,26,,,,,,3.1,1.2,2.8*33##161
$GPGSV,3,1,10,10,69,037,40,24,44,305,32,29,40,321,35,30,39,255,34*70##160
$GPGSV,3,2,10,12,36,212,30,02,33,060,37,15,24,159,,26,14,167,26*77##100
$GPGSV,3,3,10,21,10,277,29,04,01,079,*78##160
$GPRMC,132047.002,A,2931.3715,N,09501.0124,W,45.81,48.71,140409,,*19##110
$PSRFTXT,Version:GSW3.2.4_3.1.00.12-SDK003P1.00a##81
$PSRFTXT,Version2:F-GPS-03-0701301##60
$PSRFTXT,WAAS Enable##50
$PSRFTXT,TOW:  220861##50
$PSRFTXT,WK:   1527##170
$GPGGA,132047.998,2931.3797,N,09501.0013,W,1,07,1.1,-35.1,M,-23.9,M,,0000*71##130
$GPGSA,A,3,10,24,29,30,12,02,15,,,,,,3.4,1.1,3.2*3E##160
$GPRMC,132047.998,A,2931.3797,N,09501.0013,W,45.60,49.72,140409,,*11##111
$PSRFTXT,Version:GSW3.2.4_3.1.00.12-SDK003P1.00a##80
$PSRFTXT,Version2:F-GPS-03-0701301##50
$PSRFTXT,WAAS Enable##60
$PSRFTXT,TOW:  220861##40
$PSRFTXT,WK:   1527##100
$PSRFTXT,POS:  -485714 -5533174 3124444##50
$PSRFTXT,CLK:  95851##40
$PSRFTXT,CHNL: 12##181
$GPGGA,132049.000,2931.3880,N,09500.9906,W,1,07,1.1,-35.5,M,-23.9,M,,0000*7F##120
$GPGSA,A,3,10,24,29,30,12,02,15,,,,,,3.4,1.1,3.2*3E##160
$GPRMC,132049.000,A,2931.3880,N,09500.9906,W,45.34,49.97,140409,,*11##120
$PSRFTXT,Version:GSW3.2.4_3.1.00.12-SDK003P1.00a##80
$PSRFTXT,Version2:F-GPS-03-0701301##50
$PSRFTXT,WAAS Enable##50
$PSRFTXT,TOW:  220862##50
$PSRFTXT,WK:   1527##101
$PSRFTXT,POS:  -485696 -5533168 3124457##50
$PSRFTXT,CLK:  95851##170
$GPGGA,132050.001,2931.3961,N,09500.9792,W,1,08,1.1,-35.7,M,-23.9,M,,0000*76##130
$GPGSA,A,3,10,24,29,30,12,02,15,26,,,,,3.0,1.1,2.8*35##160
$GPRMC,132050.001,A,2931.3961,N,09500.9792,W,45.39,50.88,140409,,*1E##130
$PSRFTXT,Version:GSW3.2.4_3.1.00.12-SDK003P1.00a##71
$PSRFTXT,Version2:F-GPS-03-0701301##50
$PSRFTXT,WAAS Enable##50
$PSRFTXT,TOW:  220864##50
$PSRFTXT,WK:   1527##90
$PSRFTXT,POS:  -485677 -5533162 3124470##50
$PSRFTXT,CLK:  95851##180
$GPGGA,132051.004,2931.4043,N,09500.9685,W,1,07,1.2,-35.1,M,-23.9,M,,0000*71##120
$GPGSA,A,3,10,24,29,30,12,02,26,,,,,,3.1,1.2,2.8*33##161
$GPRMC,132051.004,A,2931.4043,N,09500.9685,W,45.76,50.68,140409,,*16##120
$PSRFTXT,Version:GSW3.2.4_3.1.00.12-SDK003P1.00a##80
$PSRFTXT,Version2:F-GPS-03-0701301##60
$PSRFTXT,WAAS Enable##50
$PSRFTXT,TOW:  220865##40
$PSRFTXT,WK:   1527##100
$PSRFTXT,POS:  -485659 -5533157 3124483##50
$PSRFTXT,CLK:  95850##40
$PSRFTXT,CHNL: 12##181
$GPGGA,132051.997,2931.4121,N,09500.9578,W,1,08,1.1,-33.2,M,-23.9,M,,0000*7F##130
$GPGSA,A,3,10,24,29,30,12,02,15,26,,,,,3.0,1.1,2.8*35##160
$GPGSV,3,1,10,10,69,037,40,24,44,305,30,29,40,321,36,30,39,255,34*71##160
$GPGSV,3,2,10,12,36,212,26,02,33,060,37,15,24,159,27,26,14,167,32*70##90
$GPGSV,3,3,10,21,10,277,,04,01,079,*73##111
$PSRFTXT,Version:GSW3.2.4_3.1.00.12-SDK003P1.00a##90
$PSRFTXT,Version2:F-GPS-03-0701301##50
$PSRFTXT,WAAS Enable##50
$PSRFTXT,TOW:  220865##50
$PSRFTXT,WK:   1527##100
$PSRFTXT,POS:  -485642 -5533153 3124497##170
$GPGGA,132052.999,2931.4199,N,09500.9467,W,1,08,1.1,-32.5,M,-23.9,M,,0000*78##121
$GPGSA,A,3,10,24,29,30,12,02,15,26,,,,,3.0,1.1,2.8*35##160
$GPRMC,132052.999,A,2931.4199,N,09500.9467,W,46.02,52.01,140409,,*1D##120
$PSRFTXT,Version:GSW3.2.4_3.1.00.12-SDK003P1.00a##80
$PSRFTXT,Version2:F-GPS-03-0701301##50
$PSRFTXT,WAAS Enable##60
$PSRFTXT,TOW:  220866##40
$PSRFTXT,WK:   1527##100
$PSRFTXT,POS:  -485623 -5533148 3124510##181
$GPGGA,132054.000,2931.4277,N,09500.9353,W,1,08,1.1,-30.9,M,-23.9,M,,0000*7A##120
$GPGSA,A,3,10,24,29,30,12,02,15,26,,,,,3.0,1.1,2.8*35##160
$GPRMC,132054.000,A,2931.4277,N,09500.9353,W,46.53,51.40,140409,,*13##120
$PSRFTXT,Version:GSW3.2.4_3.1.00.12-SDK003P1.00a##80
$PSRFTXT,Version2:F-GPS-03-0701301##50
$PSRFTXT,WAAS Enable##51
$PSRFTXT,TOW:  220867##50
$PSRFTXT,WK:   1527##100
$PSRFTXT,POS:  -485604 -5533144 3124523##50
$PSRFTXT,CLK:  95851##170
$GPGGA,132055.002,2931.4357,N,09500.9240,W,1,07,1.2,-28.8,M,-23.9,M,,0000*7D##130
$GPGSA,A,3,10,24,29,30,02,15,26,,,,,,3.2,1.2,3.0*3E##160
$GPRMC,132055.002,A,2931.4357,N,09500.9240,W,46.70,52.09,140409,,*1F##111
$PSRFTXT,Version:GSW3.2.4_3.1.00.12-SDK003P1.00a##80
$PSRFTXT,Version2:F-GPS-03-0701301##50
$PSRFTXT,WAAS Enable##60
$PSRFTXT,TOW:  220869##50
$PSRFTXT,WK:   1527##90
$PSRFTXT,POS:  -485586 -5533140 3124537##50
$PSRFTXT,CLK:  95851##180
$GPGGA,132055.998,2931.4437,N,09500.9123,W,1,07,1.2,-27.0,M,-23.9,M,,0000*77##121
$GPGSA,A,3,10,24,29,30,02,15,26,,,,,,3.2,1.2,3.0*3E##160
$GPRMC,132055.998,A,2931.4437,N,09500.9123,W,46.89,52.91,140409,,*15##120
$PSRFTXT,Version:GSW3.2.4_3.1.00.12-SDK003P1.00a##80
$PSRFTXT,Version2:F-GPS-03-0701301##50
$PSRFTXT,WAAS Enable##50
$PSRFTXT,TOW:  220869##50
$PSRFTXT,WK:   1527##90
$PSRFTXT,POS:  -485566 -5533136 3124551##51
$PSRFTXT,CLK:  95851##50
$PSRFTXT,CHNL: 12##180
$GPGGA,132057.000,2931.4517,N,09500.9009,W,1,07,1.2,-25.2,M,-23.9,M,,0000*77##120
$GPGSA,A,3,10,24,29,30,02,15,26,,,,,,3.2,1.2,3.0*3E##160
$GPGSV,3,1,10,10,69,037,40,24,44,305,34,29,40,321,33,30,39,255,32*76##150
$GPGSV,3,2,10,12,36,212,,02,33,060,39,15,24,159,33,26,14,167,30*7D##101
$GPGSV,3,3,10,21,10,277,28,04,01,079,*79##110
$PSRFTXT,Version:GSW3.2.4_3.1.00.12-SDK003P1.00a##90
$PSRFTXT,Version2:F-GPS-03-0701301##50
$PSRFTXT,WAAS Enable##50
$PSRFTXT,TOW:  220870##50
$PSRFTXT,WK:   1527##180
$GPGGA,132057.998,2931.4595,N,09500.8889,W,1,07,1.2,-24.2,M,-23.9,M,,0000*75##121
$GPGSA,A,3,10,24,29,30,02,15,26,,,,,,3.2,1.2,3.0*3E##160
$GPRMC,132057.998,A,2931.4595,N,09500.8889,W,46.61,55.19,140409,,*17##110
$PSRFTXT,Version:GSW3.2.4_3.1.00.12-SDK003P1.00a##90
$PSRFTXT,Version2:F-GPS-03-0701301##50
$PSRFTXT,WAAS Enable##50
$PSRFTXT,TOW:  220871##50
$PSRFTXT,WK:   1527##90
$PSRFTXT,POS:  -485528 -5533127 3124578##51
$PSRFTXT,CLK:  95851##40
$PSRFTXT,CHNL: 12##180
$GPGGA,132059.006,2931.4670,N,09500.8763,W,1,08,1.1,-25.5,M,-23.9,M,,0000*7C##130
$GPGSA,A,3,10,24,29,30,12,02,15,26,,,,,3.0,1.1,2.8*35##160
$GPRMC,132059.006,A,2931.4670,N,09500.8763,W,45.56,56.42,140409,,*1E##120
$PSRFTXT,Version:GSW3.2.4_3.1.00.12-SDK003P1.00a##81
$PSRFTXT,Version2:F-GPS-03-0701301##60
$PSRFTXT,WAAS Enable##40
$PSRFTXT,TOW:  220873##50
$PSRFTXT,WK:   1527##100
$PSRFTXT,POS:  -485507 -5533121 3124589##40
$PSRFTXT,CLK:  95851##50
$PSRFTXT,CHNL: 12##170
$GPGGA,132059.998,2931.4740,N,09500.8643,W,1,07,1.2,-25.0,M,-23.9,M,,0000*7A##130
$GPGSA,A,3,10,24,29,12,02,15,26,,,,,,3.1,1.2,2.8*34##161
$GPRMC,132059.998,A,2931.4740,N,09500.8643,W,45.21,57.31,140409,,*14##110
$PSRFTXT,Version:GSW3.2.4_3.1.00.12-SDK003P1.00a##80
$PSRFTXT,Version2:F-GPS-03-0701301##60
$PSRFTXT,WAAS Enable##50
$PSRFTXT,TOW:  220873##60
$PSRFTXT,WK:   1527##80
$PSRFTXT,POS:  -485487 -5533117 3124600##50
$PSRFTXT,CLK:  95850##181
$GPGGA,132100.998,2931.4813,N,09500.8521,W,1,07,1.2,-24.2,M,-23.9,M,,0000*7A##120
$GPGSA,A,3,10,24,29,12,02,15,26,,,,,,3.1,1.2,2.8*34##160
$GPRMC,132100.998,A,2931.4813,N,09500.8521,W,43.87,57.82,140409,,*15##130
$PSRFTXT,Version:GSW3.2.4_3.1.00.12-SDK003P1.00a##70
$PSRFTXT,Version2:F-GPS-03-0701301##50
$PSRFTXT,WAAS Enable##50
$PSRFTXT,TOW:  220874##51
$PSRFTXT,WK:   1527##90
$PSRFTXT,POS:  -485467 -5533113 3124613##180
$GPGGA,132102.002,2931.4879,N,09500.8405,W,1,06,1.2,-24.8,M,-23.9,M,,0000*72##120
$GPGSA,A,3,10,24,29,12,02,15,,,,,,,3.5,1.2,3.3*3E##150
$GPGSV,3,1,10,10,67,036,41,24,45,306,37,29,41,321,27,30,39,253,*7A##161
$GPGSV,3,2,10,12,35,211,31,02,32,061,38,15,26,158,35,26,15,167,*79##100
$GPGSV,3,3,10,21,11,278,28,04,00,080,*70##110
$PSRFTXT,Version:GSW3.2.4_3.1.00.12-SDK003P1.00a##80
$PSRFTXT,Version2:F-GPS-03-0701301##50
$PSRFTXT,WAAS Enable##60
$PSRFTXT,TOW:  220876##50
$PSRFTXT,WK:   1527##170
$GPGGA,132103.001,2931.4945,N,09500.8288,W,1,06,1.2,-22.3,M,-23.9,M,,0000*70##121
$GPGSA,A,3,10,24,29,12,02,15,,,,,,,3.5,1.2,3.3*3E##160
$GPRMC,132103.001,A,2931.4945,N,09500.8288,W,43.17,59.25,140409,,*13##120
$PSRFTXT,Version:GSW3.2.4_3.1.00.12-SDK003P1.00a##80
$PSRFTXT,Version2:F-GPS-03-0701301##50
$PSRFTXT,WAAS Enable##50
$PSRFTXT,TOW:  220877##50
$PSRFTXT,WK:   1527##90
$PSRFTXT,POS:  -485428 -5533106 3124635##51
$PSRFTXT,CLK:  95850##50
$PSRFTXT,CHNL: 12##180
$GPGGA,132103.997,2931.5006,N,09500.8175,W,1,06,1.2,-22.9,M,-23.9,M,,0000*72##110
$GPGSA,A,3,10,24,29,12,02,15,,,,,,,3.5,1.2,3.3*3E##160
$GPRMC,132103.997,A,2931.5006,N,09500.8175,W,42.18,59.80,140409,,*1A##120
$PSRFTXT,Version:GSW3.2.4_3.1.00.12-SDK003P1.00a##81
$PSRFTXT,Version2:F-GPS-03-0701301##50
$PSRFTXT,WAAS Enable##50
$PSRFTXT,TOW:  220877##50
$PSRFTXT,WK:   1527##100
$PSRFTXT,POS:  -485410 -5533101 3124644##50
$PSRFTXT,CLK:  95850##40
$PSRFTXT,CHNL: 12##180
$GPGGA,132105.002,2931.5063,N,09500.8062,W,1,07,1.3,-20.9,M,-23.9,M,,0000*77##120
$GPGSA,A,3,10,24,30,12,02,15,26,,,,,,3.4,1.3,3.1*30##161
$GPRMC,132105.002,A,2931.5063,N,09500.8062,W,41.46,61.69,140409,,*19##120
$PSRFTXT,Version:GSW3.2.4_3.1.00.12-SDK003P1.00a##80
$PSRFTXT,Version2:F-GPS-03-0701301##50
$PSRFTXT,WAAS Enable##50
$PSRFTXT,TOW:  220879##50
$PSRFTXT,WK:   1527##90
$PSRFTXT,POS:  -485391 -5533099 3124654##181
$GPGGA,132105.997,2931.5113,N,09500.7951,W,1,07,1.3,-20.1,M,-23.9,M,,0000*7A##120
$GPGSA,A,3,10,24,30,12,02,15,26,,,,,,3.4,1.3,3.1*30##160
$GPRMC,132105.997,A,2931.5113,N,09500.7951,W,40.00,61.21,140409,,*13##120
$PSRFTXT,Version:GSW3.2.4_3.1.00.12-SDK003P1.00a##80
$PSRFTXT,Version2:F-GPS-03-0701301##50
$PSRFTXT,WAAS Enable##50
$PSRFTXT,TOW:  220879##51
$PSRFTXT,WK:   1527##100
$PSRFTXT,POS:  -485373 -5533097 3124663##40
$PSRFTXT,CLK:  95850##50
$PSRFTXT,CHNL: 12##180
$GPGGA,132107.004,2931.5166,N,09500.7845,W,1,07,1.3,-17.3,M,-23.9,M,,0000*7B##120
$GPGSA,A,3,10,24,30,12,02,15,26,,,,,,3.4,1.3,3.1*30##160
$GPGSV,3,1,10,10,67,036,41,24,45,306,31,29,41,321,,30,39,253,29*72##151
$GPGSV,3,2,10,12,35,211,37,02,32,061,37,15,26,158,36,26,15,167,27*76##100
$GPGSV,3,3,10,21,11,278,,04,00,080,*7A##110
$PSRFTXT,Version:GSW3.2.4_3.1.00.12-SDK003P1.00a##90
$PSRFTXT,Version2:F-GPS-03-0701301##40
$PSRFTXT,WAAS Enable##60
$PSRFTXT,TOW:  220881##50
$PSRFTXT,WK:   1527##90
$PSRFTXT,POS:  -485356 -5533096 3124673##181
$GPGGA,132108.001,2931.5221,N,09500.7734,W,1,06,1.3,-18.9,M,-23.9,M,,0000*7C##120
$GPGSA,A,3,10,24,30,12,02,15,,,,,,,3.8,1.3,3.5*3C##150
$GPRMC,132108.001,A,2931.5221,N,09500.7734,W,38.01,61.17,140409,,*1C##120
$PSRFTXT,Version:GSW3.2.4_3.1.00.12-SDK003P1.00a##80
$PSRFTXT,Version2:F-GPS-03-0701301##50
$PSRFTXT,WAAS Enable##61
$PSRFTXT,TOW:  220882##40
$PSRFTXT,WK:   1527##100
$PSRFTXT,POS:  -485337 -5533091 3124681##50
$PSRFTXT,CLK:  95849##40
$PSRFTXT,CHNL: 12##180
$GPGGA,132108.999,2931.5272,N,09500.7633,W,1,07,1.1,-17.7,M,-23.9,M,,0000*76##120
$GPGSA,A,3,10,24,29,30,12,02,15,,,,,,3.5,1.1,3.3*3E##161
$GPRMC,132108.999,A,2931.5272,N,09500.7633,W,36.42,60.26,140409,,*1E##130
$PSRFTXT,Version:GSW3.2.4_3.1.00.12-SDK003P1.00a##70
$PSRFTXT,Version2:F-GPS-03-0701301##50
$PSRFTXT,WAAS Enable##50
$PSRFTXT,TOW:  220882##50
$PSRFTXT,WK:   1527##100
$PSRFTXT,POS:  -485321 -5533089 3124690##170
$GPGGA,132110.005,2931.5325,N,09500.7534,W,1,06,1.3,-18.7,M,-23.9,M,,0000*78##121
$GPGSA,A,3,10,24,30,12,02,15,,,,,,,3.8,1.3,3.5*3C##160
$GPRMC,132110.005,A,2931.5325,N,09500.7534,W,35.46,60.03,140409,,*1C##120
$PSRFTXT,Version:GSW3.2.4_3.1.00.12-SDK003P1.00a##80
$PSRFTXT,Version2:F-GPS-03-0701301##50
$PSRFTXT,WAAS Enable##50
$PSRFTXT,TOW:  220884##50
$PSRFTXT,WK:   1527##90
$PSRFTXT,POS:  -485304 -5533085 3124698##61
$PSRFTXT,CLK:  95850##170
$GPGGA,132110.997,2931.5376,N,09500.7437,W,1,07,1.1,-18.2,M,-23.9,M,,0000*78##120
$GPGSA,A,3,10,24,29,30,12,02,15,,,,,,3.5,1.1,3.3*3E##160
$GPRMC,132110.997,A,2931.5376,N,09500.7437,W,34.26,59.42,140409,,*12##120
$PSRFTXT,Version:GSW3.2.4_3.1.00.12-SDK003P1.00a##80
$PSRFTXT,Version2:F-GPS-03-0701301##51
$PSRFTXT,WAAS Enable##60
$PSRFTXT,TOW:  220884##40
$PSRFTXT,WK:   1527##100
$PSRFTXT,POS:  -485288 -5533082 3124706##50
$PSRFTXT,CLK:  95850##40
$PSRFTXT,CHNL: 12##180
$GPGGA,132111.998,2931.5422,N,09500.7348,W,1,08,1.1,-17.7,M,-23.9,M,,0000*7A##130
$GPGSA,A,3,10,24,29,30,12,02,15,26,,,,,3.1,1.1,2.8*34##161
$GPGSV,3,1,10,10,67,036,41,24,45,306,34,29,41,321,25,30,39,253,28*71##160
$GPGSV,3,2,10,12,35,211,38,02,32,061,38,15,26,158,36,26,15,167,27*76##90
$GPGSV,3,3,10,21,11,278,,04,00,080,*7A##110
$PSRFTXT,Version:GSW3.2.4_3.1.00.12-SDK003P1.00a##90
$PSRFTXT,Version2:F-GPS-03-0701301##50
$PSRFTXT,WAAS Enable##50
$PSRFTXT,TOW:  220885##51
$PSRFTXT,WK:   1527##90
$PSRFTXT,POS:  -485274 -5533080 3124714##180
$GPGGA,132113.000,2931.5462,N,09500.7261,W,1,08,1.1,-16.5,M,-23.9,M,,0000*7D##130
$GPGSA,A,3,10,24,29,30,12,02,15,26,,,,,3.1,1.1,2.8*34##160
$GPRMC,132113.000,A,2931.5462,N,09500.7261,W,29.95,62.90,140409,,*12##110
$PSRFTXT,Version:GSW3.2.4_3.1.00.12-SDK003P1.00a##91
$PSRFTXT,Version2:F-GPS-03-0701301##50
$PSRFTXT,WAAS Enable##50
$PSRFTXT,TOW:  220886##50
$PSRFTXT,WK:   1527##90
$PSRFTXT,POS:  -485259 -5533078 3124721##50
$PSRFTXT,CLK:  95852##180
$GPGGA,132114.001,2931.5499,N,09500.7178,W,1,08,1.1,-16.1,M,-23.9,M,,0000*70##120
$GPGSA,A,3,10,24,29,30,12,02,15,26,,,,,3.1,1.1,2.8*34##161
$GPRMC,132114.001,A,2931.5499,N,09500.7178,W,28.74,65.12,140409,,*18##120
$PSRFTXT,Version:GSW3.2.4_3.1.00.12-SDK003P1.00a##80
$PSRFTXT,Version2:F-GPS-03-0701301##50
$PSRFTXT,WAAS Enable##60
$PSRFTXT,TOW:  220888##40
$PSRFTXT,WK:   1527##100
$PSRFTXT,POS:  -485246 -5533077 3124727##50
$PSRFTXT,CLK:  95853##40
$PSRFTXT,CHNL: 12##181
$GPGGA,132115.000,2931.5530,N,09500.7101,W,1,06,1.7,-16.2,M,-23.9,M,,0000*77##120
$GPGSA,A,3,10,30,12,02,15,26,,,,,,,3.9,1.7,3.5*3B##160
$GPRMC,132115.000,A,2931.5530,N,09500.7101,W,26.93,68.16,140409,,*1A##110
$PSRFTXT,Version:GSW3.2.4_3.1.00.12-SDK003P1.00a##80
$PSRFTXT,Version2:F-GPS-03-0701301##60
$PSRFTXT,WAAS Enable##61
$PSRFTXT,TOW:  220888##40
$PSRFTXT,WK:   1527##90
$PSRFTXT,POS:  -485233 -5533075 3124732##60
$PSRFTXT,CLK:  95855##170
$GPGGA,132116.005,2931.5559,N,09500.7032,W,1,07,1.2,-16.3,M,-23.9,M,,0000*7A##110
$GPGSA,A,3,10,29,30,12,02,15,26,,,,,,3.1,1.2,2.9*30##160
$GPRMC,132116.005,A,2931.5559,N,09500.7032,W,24.66,68.33,140409,,*1D##121
$PSRFTXT,Version:GSW3.2.4_3.1.00.12-SDK003P1.00a##80
$PSRFTXT,Version2:F-GPS-03-0701301##50
$PSRFTXT,WAAS Enable##50
$PSRFTXT,TOW:  220890##60
$PSRFTXT,WK:   1527##80
$PSRFTXT,POS:  -485222 -5533073 3124736##50
$PSRFTXT,CLK:  95856##60
$PSRFTXT,CHNL: 12##171
$GPGGA,132116.996,2931.5581,N,09500.6975,W,1,07,1.2,-14.8,M,-23.9,M,,0000*7E##120
$GPGSA,A,3,10,29,30,12,02,15,26,,,,,,3.1,1.2,2.9*30##150
$GPGSV,3,1,10,10,67,036,41,24,45,306,,29,41,321,27,30,39,253,31*7C##160
$GPGSV,3,2,10,12,35,211,37,02,32,061,39,15,26,158,38,26,15,167,27*76##90
$GPGSV,3,3,10,21,11,278,,04,00,080,*7A##120
$PSRFTXT,Version:GSW3.2.4_3.1.00.12-SDK003P1.00a##81
$PSRFTXT,Version2:F-GPS-03-0701301##50
$PSRFTXT,WAAS Enable##60
$PSRFTXT,TOW:  220890##40
$PSRFTXT,WK:   1527##180
$GPGGA,132117.997,2931.5597,N,09500.6922,W,1,07,1.3,-14.0,M,-23.9,M,,0000*72##120
$GPGSA,A,3,10,24,30,12,02,15,26,,,,,,3.4,1.3,3.1*30##160
$GPRMC,132117.997,A,2931.5597,N,09500.6922,W,20.03,74.99,140409,,*1F##121
$PSRFTXT,Version:GSW3.2.4_3.1.00.12-SDK003P1.00a##80
$PSRFTXT,Version2:F-GPS-03-0701301##50
$PSRFTXT,WAAS Enable##50
$PSRFTXT,TOW:  220891##50
$PSRFTXT,WK:   1527##100
$PSRFTXT,POS:  -485204 -5533073 3124744##50
$PSRFTXT,CLK:  95858##180
$GPGGA,132119.002,2931.5607,N,09500.6901,W,1,08,1.1,-13.6,M,-23.9,M,,0000*7E##121
$GPGSA,A,3,10,24,29,30,12,02,15,26,,,,,3.1,1.1,2.8*34##160
$GPRMC,132119.002,A,2931.5607,N,09500.6901,W,14.57,76.71,140409,,*1D##120
$PSRFTXT,Version:GSW3.2.4_3.1.00.12-SDK003P1.00a##80
$PSRFTXT,Version2:F-GPS-03-0701301##60
$PSRFTXT,WAAS Enable##40
$PSRFTXT,TOW:  220893##50
$PSRFTXT,WK:   1527##100
$PSRFTXT,POS:  -485200 -5533073 3124745##51
$PSRFTXT,CLK:  95858##40
$PSRFTXT,CHNL: 12##180
$GPGGA,132120.001,2931.5614,N,09500.6910,W,1,07,1.3,-14.8,M,-23.9,M,,0000*71##120
$GPGSA,A,3,10,24,30,12,02,15,26,,,,,,3.4,1.3,3.1*30##160
$GPRMC,132120.001,A,2931.5614,N,09500.6910,W,9.10,78.43,140409,,*26##110
$PSRFTXT,Version:GSW3.2.4_3.1.00.12-SDK003P1.00a##81
$PSRFTXT,Version2:F-GPS-03-0701301##60
$PSRFTXT,WAAS Enable##50
$PSRFTXT,TOW:  220894##50
$PSRFTXT,WK:   1527##90
$PSRFTXT,POS:  -485202 -5533071 3124746##50
$PSRFTXT,CLK:  95856##180
$GPGGA,132120.998,2931.5618,N,09500.6910,W,1,08,1.1,-15.4,M,-23.9,M,,0000*74##120
$GPGSA,A,3,10,24,29,30,12,02,15,26,,,,,3.1,1.1,2.9*35##161
$GPRMC,132120.998,A,2931.5618,N,09500.6910,W,6.24,85.43,140409,,*29##120
$PSRFTXT,Version:GSW3.2.4_3.1.00.12-SDK003P1.00a##80
$PSRFTXT,Version2:F-GPS-03-0701301##50
$PSRFTXT,WAAS Enable##50
$PSRFTXT,TOW:  220894##50
$PSRFTXT,WK:   1527##100
$PSRFTXT,POS:  -485202 -5533070 3124746##50
$PSRFTXT,CLK:  95856##181
$GPGGA,132122.001,2931.5620,N,09500.6923,W,1,07,1.3,-16.5,M,-23.9,M,,0000*7B##120
$GPGSA,A,3,10,24,30,12,02,15,26,,,,,,3.4,1.3,3.1*30##150
$GPGSV,3,1,10,10,67,036,41,24,45,306,33,29,41,321,,30,39,253,33*7B##160
$GPGSV,3,2,10,12,35,211,39,02,32,061,37,15,26,158,38,26,15,167,24*75##100
$GPGSV,3,3,10,21,11,278,26,04,00,080,*7E##111
$PSRFTXT,Version:GSW3.2.4_3.1.00.12-SDK003P1.00a##100
$PSRFTXT,Version2:F-GPS-03-0701301##40
$PSRFTXT,WAAS Enable##50
$PSRFTXT,TOW:  220896##50
$PSRFTXT,WK:   1527##90
$PSRFTXT,POS:  -485204 -5533069 3124746##180
$GPGGA,132123.003,2931.5612,N,09500.6941,W,1,07,1.1,-14.8,M,-23.9,M,,0000*70##120
$GPGSA,A,3,10,24,29,30,12,02,15,,,,,,3.5,1.1,3.3*3E##161
$GPRMC,132123.003,A,2931.5612,N,09500.6941,W,0.56,46.65,140409,,*27##120
$PSRFTXT,Version:GSW3.2.4_3.1.00.12-SDK003P1.00a##80
$PSRFTXT,Version2:F-GPS-03-0701301##50
$PSRFTXT,WAAS Enable##50
$PSRFTXT,TOW:  220897##50
$PSRFTXT,WK:   1527##90
$PSRFTXT,POS:  -485207 -5533071 3124746##50
$PSRFTXT,CLK:  95852##181
$GPGGA,132123.997,2931.5614,N,09500.6958,W,1,07,1.1,-17.1,M,-23.9,M,,0000*70##120
$GPGSA,A,3,10,24,29,30,12,02,15,,,,,,3.5,1.1,3.3*3E##170
$GPRMC,132123.997,A,2931.5614,N,09500.6958,W,0.42,127.38,140409,,*16##110
$PSRFTXT,Version:GSW3.2.4_3.1.00.12-SDK003P1.00a##80
$PSRFTXT,Version2:F-GPS-03-0701301##50
$PSRFTXT,WAAS Enable##50
$PSRFTXT,TOW:  220897##51
$PSRFTXT,WK:   1527##90
$PSRFTXT,POS:  -485209 -5533068 3124745##60
$PSRFTXT,CLK:  95852##40
$PSRFTXT,CHNL: 12##180
$GPGGA,132125.002,2931.5614,N,09500.6962,W,1,06,1.3,-17.7,M,-23.9,M,,0000*7F##110
$GPGSA,A,3,10,24,30,12,02,15,,,,,,,3.8,1.3,3.5*3C##160
$GPRMC,132125.002,A,2931.5614,N,09500.6962,W,0.31,100.44,140409,,*16##121
$PSRFTXT,Version:GSW3.2.4_3.1.00.12-SDK003P1.00a##80
$PSRFTXT,Version2:F-GPS-03-0701301##50
$PSRFTXT,WAAS Enable##60
$PSRFTXT,TOW:  220899##40
$PSRFTXT,WK:   1527##100
$PSRFTXT,POS:  -485210 -5533068 3124745##60
$PSRFTXT,CLK:  95853##170
$GPGGA,132125.999,2931.5609,N,09500.6956,W,1,07,1.3,-15.7,M,-23.9,M,,0000*7C##121
$GPGSA,A,3,10,24,30,12,02,15,26,,,,,,3.4,1.3,3.1*30##160
$GPRMC,132125.999,A,2931.5609,N,09500.6956,W,0.12,65.34,140409,,*22##120
$PSRFTXT,Version:GSW3.2.4_3.1.00.12-SDK003P1.00a##70
$PSRFTXT,Version2:F-GPS-03-0701301##50
$PSRFTXT,WAAS Enable##70
$PSRFTXT,TOW:  220899##40
$PSRFTXT,WK:   1527##90
$PSRFTXT,POS:  -485209 -5533070 3124745##61
$PSRFTXT,CLK:  95853##170
$GPGGA,132127.001,2931.5612,N,09500.6966,W,1,06,1.3,-16.6,M,-23.9,M,,0000*7C##110
$GPGSA,A,3,10,24,30,12,02,15,,,,,,,3.8,1.3,3.5*3C##160
$GPGSV,3,1,10,10,67,036,41,24,45,306,32,29,41,321,,30,39,253,34*7D##150
$GPGSV,3,2,10,12,35,211,37,02,32,061,37,15,26,158,37,26,15,167,*72##101
$GPGSV,3,3,10,21,11,278,,04,00,080,*7A##110
$PSRFTXT,Version:GSW3.2.4_3.1.00.12-SDK003P1.00a##90
$PSRFTXT,Version2:F-GPS-03-0701301##50
$PSRFTXT,WAAS Enable##50
$PSRFTXT,TOW:  220901##50
$PSRFTXT,WK:   1527##90
$PSRFTXT,POS:  -485211 -5533069 3124745##180
$GPGGA,132128.001,2931.5608,N,09500.6974,W,1,06,1.3,-16.5,M,-23.9,M,,0000*78##121
$GPGSA,A,3,10,24,30,12,02,15,,,,,,,3.8,1.3,3.5*3C##160
$GPRMC,132128.001,A,2931.5608,N,09500.6974,W,0.17,313.33,140409,,*16##110
$PSRFTXT,Version:GSW3.2.4_3.1.00.12-SDK003P1.00a##80
$PSRFTXT,Version2:F-GPS-03-0701301##50
$PSRFTXT,WAAS Enable##60
$PSRFTXT,TOW:  220902##50
$PSRFTXT,WK:   1527##90
$PSRFTXT,POS:  -485212 -5533069 3124744##51
$PSRFTXT,CLK:  95852##40
$PSRFTXT,CHNL: 12##180
$GPGGA,132128.998,2931.5607,N,09500.6977,W,1,07,1.3,-16.9,M,-23.9,M,,0000*70##120
$GPGSA,A,3,10,24,30,12,02,15,26,,,,,,3.4,1.3,3.2*33##160
$GPRMC,132128.998,A,2931.5607,N,09500.6977,W,0.14,281.72,140409,,*1F##120
$PSRFTXT,Version:GSW3.2.4_3.1.00.12-SDK003P1.00a##81
$PSRFTXT,Version2:F-GPS-03-0701301##50
$PSRFTXT,WAAS Enable##50
$PSRFTXT,TOW:  220902##50
$PSRFTXT,WK:   1527##100
$PSRFTXT,POS:  -485212 -5533069 3124744##50
$PSRFTXT,CLK:  95853##180
$GPGGA,132130.001,2931.5605,N,09500.6994,W,1,07,1.3,-17.7,M,-23.9,M,,0000*70##120
$GPGSA,A,3,10,24,30,12,02,15,26,,,,,,3.4,1.3,3.2*33##161
$GPRMC,132130.001,A,2931.5605,N,09500.6994,W,0.21,285.45,140409,,*16##110
$PSRFTXT,Version:GSW3.2.4_3.1.00.12-SDK003P1.00a##80
$PSRFTXT,Version2:F-GPS-03-0701301##50
$PSRFTXT,WAAS Enable##60
$PSRFTXT,TOW:  220904##50
$PSRFTXT,WK:   1527##90
$PSRFTXT,POS:  -485215 -5533068 3124743##50
$PSRFTXT,CLK:  95853##181
$GPGGA,132131.004,2931.5610,N,09500.6995,W,1,07,1.3,-17.4,M,-23.9,M,,0000*72##120
$GPGSA,A,3,10,24,30,12,02,15,26,,,,,,3.4,1.3,3.2*33##160
$GPRMC,132131.004,A,2931.5610,N,09500.6995,W,0.38,357.64,140409,,*12##120
$PSRFTXT,Version:GSW3.2.4_3.1.00.12-SDK003P1.00a##80
$PSRFTXT,Version2:F-GPS-03-0701301##50
$PSRFTXT,WAAS Enable##50
$PSRFTXT,TOW:  220905##51
$PSRFTXT,WK:   1527##90
$PSRFTXT,POS:  -485215 -5533068 3124744##50
$PSRFTXT,CLK:  95852##180
$GPGGA,132131.998,2931.5606,N,09500.7000,W,1,07,1.3,-15.5,M,-23.9,M,,0000*7E##120
$GPGSA,A,3,10,24,30,12,02,15,26,,,,,,3.4,1.3,3.2*33##160
$GPGSV,3,1,10,10,67,036,40,24,45,306,29,29,41,321,,30,39,253,31*73##161
$GPGSV,3,2,10,12,35,211,38,02,32,061,38,15,26,158,37,26,15,167,28*78##90
$GPGSV,3,3,10,21,11,278,,04,00,080,*7A##130
$PSRFTXT,Version:GSW3.2.4_3.1.00.12-SDK003P1.00a##70
$PSRFTXT,Version2:F-GPS-03-0701301##50
$PSRFTXT,WAAS Enable##50
$PSRFTXT,TOW:  220905##50
$PSRFTXT,WK:   1527##90
$PSRFTXT,POS:  -485216 -5533070 3124744##181
$GPGGA,132133.000,2931.5604,N,09500.7011,W,1,07,1.3,-15.1,M,-23.9,M,,0000*72##120
$GPGSA,A,3,10,24,30,12,02,15,26,,,,,,3.4,1.3,3.2*33##160
$GPRMC,132133.000,A,2931.5604,N,09500.7011,W,0.45,98.31,140409,,*2F##120
$PSRFTXT,Version:GSW3.2.4_3.1.00.12-SDK003P1.00a##80
$PSRFTXT,Version2:F-GPS-03-0701301##50
$PSRFTXT,WAAS Enable##50
$PSRFTXT,TOW:  220906##51
$PSRFTXT,WK:   1527##90
$PSRFTXT,POS:  -485218 -5533070 3124744##60
$PSRFTXT,CLK:  95853##170
$GPGGA,132133.998,2931.5610,N,09500.7020,W,1,07,1.3,-17.0,M,-23.9,M,,0000*7E##120
$GPGSA,A,3,10,24,30,12,02,15,26,,,,,,3.4,1.3,3.2*33##160
$GPRMC,132133.998,A,2931.5610,N,09500.7020,W,0.44,60.97,140409,,*2A##121
$PSRFTXT,Version:GSW3.2.4_3.1.00.12-SDK003P1.00a##80
$PSRFTXT,Version2:F-GPS-03-0701301##50
$PSRFTXT,WAAS Enable##60
$PSRFTXT,TOW:  220907##40
$PSRFTXT,WK:   1527##100
$PSRFTXT,POS:  -485219 -5533068 3124744##50
$PSRFTXT,CLK:  95853##40
$PSRFTXT,CHNL: 12##180
$GPGGA,132135.002,2931.5614,N,09500.7025,W,1,07,1.3,-18.0,M,-23.9,M,,0000*7C##121
$GPGSA,A,3,10,24,30,12,02,15,26,,,,,,3.4,1.3,3.2*33##160
$GPRMC,132135.002,A,2931.5614,N,09500.7025,W,0.64,355.48,140409,,*12##120
$PSRFTXT,Version:GSW3.2.4_3.1.00.12-SDK003P1.00a##80
$PSRFTXT,Version2:F-GPS-03-0701301##50
$PSRFTXT,WAAS Enable##50
$PSRFTXT,TOW:  220909##50
$PSRFTXT,WK:   1527##90
$PSRFTXT,POS:  -485220 -5533067 3124744##51
$PSRFTXT,CLK:  95852##180
$GPGGA,132136.000,2931.5615,N,09500.7024,W,1,07,1.3,-17.0,M,-23.9,M,,0000*72##120
$GPGSA,A,3,10,24,30,12,02,15,26,,,,,,3.4,1.3,3.2*33##160
$GPRMC,132136.000,A,2931.5615,N,09500.7024,W,0.13,70.61,140409,,*2C##120
$PSRFTXT,Version:GSW3.2.4_3.1.00.12-SDK003P1.00a##81
$PSRFTXT,Version2:F-GPS-03-0701301##50
$PSRFTXT,WAAS Enable##50
$PSRFTXT,TOW:  220909##50
$PSRFTXT,WK:   1527##90
$PSRFTXT,POS:  -485220 -5533067 3124745##50
$PSRFTXT,CLK:  95853##50
$PSRFTXT,CHNL: 12##180
$GPGGA,132137.000,2931.5617,N,09500.7028,W,1,07,1.3,-16.4,M,-23.9,M,,0000*78##120
$GPGSA,A,3,10,24,30,12,02,15,26,,,,,,3.4,1.3,3.2*33##151
$GPGSV,3,1,10,10,67,036,41,24,45,306,29,29,41,321,,30,39,253,30*73##160
$GPGSV,3,2,10,12,35,211,37,02,32,061,38,15,26,158,36,26,15,167,29*77##100
$GPGSV,3,3,10,21,11,278,,04,00,080,*7A##110
$PSRFTXT,Version:GSW3.2.4_3.1.00.12-SDK003P1.00a##80
$PSRFTXT,Version2:F-GPS-03-0701301##50
$PSRFTXT,WAAS Enable##60
$PSRFTXT,TOW:  220910##41
$PSRFTXT,WK:   1527##180
$GPGGA,132137.999,2931.5613,N,09500.7025,W,1,07,1.3,-15.3,M,-23.9,M,,0000*7C##120
$GPGSA,A,3,10,24,30,12,02,15,26,,,,,,3.4,1.3,3.2*33##160
$GPRMC,132137.999,A,2931.5613,N,09500.7025,W,0.54,53.70,140409,,*21##120
$PSRFTXT,Version:GSW3.2.4_3.1.00.12-SDK003P1.00a##80
$PSRFTXT,Version2:F-GPS-03-0701301##51
$PSRFTXT,WAAS Enable##50
$PSRFTXT,TOW:  220911##50
$PSRFTXT,WK:   1527##100
$PSRFTXT,POS:  -485220 -5533069 3124746##50
$PSRFTXT,CLK:  95854##170
$GPGGA,132139.000,2931.5613,N,09500.7023,W,1,07,1.3,-15.8,M,-23.9,M,,0000*76##130
$GPGSA,A,3,10,24,30,12,02,15,26,,,,,,3.4,1.3,3.2*33##151
$GPRMC,132139.000,A,2931.5613,N,09500.7023,W,0.56,35.47,140409,,*26##120
$PSRFTXT,Version:GSW3.2.4_3.1.00.12-SDK003P1.00a##80
$PSRFTXT,Version2:F-GPS-03-0701301##50
$PSRFTXT,WAAS Enable##60
$PSRFTXT,TOW:  220912##40
$PSRFTXT,WK:   1527##100
$PSRFTXT,POS:  -485220 -5533069 3124745##50
$PSRFTXT,CLK:  95854##40
$PSRFTXT,CHNL: 12##181
$GPGGA,132140.002,2931.5612,N,09500.7031,W,1,07,1.3,-15.9,M,-23.9,M,,0000*79##120
$GPGSA,A,3,10,24,30,12,02,15,26,,,,,,3.4,1.3,3.2*33##160
$GPRMC,132140.002,A,2931.5612,N,09500.7031,W,0.46,323.94,140409,,*13##120
$PSRFTXT,Version:GSW3.2.4_3.1.00.12-SDK003P1.00a##80
$PSRFTXT,Version2:F-GPS-03-0701301##50
$PSRFTXT,WAAS Enable##60
$PSRFTXT,TOW:  220914##40
$PSRFTXT,WK:   1527##91
$PSRFTXT,POS:  -485221 -5533068 3124745##50
$PSRFTXT,CLK:  95854##180
$GPGGA,132140.998,2931.5616,N,09500.7035,W,1,07,1.3,-16.3,M,-23.9,M,,0000*7A##120
$GPGSA,A,3,10,24,30,12,02,15,26,,,,,,3.4,1.3,3.2*33##160
$GPRMC,132140.998,A,2931.5616,N,09500.7035,W,0.23,244.41,140409,,*12##121
$PSRFTXT,Version:GSW3.2.4_3.1.00.12-SDK003P1.00a##80
$PSRFTXT,Version2:F-GPS-03-0701301##50
$PSRFTXT,WAAS Enable##60
$PSRFTXT,TOW:  220914##40
$PSRFTXT,WK:   1527##100
$PSRFTXT,POS:  -485222 -5533068 3124746##50
$PSRFTXT,CLK:  95854##180
$GPGGA,132142.002,2931.5620,N,09500.7036,W,1,07,1.3,-18.2,M,-23.9,M,,0000*7B##121
$GPGSA,A,3,10,24,30,12,02,15,26,,,,,,3.4,1.3,3.2*33##150
$GPGSV,3,1,10,10,67,036,40,24,45,306,29,29,41,321,,30,39,253,28*7B##160
$GPGSV,3,2,10,12,35,211,37,02,32,061,39,15,26,158,38,26,15,167,30*70##100
$GPGSV,3,3,10,21,11,278,,04,00,080,22*7A##120
$PSRFTXT,Version:GSW3.2.4_3.1.00.12-SDK003P1.00a##80
$PSRFTXT,Version2:F-GPS-03-0701301##50
$PSRFTXT,WAAS Enable##51
$PSRFTXT,TOW:  220916##50
$PSRFTXT,WK:   1527##90
$PSRFTXT,POS:  -485222 -5533066 3124745##180
$GPGGA,132142.999,2931.5623,N,09500.7034,W,1,07,1.3,-18.2,M,-23.9,M,,0000*71##120
$GPGSA,A,3,10,24,30,12,02,15,26,,,,,,3.4,1.3,3.2*33##160
$GPRMC,132142.999,A,2931.5623,N,09500.7034,W,0.48,78.06,140409,,*25##121
$PSRFTXT,Version:GSW3.2.4_3.1.00.12-SDK003P1.00a##80
$PSRFTXT,Version2:F-GPS-03-0701301##50
$PSRFTXT,WAAS Enable##50
$PSRFTXT,TOW:  220916##50
$PSRFTXT,WK:   1527##90
$PSRFTXT,POS:  -485221 -5533065 3124746##50
$PSRFTXT,CLK:  95855##190
$GPGGA,132143.998,2931.5623,N,09500.7031,W,1,07,1.3,-17.0,M,-23.9,M,,0000*79##111
$GPGSA,A,3,10,24,30,12,02,15,26,,,,,,3.4,1.3,3.2*33##160
$GPRMC,132143.998,A,2931.5623,N,09500.7031,W,0.33,15.73,140409,,*25##120
$PSRFTXT,Version:GSW3.2.4_3.1.00.12-SDK003P1.00a##80
$PSRFTXT,Version2:F-GPS-03-0701301##50
$PSRFTXT,WAAS Enable##50
$PSRFTXT,TOW:  220917##50
$PSRFTXT,WK:   1527##90
$PSRFTXT,POS:  -485221 -5533067 3124746##50
$PSRFTXT,CLK:  95854##51
$PSRFTXT,CHNL: 12##180
$GPGGA,132145.003,2931.5623,N,09500.7030,W,1,07,1.3,-16.8,M,-23.9,M,,0000*7C##120
$GPGSA,A,3,10,24,30,12,02,15,26,,,,,,3.4,1.3,3.2*33##160
$GPRMC,132145.003,A,2931.5623,N,09500.7030,W,0.28,122.23,140409,,*13##110
$PSRFTXT,Version:GSW3.2.4_3.1.00.12-SDK003P1.00a##90
$PSRFTXT,Version2:F-GPS-03-0701301##51
$PSRFTXT,WAAS Enable##50
$PSRFTXT,TOW:  220919##50
$PSRFTXT,WK:   1527##90
$PSRFTXT,POS:  -485221 -5533067 3124746##50
$PSRFTXT,CLK:  95854##180
$GPGGA,132145.999,2931.5620,N,09500.7027,W,1,07,1.3,-15.3,M,-23.9,M,,0000*7B##120
$GPGSA,A,3,10,24,30,12,02,15,26,,,,,,3.4,1.3,3.2*33##161
$GPRMC,132145.999,A,2931.5620,N,09500.7027,W,0.23,116.69,140409,,*1E##120
$PSRFTXT,Version:GSW3.2.4_3.1.00.12-SDK003P1.00a##80
$PSRFTXT,Version2:F-GPS-03-0701301##50
$PSRFTXT,WAAS Enable##50
$PSRFTXT,TOW:  220919##50
$PSRFTXT,WK:   1527##90
$PSRFTXT,POS:  -485221 -5533068 3124747##60
$PSRFTXT,CLK:  95854##181
$GPGGA,132147.002,2931.5622,N,09500.7031,W,1,07,1.3,-15.9,M,-23.9,M,,0000*7D##120
$GPGSA,A,3,10,24,30,12,02,15,26,,,,,,3.4,1.3,3.2*33##150
$GPGSV,3,1,10,10,67,036,40,24,45,306,30,29,41,321,,30,39,253,30*7A##160
$GPGSV,3,2,10,12,35,211,37,02,32,061,38,15,26,158,36,26,15,167,30*7F##90
$GPGSV,3,3,10,21,11,278,,04,00,080,*7A##161
$GPRMC,132147.002,A,2931.5622,N,09500.7031,W,0.13,0.88,140409,,*18##110
$PSRFTXT,Version:GSW3.2.4_3.1.00.12-SDK003P1.00a##90
$PSRFTXT,Version2:F-GPS-03-0701301##50
$PSRFTXT,WAAS Enable##50
$PSRFTXT,TOW:  220921##50
$PSRFTXT,WK:   1527##180
$GPGGA,132148.000,2931.5623,N,09500.7026,W,1,07,1.3,-16.0,M,-23.9,M,,0000*7D##120
$GPGSA,A,3,10,24,30,12,02,15,26,,,,,,3.4,1.3,3.2*33##161
$GPRMC,132148.000,A,2931.5623,N,09500.7026,W,0.11,224.17,140409,,*12##110
$PSRFTXT,Version:GSW3.2.4_3.1.00.12-SDK003P1.00a##90
$PSRFTXT,Version2:F-GPS-03-0701301##50
$PSRFTXT,WAAS Enable##50
$PSRFTXT,TOW:  220921##50
$PSRFTXT,WK:   1527##90
$PSRFTXT,POS:  -485220 -5533068 3124747##50
$PSRFTXT,CLK:  95855##40
$PSRFTXT,CHNL: 12##181
$GPGGA,132149.000,2931.5625,N,09500.7028,W,1,07,1.3,-16.8,M,-23.9,M,,0000*7C##120
$GPGSA,A,3,10,24,30,12,02,15,26,,,,,,3.4,1.3,3.2*33##160
$GPRMC,132149.000,A,2931.5625,N,09500.7028,W,0.26,76.29,140409,,*27##120
$PSRFTXT,Version:GSW3.2.4_3.1.00.12-SDK003P1.00a##80
$PSRFTXT,Version2:F-GPS-03-0701301##50
$PSRFTXT,WAAS Enable##51
$PSRFTXT,TOW:  220922##50
$PSRFTXT,WK:   1527##100
$PSRFTXT,POS:  -485220 -5533067 3124747##50
$PSRFTXT,CLK:  95854##170
$GPGGA,132149.997,2931.5627,N,09500.7023,W,1,08,1.1,-17.2,M,-23.9,M,,0000*74##130
$GPGSA,A,3,10,24,29,30,12,02,15,26,,,,,3.1,1.1,2.9*35##161
$GPRMC,132149.997,A,2931.5627,N,09500.7023,W,0.46,65.80,140409,,*2E##110
$PSRFTXT,Version:GSW3.2.4_3.1.00.12-SDK003P1.00a##90
$PSRFTXT,Version2:F-GPS-03-0701301##50
$PSRFTXT,WAAS Enable##50
$PSRFTXT,TOW:  220923##50
$PSRFTXT,WK:   1527##90
$PSRFTXT,POS:  -485220 -5533066 3124747##50
$PSRFTXT,CLK:  95853##180
$GPGGA,132151.001,2931.5631,N,09500.7019,W,1,07,1.3,-17.3,M,-23.9,M,,0000*79##121
$GPGSA,A,3,10,24,30,12,02,15,26,,,,,,3.4,1.3,3.2*33##160
$GPRMC,132151.001,A,2931.5631,N,09500.7019,W,1.29,61.02,140409,,*29##120
$PSRFTXT,Version:GSW3.2.4_3.1.00.12-SDK003P1.00a##80
$PSRFTXT,Version2:F-GPS-03-0701301##50
$PSRFTXT,WAAS Enable##50
$PSRFTXT,TOW:  220925##50
$PSRFTXT,WK:   1527##91
$PSRFTXT,POS:  -485219 -5533066 3124747##70
$PSRFTXT,CLK:  95854##160
$GPGGA,132152.001,2931.5635,N,09500.7014,W,1,08,1.1,-16.5,M,-23.9,M,,0000*79##130
$GPGSA,A,3,10,24,29,30,12,02,15,26,,,,,3.1,1.1,2.9*35##160
$GPGSV,3,1,10,10,67,036,41,24,45,306,31,29,41,321,26,30,39,253,30*7E##160
$GPGSV,3,2,10,12,35,211,37,02,32,061,39,15,26,158,36,26,15,167,28*77##91
$GPGSV,3,3,10,21,11,278,,04,00,080,*7A##160
$GPRMC,132152.001,A,2931.5635,N,09500.7014,W,2.10,57.65,140409,,*2E##110
$PSRFTXT,Version:GSW3.2.4_3.1.00.12-SDK003P1.00a##80
$PSRFTXT,Version2:F-GPS-03-0701301##70
$PSRFTXT,WAAS Enable##40
$PSRFTXT,TOW:  220926##50
$PSRFTXT,WK:   1527##171
$GPGGA,132153.000,2931.5638,N,09500.7010,W,1,08,1.1,-17.5,M,-23.9,M,,0000*71##130
$GPGSA,A,3,10,24,29,30,12,02,15,26,,,,,3.1,1.1,2.9*35##160
$GPRMC,132153.000,A,2931.5638,N,09500.7010,W,1.83,62.52,140409,,*2C##110
$PSRFTXT,Version:GSW3.2.4_3.1.00.12-SDK003P1.00a##90
$PSRFTXT,Version2:F-GPS-03-0701301##50
$PSRFTXT,WAAS Enable##50
$PSRFTXT,TOW:  220926##51
$PSRFTXT,WK:   1527##90
$PSRFTXT,POS:  -485217 -5533065 3124749##50
$PSRFTXT,CLK:  95854##40
$PSRFTXT,CHNL: 12##180
$GPGGA,132154.004,2931.5642,N,09500.7006,W,1,07,1.3,-18.2,M,-23.9,M,,0000*7D##120
$GPGSA,A,3,10,24,30,12,02,15,26,,,,,,3.4,1.3,3.2*33##160
$GPRMC,132154.004,A,2931.5642,N,09500.7006,W,1.15,90.56,140409,,*23##121
$PSRFTXT,Version:GSW3.2.4_3.1.00.12-SDK003P1.00a##80
$PSRFTXT,Version2:F-GPS-03-0701301##60
$PSRFTXT,WAAS Enable##40
$PSRFTXT,TOW:  220928##50
$PSRFTXT,WK:   1527##100
$PSRFTXT,POS:  -485217 -5533064 3124749##50
$PSRFTXT,CLK:  95855##180
$GPGGA,132154.998,2931.5641,N,09500.7003,W,1,08,1.1,-17.6,M,-23.9,M,,0000*71##131
$GPGSA,A,3,10,24,29,30,12,02,15,26,,,,,3.1,1.1,2.9*35##150
$GPRMC,132154.998,A,2931.5641,N,09500.7003,W,0.81,77.40,140409,,*2B##120
$PSRFTXT,Version:GSW3.2.4_3.1.00.12-SDK003P1.00a##80
$PSRFTXT,Version2:F-GPS-03-0701301##50
$PSRFTXT,WAAS Enable##50
$PSRFTXT,TOW:  220928##50
$PSRFTXT,WK:   1527##90
$PSRFTXT,POS:  -485216 -5533065 3124749##181
$GPGGA,132156.002,2931.5644,N,09500.7002,W,1,07,1.3,-18.8,M,-23.9,M,,0000*71##120
$GPGSA,A,3,10,24,30,12,02,15,26,,,,,,3.4,1.3,3.2*33##160
$GPRMC,132156.002,A,2931.5644,N,09500.7002,W,0.23,32.38,140409,,*21##120
$PSRFTXT,Version:GSW3.2.4_3.1.00.12-SDK003P1.00a##80
$PSRFTXT,Version2:F-GPS-03-0701301##50
$PSRFTXT,WAAS Enable##51
$PSRFTXT,TOW:  220930##50
$PSRFTXT,WK:   1527##90
$PSRFTXT,POS:  -485216 -5533064 3124749##50
$PSRFTXT,CLK:  95855##50
$PSRFTXT,CHNL: 12##180
$GPGGA,132156.994,2931.5644,N,09500.7004,W,1,07,1.2,-20.0,M,-23.9,M,,0000*73##120
$GPGSA,A,3,10,29,30,12,02,15,26,,,,,,3.2,1.2,2.9*33##151
$GPGSV,3,1,10,10,67,036,40,24,45,306,,29,41,321,27,30,39,253,30*7C##160
$GPGSV,3,2,10,12,35,211,35,02,32,061,38,15,26,158,36,26,15,167,27*7B##90
$GPGSV,3,3,10,21,11,278,,04,00,080,*7A##120
$PSRFTXT,Version:GSW3.2.4_3.1.00.12-SDK003P1.00a##80
$PSRFTXT,Version2:F-GPS-03-0701301##50
$PSRFTXT,WAAS Enable##50
$PSRFTXT,TOW:  220930##50
$PSRFTXT,WK:   1527##101
$PSRFTXT,POS:  -485216 -5533062 3124748##180
$GPGGA,132158.006,2931.5645,N,09500.7002,W,1,07,1.2,-19.5,M,-23.9,M,,0000*77##120
$GPGSA,A,3,10,29,30,12,02,15,26,,,,,,3.2,1.2,2.9*33##160
$GPRMC,132158.006,A,2931.5645,N,09500.7002,W,0.33,101.56,140409,,*12##110
$PSRFTXT,Version:GSW3.2.4_3.1.00.12-SDK003P1.00a##91
$PSRFTXT,Version2:F-GPS-03-0701301##50
$PSRFTXT,WAAS Enable##50
$PSRFTXT,TOW:  220932##50
$PSRFTXT,WK:   1527##90
$PSRFTXT,POS:  -485216 -5533063 3124749##50
$PSRFTXT,CLK:  95855##180
$GPGGA,132158.999,2931.5644,N,09500.7002,W,1,07,1.2,-20.6,M,-23.9,M,,0000*70##120
$GPGSA,A,3,10,29,30,12,02,15,26,,,,,,3.2,1.2,2.9*33##171
$GPRMC,132158.999,A,2931.5644,N,09500.7002,W,0.07,215.86,140409,,*10##110
$PSRFTXT,Version:GSW3.2.4_3.1.00.12-SDK003P1.00a##80
$PSRFTXT,Version2:F-GPS-03-0701301##50
$PSRFTXT,WAAS Enable##50
$PSRFTXT,TOW:  220932##50
$PSRFTXT,WK:   1527##90
$PSRFTXT,POS:  -485216 -5533062 3124748##50
$PSRFTXT,CLK:  95855##181
$GPGGA,132200.000,2931.5646,N,09500.7006,W,1,07,1.2,-20.5,M,-23.9,M,,0000*72##120
$GPGSA,A,3,10,24,29,30,12,02,15,,,,,,3.5,1.2,3.3*3D##160
$GPRMC,132200.000,A,2931.5646,N,09500.7006,W,0.21,155.81,140409,,*15##120
$PSRFTXT,Version:GSW3.2.4_3.1.00.12-SDK003P1.00a##80
$PSRFTXT,Version2:F-GPS-03-0701301##50
$PSRFTXT,WAAS Enable##60
$PSRFTXT,TOW:  220933##40
$PSRFTXT,WK:   1527##101
$PSRFTXT,POS:  -485217 -5533062 3124748##50
$PSRFTXT,CLK:  95854##180
$GPGGA,132200.999,2931.5650,N,09500.7010,W,1,08,1.1,-20.1,M,-23.9,M,,0000*73##120
$GPGSA,A,3,10,24,29,30,12,02,15,26,,,,,3.1,1.1,2.9*35##160
$GPRMC,132200.999,A,2931.5650,N,09500.7010,W,0.60,326.10,140409,,*17##131
$PSRFTXT,Version:GSW3.2.4_3.1.00.12-SDK003P1.00a##70
$PSRFTXT,Version2:F-GPS-03-0701301##50
$PSRFTXT,WAAS Enable##50
$PSRFTXT,TOW:  220934##50
$PSRFTXT,WK:   1527##100
$PSRFTXT,POS:  -485217 -5533062 3124749##50
$PSRFTXT,CLK:  95855##40
$PSRFTXT,CHNL: 12##180
$GPGGA,132202.001,2931.5649,N,09500.7014,W,1,07,1.3,-20.3,M,-23.9,M,,0000*7A##121
$GPGSA,A,3,10,24,30,12,02,15,26,,,,,,3.5,1.3,3.2*32##150
$GPGSV,3,1,10,10,67,036,40,24,45,306,28,29,41,321,,30,39,253,31*72##120
$PSRFTXT,Version:GSW3.2.4_3.1.00.12-SDK003P1.00a##80
$PSRFTXT,Version2:F-GPS-03-0701301##50
$PSRFTXT,WAAS Enable##60
$PSRFTXT,TOW:  220936##40
$PSRFTXT,WK:   1527##100
$PSRFTXT,POS:  -485218 -5533062 3124749##50
$PSRFTXT,CLK:  95855##181
$GPGGA,132202.998,2931.5647,N,09500.7013,W,1,07,1.3,-19.3,M,-23.9,M,,0000*70##120
$GPGSA,A,3,10,24,30,12,02,15,26,,,,,,3.5,1.3,3.2*32##160
$GPRMC,132202.998,A,2931.5647,N,09500.7013,W,0.38,15.29,140409,,*25##110
$PSRFTXT,Version:GSW3.2.4_3.1.00.12-SDK003P1.00a##80
$PSRFTXT,Version2:F-GPS-03-0701301##50
$PSRFTXT,WAAS Enable##61
$PSRFTXT,TOW:  220936##50
$PSRFTXT,WK:   1527##90
$PSRFTXT,POS:  -485218 -5533063 3124749##50
$PSRFTXT,CLK:  95856##180
$GPGGA,132204.004,2931.5647,N,09500.7011,W,1,07,1.3,-19.0,M,-23.9,M,,0000*7B##120
$GPGSA,A,3,10,24,30,12,02,15,26,,,,,,3.5,1.3,3.2*32##161
$GPRMC,132204.004,A,2931.5647,N,09500.7011,W,0.80,47.16,140409,,*25##110
$PSRFTXT,Version:GSW3.2.4_3.1.00.12-SDK003P1.00a##90
$PSRFTXT,Version2:F-GPS-03-0701301##50
$PSRFTXT,WAAS Enable##50
$PSRFTXT,TOW:  220938##50
$PSRFTXT,WK:   1527##90
$PSRFTXT,POS:  -485218 -5533063 3124749##50
$PSRFTXT,CLK:  95855##40
$PSRFTXT,CHNL: 12##181
$GPGGA,132204.998,2931.5647,N,09500.7012,W,1,07,1.3,-19.5,M,-23.9,M,,0000*71##120
$GPGSA,A,3,10,24,30,12,02,15,26,,,,,,3.5,1.3,3.2*32##160
$GPRMC,132204.998,A,2931.5647,N,09500.7012,W,0.57,104.43,140409,,*16##120
$PSRFTXT,Version:GSW3.2.4_3.1.00.12-SDK003P1.00a##80
$PSRFTXT,Version2:F-GPS-03-0701301##50
$PSRFTXT,WAAS Enable##60
$PSRFTXT,TOW:  220938##40
$PSRFTXT,WK:   1527##101
$PSRFTXT,POS:  -485218 -5533062 3124749##50
$PSRFTXT,CLK:  95855##180
$GPGGA,132206.000,2931.5647,N,09500.7009,W,1,06,1.3,-20.5,M,-23.9,M,,0000*7A##110
$GPGSA,A,3,10,24,30,12,02,15,,,,,,,3.8,1.3,3.6*3F##170
$GPRMC,132206.000,A,2931.5647,N,09500.7009,W,0.21,17.82,140409,,*29##110
$PSRFTXT,Version:GSW3.2.4_3.1.00.12-SDK003P1.00a##81
$PSRFTXT,Version2:F-GPS-03-0701301##50
$PSRFTXT,WAAS Enable##50
$PSRFTXT,TOW:  220939##50
$PSRFTXT,WK:   1527##90
$PSRFTXT,POS:  -485217 -5533062 3124749##50
$PSRFTXT,CLK:  95854##180
$GPGGA,132206.999,2931.5648,N,09500.7009,W,1,06,1.3,-21.6,M,-23.9,M,,0000*7E##120
$GPGSA,A,3,10,24,30,12,02,15,,,,,,,3.8,1.3,3.6*3F##151
$GPGSV,3,1,10,10,67,036,41,24,45,306,31,29,41,321,,30,39,253,30*7A##160
$GPGSV,3,2,10,12,35,211,36,02,32,061,39,15,26,158,35,26,15,167,*7F##120
$PSRFTXT,Version:GSW3.2.4_3.1.00.12-SDK003P1.00a##80
$PSRFTXT,Version2:F-GPS-03-0701301##50
$PSRFTXT,WAAS Enable##50
$PSRFTXT,TOW:  220940##50
$PSRFTXT,WK:   1527##91
$PSRFTXT,POS:  -485217 -5533061 3124748##180
$GPGGA,132208.000,2931.5645,N,09500.7006,W,1,06,1.3,-21.0,M,-23.9,M,,0000*7D##120
$GPGSA,A,3,10,24,30,12,02,15,,,,,,,3.8,1.3,3.6*3F##160
$GPRMC,132208.000,A,2931.5645,N,09500.7006,W,0.30,33.25,140409,,*21##110
$PSRFTXT,Version:GSW3.2.4_3.1.00.12-SDK003P1.00a##90
$PSRFTXT,Version2:F-GPS-03-0701301##51
$PSRFTXT,WAAS Enable##50
$PSRFTXT,TOW:  220941##50
$PSRFTXT,WK:   1527##90
$PSRFTXT,POS:  -485217 -5533061 3124748##50
$PSRFTXT,CLK:  95854##180
$GPGGA,132209.001,2931.5644,N,09500.7003,W,1,06,1.3,-20.3,M,-23.9,M,,0000*7B##120
$GPGSA,A,3,10,24,30,12,02,15,,,,,,,3.8,1.3,3.6*3F##161
$GPRMC,132209.001,A,2931.5644,N,09500.7003,W,0.63,336.98,140409,,*13##110
$PSRFTXT,Version:GSW3.2.4_3.1.00.12-SDK003P1.00a##80
$PSRFTXT,Version2:F-GPS-03-0701301##60
$PSRFTXT,WAAS Enable##60
$PSRFTXT,TOW:  220943##40
$PSRFTXT,WK:   1527##90
$PSRFTXT,POS:  -485216 -5533062 3124748##50
$PSRFTXT,CLK:  95854##40
$PSRFTXT,CHNL: 12##181
$GPGGA,132210.002,2931.5645,N,09500.7006,W,1,06,1.3,-18.6,M,-23.9,M,,0000*7A##120
$GPGSA,A,3,10,24,30,12,02,15,,,,,,,3.8,1.3,3.6*3F##170
$GPRMC,132210.002,A,2931.5645,N,09500.7006,W,0.79,358.00,140409,,*1E##100
$PSRFTXT,Version:GSW3.2.4_3.1.00.12-SDK003P1.00a##90
$PSRFTXT,Version2:F-GPS-03-0701301##50
$PSRFTXT,WAAS Enable##50
$PSRFTXT,TOW:  220944##50
$PSRFTXT,WK:   1527##91
$PSRFTXT,POS:  -485217 -5533064 3124749##50
$PSRFTXT,CLK:  95855##40
$PSRFTXT,CHNL: 12##180
$GPGGA,132211.002,2931.5641,N,09500.7008,W,1,07,1.3,-17.4,M,-23.9,M,,0000*7D##120
$GPGSA,A,3,10,24,30,12,02,15,26,,,,,,3.5,1.3,3.2*32##170
$GPRMC,132211.002,A,2931.5641,N,09500.7008,W,0.42,146.49,140409,,*1D##111
$PSRFTXT,Version:GSW3.2.4_3.1.00.12-SDK003P1.00a##80
$PSRFTXT,Version2:F-GPS-03-0701301##50
$PSRFTXT,WAAS Enable##60
$PSRFTXT,TOW:  220945##50
$PSRFTXT,WK:   1527##90
$PSRFTXT,POS:  -485217 -5533065 3124749##50
$PSRFTXT,CLK:  95856##180
$GPGGA,132211.995,2931.5639,N,09500.7003,W,1,07,1.3,-16.4,M,-23.9,M,,0000*7F##121
$GPGSA,A,3,10,24,30,12,02,15,26,,,,,,3.5,1.3,3.2*32##150
$GPGSV,3,1,10,10,67,036,41,24,45,306,32,29,41,321,,30,39,253,29*71##160
$GPGSV,3,2,10,12,35,211,36,02,32,061,40,15,26,158,35,26,15,167,23*70##100
$GPGSV,3,3,10,21,11,278,,04,00,080,*7A##160
$GPRMC,132211.995,A,2931.5639,N,09500.7003,W,1.35,136.36,140409,,*10##111
$PSRFTXT,Version:GSW3.2.4_3.1.00.12-SDK003P1.00a##90
$PSRFTXT,Version2:F-GPS-03-0701301##40
$PSRFTXT,WAAS Enable##60
$PSRFTXT,TOW:  220945##50
$PSRFTXT,WK:   1527##170
$GPGGA,132213.003,2931.5637,N,09500.7004,W,1,07,1.2,-17.0,M,-23.9,M,,0000*76##130
$GPGSA,A,3,10,24,29,30,12,02,15,,,,,,3.5,1.2,3.3*3D##161
$GPRMC,132213.003,A,2931.5637,N,09500.7004,W,0.65,110.46,140409,,*1A##110
$PSRFTXT,Version:GSW3.2.4_3.1.00.12-SDK003P1.00a##80
$PSRFTXT,Version2:F-GPS-03-0701301##60
$PSRFTXT,WAAS Enable##50
$PSRFTXT,TOW:  220947##50
$PSRFTXT,WK:   1527##90
$PSRFTXT,POS:  -485217 -5533066 3124749##50
$PSRFTXT,CLK:  95855##40
$PSRFTXT,CHNL: 12##181
$GPGGA,132214.000,2931.5639,N,09500.6998,W,1,08,1.1,-18.4,M,-23.9,M,,0000*76##130
$GPGSA,A,3,10,24,29,30,12,02,15,26,,,,,3.1,1.1,2.9*35##160
$GPRMC,132214.000,A,2931.5639,N,09500.6998,W,0.37,129.28,140409,,*18##110
$PSRFTXT,Version:GSW3.2.4_3.1.00.12-SDK003P1.00a##90
$PSRFTXT,Version2:F-GPS-03-0701301##50
$PSRFTXT,WAAS Enable##50
$PSRFTXT,TOW:  220947##50
$PSRFTXT,WK:   1527##91
$PSRFTXT,POS:  -485215 -5533064 3124748##50
$PSRFTXT,CLK:  95856##180
$GPGGA,132215.002,2931.5638,N,09500.6999,W,1,08,1.1,-18.4,M,-23.9,M,,0000*75##130
$GPGSA,A,3,10,24,29,30,12,02,15,26,,,,,3.1,1.1,2.9*35##150
$GPRMC,132215.002,A,2931.5638,N,09500.6999,W,0.49,141.17,140409,,*10##131
$PSRFTXT,Version:GSW3.2.4_3.1.00.12-SDK003P1.00a##70
$PSRFTXT,Version2:F-GPS-03-0701301##50
$PSRFTXT,WAAS Enable##70
$PSRFTXT,TOW:  220949##40
$PSRFTXT,WK:   1527##90
$PSRFTXT,POS:  -485216 -5533064 3124748##50
$PSRFTXT,CLK:  95856##180
$GPGGA,132215.993,2931.5641,N,09500.6996,W,1,07,1.3,-18.9,M,-23.9,M,,0000*75##121
$GPGSA,A,3,10,24,30,12,02,15,26,,,,,,3.5,1.3,3.2*32##160
$GPRMC,132215.993,A,2931.5641,N,09500.6996,W,0.19,92.01,140409,,*2D##110
$PSRFTXT,Version:GSW3.2.4_3.1.00.12-SDK003P1.00a##90
$PSRFTXT,Version2:F-GPS-03-0701301##50
$PSRFTXT,WAAS Enable##50
$PSRFTXT,TOW:  220949##50
$PSRFTXT,WK:   1527##100
$PSRFTXT,POS:  -485215 -5533064 3124748##40
$PSRFTXT,CLK:  95857##61
$PSRFTXT,Baud rate: 4800##180
$GPGGA,132217.005,2931.5643,N,09500.6995,W,1,07,1.2,-18.7,M,-23.9,M,,0000*7F##120
$GPGSA,A,3,10,24,29,30,12,02,15,,,,,,3.5,1.2,3.3*3D##160
$GPGSV,3,1,10,10,67,036,40,24,45,306,35,29,41,321,30,30,39,253,30*7C##170
$GPGSV,3,2,10,12,35,211,37,02,32,061,38,15,26,158,37,26,15,167,*7D##81
$GPGSV,3,3,10,21,11,278,,04,00,080,*7A##160
$GPRMC,132217.005,A,2931.5643,N,09500.6995,W,1.09,60.76,140409,,*25##110
$PSRFTXT,Version:GSW3.2.4_3.1.00.12-SDK003P1.00a##90
$PSRFTXT,Version2:F-GPS-03-0701301##50
$PSRFTXT,WAAS Enable##60
$PSRFTXT,TOW:  220951##40
$PSRFTXT,WK:   1527##171
$GPGGA,132218.000,2931.5642,N,09500.6988,W,1,08,1.1,-18.1,M,-23.9,M,,0000*72##130
$GPGSA,A,3,10,24,29,30,12,02,15,26,,,,,3.1,1.1,2.9*35##160
$GPRMC,132218.000,A,2931.5642,N,09500.6988,W,2.59,61.40,140409,,*20##110
$PSRFTXT,Version:GSW3.2.4_3.1.00.12-SDK003P1.00a##90
$PSRFTXT,Version2:F-GPS-03-0701301##50
$PSRFTXT,WAAS Enable##50
$PSRFTXT,TOW:  220951##50
$PSRFTXT,WK:   1527##91
$PSRFTXT,POS:  -485214 -5533064 3124749##50
$PSRFTXT,CLK:  95856##50
$PSRFTXT,CHNL: 12##170
$GPGGA,132218.997,2931.5646,N,09500.6977,W,1,07,1.3,-17.9,M,-23.9,M,,0000*7B##130
$GPGSA,A,3,10,24,30,12,02,15,26,,,,,,3.5,1.3,3.2*32##150
$GPRMC,132218.997,A,2931.5646,N,09500.6977,W,4.54,65.50,140409,,*2D##121
$PSRFTXT,Version:GSW3.2.4_3.1.00.12-SDK003P1.00a##80
$PSRFTXT,Version2:F-GPS-03-0701301##50
$PSRFTXT,WAAS Enable##50
$PSRFTXT,TOW:  220952##50
$PSRFTXT,WK:   1527##100
$PSRFTXT,POS:  -485212 -5533065 3124750##60
$PSRFTXT,CLK:  95857##170
$GPGGA,132219.999,2931.5653,N,09500.6962,W,1,07,1.3,-17.4,M,-23.9,M,,0000*79##121
$GPGSA,A,3,10,24,30,12,02,15,26,,,,,,3.5,1.3,3.2*32##150
$GPRMC,132219.999,A,2931.5653,N,09500.6962,W,6.15,57.13,140409,,*23##130
$PSRFTXT,Version:GSW3.2.4_3.1.00.12-SDK003P1.00a##70
$PSRFTXT,Version2:F-GPS-03-0701301##50
$PSRFTXT,WAAS Enable##60
$PSRFTXT,TOW:  220953##40
$PSRFTXT,WK:   1527##100
$PSRFTXT,POS:  -485210 -5533064 3124751##181
$GPGGA,132221.002,2931.5665,N,09500.6941,W,1,06,1.5,-16.9,M,-23.9,M,,0000*76##110
$GPGSA,A,3,10,24,12,02,15,26,,,,,,,3.5,1.5,3.2*37##160
$GPRMC,132221.002,A,2931.5665,N,09500.6941,W,8.11,57.51,140409,,*2B##120
$PSRFTXT,Version:GSW3.2.4_3.1.00.12-SDK003P1.00a##80
$PSRFTXT,Version2:F-GPS-03-0701301##50
$PSRFTXT,WAAS Enable##50
$PSRFTXT,TOW:  220955##51
$PSRFTXT,WK:   1527##90
$PSRFTXT,POS:  -485206 -5533064 3124753##50
$PSRFTXT,CLK:  95856##50
$PSRFTXT,CHNL: 12##180
$GPGGA,132221.997,2931.5678,N,09500.6914,W,1,07,1.3,-16.7,M,-23.9,M,,0000*76##120
$GPGSA,A,3,10,24,30,12,02,15,26,,,,,,3.5,1.3,3.2*32##150
$GPGSV,3,1,10,10,67,036,41,24,45,306,25,29,41,321,,30,39,253,28*76##161
$GPGSV,3,2,10,12,35,211,36,02,32,061,38,15,26,158,35,26,15,167,29*75##90
$GPGSV,3,3,10,21,11,278,,04,00,080,*7A##120
$PSRFTXT,Version:GSW3.2.4_3.1.00.12-SDK003P1.00a##80
$PSRFTXT,Version2:F-GPS-03-0701301##50
$PSRFTXT,WAAS Enable##60
$PSRFTXT,TOW:  220955##40
$PSRFTXT,WK:   1527##181
$GPGGA,132223.001,2931.5694,N,09500.6877,W,1,07,1.3,-16.9,M,-23.9,M,,0000*7A##120
$GPGSA,A,3,10,24,30,12,02,15,26,,,,,,3.5,1.3,3.2*32##160
$GPRMC,132223.001,A,2931.5694,N,09500.6877,W,12.67,58.43,140409,,*16##120
$PSRFTXT,Version:GSW3.2.4_3.1.00.12-SDK003P1.00a##80
$PSRFTXT,Version2:F-GPS-03-0701301##50
$PSRFTXT,WAAS Enable##60
$PSRFTXT,TOW:  220957##40
$PSRFTXT,WK:   1527##101
$PSRFTXT,POS:  -485196 -5533062 3124758##50
$PSRFTXT,CLK:  95858##40
$PSRFTXT,CHNL: 12##180
$GPGGA,132224.006,2931.5715,N,09500.6845,W,1,08,1.1,-16.9,M,-23.9,M,,0000*7E##130
$GPGSA,A,3,10,24,29,30,12,02,15,26,,,,,3.1,1.1,2.9*35##160
$GPRMC,132224.006,A,2931.5715,N,09500.6845,W,12.03,46.05,140409,,*10##111
$PSRFTXT,Version:GSW3.2.4_3.1.00.12-SDK003P1.00a##90
$PSRFTXT,Version2:F-GPS-03-0701301##40
$PSRFTXT,WAAS Enable##60
$PSRFTXT,TOW:  220958##50
$PSRFTXT,WK:   1527##90
$PSRFTXT,POS:  -485190 -5533061 3124761##50
$PSRFTXT,CLK:  95857##180
$GPGGA,132224.996,2931.5736,N,09500.6816,W,1,08,1.1,-16.7,M,-23.9,M,,0000*77##121
$GPGSA,A,3,10,24,29,30,12,02,15,26,,,,,3.1,1.1,2.9*35##160
$GPRMC,132224.996,A,2931.5736,N,09500.6816,W,10.88,48.50,140409,,*18##130
$PSRFTXT,Version:GSW3.2.4_3.1.00.12-SDK003P1.00a##70
$PSRFTXT,Version2:F-GPS-03-0701301##50
$PSRFTXT,WAAS Enable##70
$PSRFTXT,TOW:  220958##30
$PSRFTXT,WK:   1527##100
$PSRFTXT,POS:  -485186 -5533060 3124765##51
$PSRFTXT,CLK:  95860##180
$GPGGA,132226.003,2931.5757,N,09500.6789,W,1,08,1.1,-17.3,M,-23.9,M,,0000*7B##120
$GPGSA,A,3,10,24,29,30,12,02,15,26,,,,,3.1,1.1,2.9*35##160
$GPRMC,132226.003,A,2931.5757,N,09500.6789,W,10.31,49.44,140409,,*17##120
$PSRFTXT,Version:GSW3.2.4_3.1.00.12-SDK003P1.00a##80
$PSRFTXT,Version2:F-GPS-03-0701301##51
$PSRFTXT,WAAS Enable##50
$PSRFTXT,TOW:  220960##50
$PSRFTXT,WK:   1527##100
$PSRFTXT,POS:  -485181 -5533058 3124768##50
$PSRFTXT,CLK:  95862##40
$PSRFTXT,CHNL: 12##180
$GPGGA,132226.997,2931.5767,N,09500.6773,W,1,08,1.1,-15.5,M,-23.9,M,,0000*7D##120
$GPGSA,A,3,10,24,29,30,12,02,15,26,,,,,3.1,1.1,2.9*35##161
$GPGSV,3,1,10,10,67,036,38,24,45,306,37,29,41,321,36,30,39,253,36*71##160
$GPGSV,3,2,10,12,35,211,30,02,32,061,39,15,26,158,31,26,15,167,32*7C##120
$PSRFTXT,Version:GSW3.2.4_3.1.00.12-SDK003P1.00a##80
$PSRFTXT,Version2:F-GPS-03-0701301##50
$PSRFTXT,WAAS Enable##60
$PSRFTXT,TOW:  220960##40
$PSRFTXT,WK:   1527##90
$PSRFTXT,POS:  -485178 -5533058 3124770##191
$GPGGA,132227.999,2931.5779,N,09500.6772,W,1,07,1.2,-14.9,M,-23.9,M,,0000*7D##120
$GPGSA,A,3,10,24,29,30,12,02,26,,,,,,3.2,1.2,2.9*31##160
$GPRMC,132227.999,A,2931.5779,N,09500.6772,W,4.65,26.31,140409,,*2B##110
$PSRFTXT,Version:GSW3.2.4_3.1.00.12-SDK003P1.00a##80
$PSRFTXT,Version2:F-GPS-03-0701301##51
$PSRFTXT,WAAS Enable##50
$PSRFTXT,TOW:  220961##50
$PSRFTXT,WK:   1527##100
$PSRFTXT,POS:  -485178 -5533058 3124773##50
$PSRFTXT,CLK:  95861##180
$GPGGA,132229.002,2931.5772,N,09500.6769,W,1,07,1.2,-13.9,M,-23.9,M,,0000*7E##120
$GPGSA,A,3,10,24,29,30,12,02,26,,,,,,3.2,1.2,2.9*31##161
$GPRMC,132229.002,A,2931.5772,N,09500.6769,W,0.67,63.59,140409,,*26##110
$PSRFTXT,Version:GSW3.2.4_3.1.00.12-SDK003P1.00a##90
$PSRFTXT,Version2:F-GPS-03-0701301##50
$PSRFTXT,WAAS Enable##50
$PSRFTXT,TOW:  220963##50
$PSRFTXT,WK:   1527##90
$PSRFTXT,POS:  -485178 -5533059 3124772##50
$PSRFTXT,CLK:  95857##40
$PSRFTXT,CHNL: 12##181
$GPGGA,132229.999,2931.5773,N,09500.6771,W,1,07,1.2,-13.3,M,-23.9,M,,0000*77##120
$GPGSA,A,3,10,24,29,30,12,02,26,,,,,,3.2,1.2,2.9*31##160
$GPRMC,132229.999,A,2931.5773,N,09500.6771,W,0.31,35.70,140409,,*2E##120
$PSRFTXT,Version:GSW3.2.4_3.1.00.12-SDK003P1.00a##80
$PSRFTXT,Version2:F-GPS-03-0701301##50
$PSRFTXT,WAAS Enable##50
$PSRFTXT,TOW:  220963##50
$PSRFTXT,WK:   1527##91
$PSRFTXT,POS:  -485178 -5533060 3124772##180
$GPGGA,132231.000,2931.5771,N,09500.6769,W,1,07,1.2,-12.2,M,-23.9,M,,0000*7C##120
$GPGSA,A,3,10,24,29,30,12,02,26,,,,,,3.2,1.2,2.9*31##160
$GPRMC,132231.000,A,2931.5771,N,09500.6769,W,0.75,81.33,140409,,*2D##120
$PSRFTXT,Version:GSW3.2.4_3.1.00.12-SDK003P1.00a##81
$PSRFTXT,Version2:F-GPS-03-0701301##50
$PSRFTXT,WAAS Enable##50
$PSRFTXT,TOW:  220964##50
$PSRFTXT,WK:   1527##90
$PSRFTXT,POS:  -485178 -5533061 3124773##60
$PSRFTXT,CLK:  95857##40
$PSRFTXT,CHNL: 12##180
$GPGGA,132232.003,2931.5770,N,09500.6758,W,1,08,1.2,-9.1,M,-23.9,M,,0000*49##120
$GPGSA,A,3,10,24,29,30,12,02,15,26,,,,,3.1,1.2,2.9*36##161
$GPGSV,3,1,10,10,67,036,37,24,45,306,38,29,41,321,37,30,39,253,33*75##160
$GPGSV,3,2,10,12,35,211,26,02,32,061,38,15,26,158,29,26,15,167,36*77##100
$GPGSV,3,3,10,21,11,278,38,04,00,080,*71##150
$GPRMC,132232.003,A,2931.5770,N,09500.6758,W,1.54,7.35,140409,,*14##120
$PSRFTXT,Version:GSW3.2.4_3.1.00.12-SDK003P1.00a##81
$PSRFTXT,Version2:F-GPS-03-0701301##50
$PSRFTXT,WAAS Enable##50
$PSRFTXT,TOW:  220966##50
$PSRFTXT,WK:   1527##180
$GPGGA,132232.997,2931.5774,N,09500.6755,W,1,07,1.3,-9.6,M,-23.9,M,,0000*4D##120
$GPGSA,A,3,10,24,29,30,02,15,26,,,,,,3.3,1.3,3.0*3E##160
$GPRMC,132232.997,A,2931.5774,N,09500.6755,W,1.36,26.25,140409,,*2F##111
$PSRFTXT,Version:GSW3.2.4_3.1.00.12-SDK003P1.00a##90
$PSRFTXT,Version2:F-GPS-03-0701301##50
$PSRFTXT,WAAS Enable##50
$PSRFTXT,TOW:  220966##50
$PSRFTXT,WK:   1527##90
$PSRFTXT,POS:  -485176 -5533063 3124774##50
$PSRFTXT,CLK:  95858##200
$GPGGA,132234.001,2931.5777,N,09500.6758,W,1,07,1.3,-6.2,M,-23.9,M,,0000*48##101
$GPGSA,A,3,10,24,29,30,02,15,26,,,,,,3.3,1.3,3.1*3F##160
$GPRMC,132234.001,A,2931.5777,N,09500.6758,W,2.02,15.14,140409,,*27##110
$PSRFTXT,Version:GSW3.2.4_3.1.00.12-SDK003P1.00a##80
$PSRFTXT,Version2:F-GPS-03-0701301##60
$PSRFTXT,WAAS Enable##50
$PSRFTXT,TOW:  220968##50
$PSRFTXT,WK:   1527##90
$PSRFTXT,POS:  -485177 -5533066 3124776##61
$PSRFTXT,CLK:  95858##30
$PSRFTXT,CHNL: 12##180
$GPGGA,132235.005,2931.5784,N,09500.6759,W,1,08,1.2,-6.7,M,-23.9,M,,0000*4B##130
$GPGSA,A,3,10,24,29,30,12,02,15,26,,,,,3.2,1.2,2.9*35##150
$GPRMC,132235.005,A,2931.5784,N,09500.6759,W,2.57,2.80,140409,,*14##120
$PSRFTXT,Version:GSW3.2.4_3.1.00.12-SDK003P1.00a##81
$PSRFTXT,Version2:F-GPS-03-0701301##50
$PSRFTXT,WAAS Enable##50
$PSRFTXT,TOW:  220969##50
$PSRFTXT,WK:   1527##90
$PSRFTXT,POS:  -485177 -5533065 3124777##180
$GPGGA,132235.995,2931.5791,N,09500.6767,W,1,08,1.2,-6.8,M,-23.9,M,,0000*4D##130
$GPGSA,A,3,10,24,29,30,12,02,15,26,,,,,3.2,1.2,2.9*35##161
$GPRMC,132235.995,A,2931.5791,N,09500.6767,W,2.89,358.46,140409,,*18##110
$PSRFTXT,Version:GSW3.2.4_3.1.00.12-SDK003P1.00a##90
$PSRFTXT,Version2:F-GPS-03-0701301##50
$PSRFTXT,WAAS Enable##50
$PSRFTXT,TOW:  220969##50
$PSRFTXT,WK:   1527##90
$PSRFTXT,POS:  -485178 -5533064 3124778##50
$PSRFTXT,CLK:  95857##40
$PSRFTXT,CHNL: 12##181
$GPGGA,132237.001,2931.5808,N,09500.6770,W,1,08,1.2,-6.9,M,-23.9,M,,0000*43##130
$GPGSA,A,3,10,24,29,30,12,02,15,26,,,,,3.2,1.2,2.9*35##160
$GPGSV,3,1,10,10,67,036,37,24,45,306,40,29,41,321,39,30,39,253,32*75##160
$GPGSV,3,2,10,12,35,211,30,02,32,061,38,15,26,158,39,26,15,167,35*72##90
$GPGSV,3,3,10,21,11,278,35,04,00,080,*7C##121
$PSRFTXT,Version:GSW3.2.4_3.1.00.12-SDK003P1.00a##80
$PSRFTXT,Version2:F-GPS-03-0701301##50
$PSRFTXT,WAAS Enable##50
$PSRFTXT,TOW:  220971##50
$PSRFTXT,WK:   1527##100
$PSRFTXT,POS:  -485178 -5533062 3124781##170
$GPGGA,132238.004,2931.5813,N,09500.6770,W,1,08,1.2,-6.5,M,-23.9,M,,0000*4F##130
$GPGSA,A,3,10,24,29,30,12,02,15,26,,,,,3.2,1.2,2.9*35##161
$GPRMC,132238.004,A,2931.5813,N,09500.6770,W,3.18,350.77,140409,,*14##110
$PSRFTXT,Version:GSW3.2.4_3.1.00.12-SDK003P1.00a##90
$PSRFTXT,Version2:F-GPS-03-0701301##50
$PSRFTXT,WAAS Enable##50
$PSRFTXT,TOW:  220972##50
$PSRFTXT,WK:   1527##90
$PSRFTXT,POS:  -485178 -5533062 3124782##50
$PSRFTXT,CLK:  95857##181
$GPGGA,132238.997,2931.5823,N,09500.6767,W,1,08,1.2,-6.2,M,-23.9,M,,0000*4E##120
$GPGSA,A,3,10,24,29,30,12,02,15,26,,,,,3.2,1.2,2.9*35##160
$GPRMC,132238.997,A,2931.5823,N,09500.6767,W,3.09,345.01,140409,,*17##120
$PSRFTXT,Version:GSW3.2.4_3.1.00.12-SDK003P1.00a##80
$PSRFTXT,Version2:F-GPS-03-0701301##50
$PSRFTXT,WAAS Enable##50
$PSRFTXT,TOW:  220972##61
$PSRFTXT,WK:   1527##90
$PSRFTXT,POS:  -485178 -5533062 3124784##50
$PSRFTXT,CLK:  95858##170
$GPGGA,132240.001,2931.5830,N,09500.6772,W,1,08,1.2,-5.2,M,-23.9,M,,0000*42##130
$GPGSA,A,3,10,24,29,30,12,02,15,26,,,,,3.2,1.2,2.9*35##160
$GPRMC,132240.001,A,2931.5830,N,09500.6772,W,3.32,330.29,140409,,*18##131
$PSRFTXT,Version:GSW3.2.4_3.1.00.12-SDK003P1.00a##70
$PSRFTXT,Version2:F-GPS-03-0701301##50
$PSRFTXT,WAAS Enable##50
$PSRFTXT,TOW:  220974##50
$PSRFTXT,WK:   1527##90
$PSRFTXT,POS:  -485178 -5533062 3124785##60
$PSRFTXT,CLK:  95859##170
$GPGGA,132241.003,2931.5838,N,09500.6780,W,1,06,1.2,-5.7,M,-23.9,M,,0000*4F##121
$GPGSA,A,3,10,24,29,12,02,15,,,,,,,3.6,1.2,3.4*3A##160
$GPRMC,132241.003,A,2931.5838,N,09500.6780,W,3.15,334.36,140409,,*11##110
$PSRFTXT,Version:GSW3.2.4_3.1.00.12-SDK003P1.00a##80
$PSRFTXT,Version2:F-GPS-03-0701301##50
$PSRFTXT,WAAS Enable##60
$PSRFTXT,TOW:  220975##50
$PSRFTXT,WK:   1527##90
$PSRFTXT,POS:  -485180 -5533060 3124787##50
$PSRFTXT,CLK:  95859##181
$GPGGA,132241.998,2931.5848,N,09500.6786,W,1,06,1.7,-7.4,M,-23.9,M,,0000*41##110
$GPGSA,A,3,10,24,29,30,12,15,,,,,,,4.7,1.7,4.4*3F##160
$GPGSV,3,1,10,10,67,036,36,24,45,306,41,29,41,321,37,30,39,253,34*7D##150
$GPGSV,3,2,10,12,35,211,37,02,32,061,,15,26,158,27,26,15,167,*77##101
$GPGSV,3,3,10,21,11,278,27,04,00,080,*7F##120
$PSRFTXT,Version:GSW3.2.4_3.1.00.12-SDK003P1.00a##80
$PSRFTXT,Version2:F-GPS-03-0701301##50
$PSRFTXT,WAAS Enable##50
$PSRFTXT,TOW:  220975##50
$PSRFTXT,WK:   1527##100
$PSRFTXT,POS:  -485181 -5533058 3124787##170
$GPGGA,132243.000,2931.5857,N,09500.6785,W,1,07,1.2,-6.9,M,-23.9,M,,0000*4E##121
$GPGSA,A,3,10,24,29,30,12,02,26,,,,,,3.2,1.2,3.0*39##160
$GPRMC,132243.000,A,2931.5857,N,09500.6785,W,4.47,330.26,140409,,*19##120
$PSRFTXT,Version:GSW3.2.4_3.1.00.12-SDK003P1.00a##80
$PSRFTXT,Version2:F-GPS-03-0701301##50
$PSRFTXT,WAAS Enable##50
$PSRFTXT,TOW:  220976##50
$PSRFTXT,WK:   1527##90
$PSRFTXT,POS:  -485180 -5533058 3124789##51
$PSRFTXT,CLK:  95859##180
$GPGGA,132244.002,2931.5867,N,09500.6789,W,1,08,1.2,-6.5,M,-23.9,M,,0000*47##130
$GPGSA,A,3,10,24,29,30,12,02,15,26,,,,,3.2,1.2,2.9*35##160
$GPRMC,132244.002,A,2931.5867,N,09500.6789,W,4.25,334.01,140409,,*16##110
$PSRFTXT,Version:GSW3.2.4_3.1.00.12-SDK003P1.00a##80
$PSRFTXT,Version2:F-GPS-03-0701301##61
$PSRFTXT,WAAS Enable##50
$PSRFTXT,TOW:  220978##50
$PSRFTXT,WK:   1527##90
$PSRFTXT,POS:  -485181 -5533057 3124791##50
$PSRFTXT,CLK:  95857##40
$PSRFTXT,CHNL: 12##180
$GPGGA,132244.996,2931.5876,N,09500.6789,W,1,08,1.2,-5.0,M,-23.9,M,,0000*45##140
$GPGSA,A,3,10,24,29,30,12,02,15,26,,,,,3.2,1.2,2.9*35##151
$GPRMC,132244.996,A,2931.5876,N,09500.6789,W,5.10,334.19,140409,,*1C##110
$PSRFTXT,Version:GSW3.2.4_3.1.00.12-SDK003P1.00a##80
$PSRFTXT,Version2:F-GPS-03-0701301##60
$PSRFTXT,WAAS Enable##50
$PSRFTXT,TOW:  220978##50
$PSRFTXT,WK:   1527##90
$PSRFTXT,POS:  -485181 -5533057 3124793##50
$PSRFTXT,CLK:  95859##181
$GPGGA,132246.002,2931.5890,N,09500.6792,W,1,08,1.2,-3.3,M,-23.9,M,,0000*44##120
$GPGSA,A,3,10,24,29,30,12,02,15,26,,,,,3.2,1.2,2.9*35##160
$GPRMC,132246.002,A,2931.5890,N,09500.6792,W,5.14,328.53,140409,,*1F##120
$PSRFTXT,Version:GSW3.2.4_3.1.00.12-SDK003P1.00a##80
$PSRFTXT,Version2:F-GPS-03-0701301##50
$PSRFTXT,WAAS Enable##50
$PSRFTXT,TOW:  220980##50
$PSRFTXT,WK:   1527##101
$PSRFTXT,POS:  -485181 -5533058 3124796##50
$PSRFTXT,CLK:  95859##170
$GPGGA,132247.000,2931.5899,N,09500.6794,W,1,07,1.3,-1.4,M,-23.9,M,,0000*43##120
$GPGSA,A,3,10,24,29,30,02,15,26,,,,,,3.3,1.3,3.1*3F##170
$GPGSV,3,1,10,10,67,036,34,24,45,306,39,29,41,321,38,30,39,253,40*7C##151
$GPGSV,3,2,10,12,35,211,,02,32,061,31,15,26,158,31,26,15,167,26*72##90
$GPGSV,3,3,10,21,11,278,31,04,00,080,*78##130
$PSRFTXT,Version:GSW3.2.4_3.1.00.12-SDK003P1.00a##70
$PSRFTXT,Version2:F-GPS-03-0701301##50
$PSRFTXT,WAAS Enable##60
$PSRFTXT,TOW:  220980##40
$PSRFTXT,WK:   1527##180
$GPGGA,132248.000,2931.5911,N,09500.6806,W,1,08,1.2,-0.4,M,-23.9,M,,0000*46##131
$GPGSA,A,3,10,24,29,30,12,02,15,26,,,,,3.2,1.2,2.9*35##160
$GPRMC,132248.000,A,2931.5911,N,09500.6806,W,6.07,328.27,140409,,*1B##110
$PSRFTXT,Version:GSW3.2.4_3.1.00.12-SDK003P1.00a##80
$PSRFTXT,Version2:F-GPS-03-0701301##60
$PSRFTXT,WAAS Enable##50
$PSRFTXT,TOW:  220981##50
$PSRFTXT,WK:   1527##91
$PSRFTXT,POS:  -485184 -5533058 3124801##50
$PSRFTXT,CLK:  95859##40
$PSRFTXT,CHNL: 12##180
