# NMEA GPS data followed by ## then the time in ms before next message was sent
$GPRMC,225256,A,3844.3497,N,10934.2056,W,31.8790,289.960,020510,,*09##16
$GPGSA,A,3,23,07,13,03,32,20,16,06,,,,,0.0,1.2,0.0*34##1
$PGRME,0.32,M,0.64,M,0.00,M*1D##971
$GPGGA,225257,3844.3525,N,10934.2163,W,1,08,1.20,1406.49,M,-16.600,M,,*4F##2
$GPRMC,225257,A,3844.3525,N,10934.2163,W,31.6652,286.610,020510,,*01##1
$GPGSA,A,3,23,07,13,03,32,20,16,06,,,,,0.0,1.2,0.0*34##1
$PGRME,0.32,M,0.64,M,0.00,M*1D##1026
$GPGGA,225258,3844.3547,N,10934.2271,W,1,08,1.20,1407.75,M,-16.600,M,,*4A##2
$GPRMC,225258,A,3844.3547,N,10934.2271,W,31.3931,283.680,020510,,*09##2
$GPGSA,A,3,23,07,13,03,32,20,16,06,,,,,0.0,1.2,0.0*34##0
$PGRME,0.32,M,0.64,M,0.00,M*1D##976
$GPGGA,225259,3844.3567,N,10934.2380,W,1,08,1.20,1408.94,M,-16.600,M,,*46##1
$GPRMC,225259,A,3844.3567,N,10934.2380,W,31.1404,281.950,020510,,*0C##2
$GPGSA,A,3,23,07,13,03,32,20,16,06,,,,,0.0,1.2,0.0*34##0
$PGRME,0.32,M,0.64,M,0.00,M*1D##987
$GPGGA,225300,3844.3584,N,10934.2488,W,1,08,1.20,1410.18,M,-16.600,M,,*44##1
$GPRMC,225300,A,3844.3584,N,10934.2488,W,30.8294,280.650,020510,,*0A##2
$GPGSA,A,3,23,07,13,03,32,20,16,06,,,,,0.0,1.2,0.0*34##0
$PGRME,0.32,M,0.64,M,0.00,M*1D##447
$GPGSV,3,1,10,07,27,264,43,23,76,357,43,03,19,130,37,13,52,319,44*7A##1
$GPGSV,3,2,10,32,25,172,44,20,40,199,44,06,19,114,36,16,49,057,44*7B##0
$GPGSV,3,3,10,01,04,037,03,04,02,283,00*75##579
$GPGGA,225301,3844.3599,N,10934.2597,W,1,08,1.20,1411.41,M,-16.600,M,,*4B##1
$GPRMC,225301,A,3844.3599,N,10934.2597,W,31.5097,279.780,020510,,*0F##2
$GPGSA,A,3,23,07,13,03,32,20,16,06,,,,,0.0,1.2,0.0*34##0
$PGRME,0.32,M,0.64,M,0.00,M*1D##974
$GPGGA,225302,3844.3613,N,10934.2709,W,1,08,1.20,1412.69,M,-16.600,M,,*45##2
$GPRMC,225302,A,3844.3613,N,10934.2709,W,32.2289,279.100,020510,,*0F##2
$GPGSA,A,3,23,07,13,03,32,20,16,06,,,,,0.0,1.2,0.0*34##0
$PGRME,0.32,M,0.64,M,0.00,M*1D##989
$GPGGA,225303,3844.3627,N,10934.2824,W,1,08,1.20,1414.01,M,-16.600,M,,*4B##1
$GPRMC,225303,A,3844.3627,N,10934.2824,W,32.9482,278.800,020510,,*07##2
$GPGSA,A,3,23,07,13,03,32,20,16,06,,,,,0.0,1.2,0.0*34##0
$PGRME,0.32,M,0.64,M,0.00,M*1D##1027
$GPGGA,225304,3844.3641,N,10934.2941,W,1,08,1.20,1415.37,M,-16.600,M,,*4A##2
$GPRMC,225304,A,3844.3641,N,10934.2941,W,33.5702,278.660,020510,,*0C##1
$GPGSA,A,3,23,07,13,03,32,20,16,06,,,,,0.0,1.2,0.0*34##1
$PGRME,0.32,M,0.64,M,0.00,M*1D##873
$GPGGA,225305,3844.3655,N,10934.3060,W,1,08,1.20,1416.75,M,-16.600,M,,*40##2
$GPRMC,225305,A,3844.3655,N,10934.3060,W,34.2311,278.440,020510,,*05##2
$GPGSA,A,3,23,07,13,03,32,20,16,06,,,,,0.0,1.2,0.0*34##0
$PGRME,0.32,M,0.64,M,0.00,M*1D##1088
$GPGGA,225306,3844.3669,N,10934.3182,W,1,08,1.20,1418.11,M,-16.600,M,,*4D##2
$GPRMC,225306,A,3844.3669,N,10934.3182,W,34.6004,278.110,020510,,*07##1
$GPGSA,A,3,23,07,13,03,32,20,16,06,,,,,0.0,1.2,0.0*34##1
$PGRME,0.32,M,0.64,M,0.00,M*1D##1027
$GPGGA,225307,3844.3682,N,10934.3303,W,1,08,1.20,1419.46,M,-16.600,M,,*41##1
$GPRMC,225307,A,3844.3682,N,10934.3303,W,34.2700,277.550,020510,,*00##2
$GPGSA,A,3,23,07,13,03,32,20,16,06,,,,,0.0,1.2,0.0*34##0
$PGRME,0.32,M,0.64,M,0.00,M*1D##977
$GPGGA,225308,3844.3695,N,10934.3424,W,1,08,1.20,1420.74,M,-16.600,M,,*41##1
$GPRMC,225308,A,3844.3695,N,10934.3424,W,34.0756,277.680,020510,,*04##2
$GPGSA,A,3,23,07,13,03,32,20,16,06,,,,,0.0,1.2,0.0*34##0
$PGRME,0.32,M,0.64,M,0.00,M*1D##987
$GPGGA,225309,3844.3707,N,10934.3544,W,1,08,1.20,1422.02,M,-16.600,M,,*4E##1
$GPRMC,225309,A,3844.3707,N,10934.3544,W,33.7257,277.860,020510,,*0C##2
$GPGSA,A,3,23,07,13,03,32,20,16,06,,,,,0.0,1.2,0.0*34##0
$PGRME,0.32,M,0.64,M,0.00,M*1D##1027
$GPGGA,225310,3844.3721,N,10934.3660,W,1,08,1.20,1423.21,M,-16.600,M,,*47##1
$GPRMC,225310,A,3844.3721,N,10934.3660,W,32.5011,279.000,020510,,*06##2
$GPGSA,A,3,23,07,13,03,32,20,16,06,,,,,0.0,1.2,0.0*34##0
$PGRME,0.32,M,0.64,M,0.00,M*1D##967
$GPGGA,225311,3844.3737,N,10934.3771,W,1,08,1.20,1424.32,M,-16.600,M,,*45##1
$GPRMC,225311,A,3844.3737,N,10934.3771,W,30.9071,281.170,020510,,*08##2
$GPGSA,A,3,23,07,13,03,32,20,16,06,,,,,0.0,1.2,0.0*34##0
$PGRME,0.32,M,0.64,M,0.00,M*1D##996
$GPGGA,225312,3844.3756,N,10934.3876,W,1,08,1.20,1425.38,M,-16.600,M,,*42##2
$GPRMC,225312,A,3844.3756,N,10934.3876,W,29.5076,285.240,020510,,*03##2
$GPGSA,A,3,23,07,13,03,32,20,16,06,,,,,0.0,1.2,0.0*34##0
$PGRME,0.32,M,0.64,M,0.00,M*1D##1026
$GPGGA,225313,3844.3781,N,10934.3974,W,1,08,1.20,1426.38,M,-16.600,M,,*49##2
$GPRMC,225313,A,3844.3781,N,10934.3974,W,28.6911,290.540,020510,,*02##2
$GPGSA,A,3,23,07,13,03,32,20,16,06,,,,,0.0,1.2,0.0*34##0
$PGRME,0.32,M,0.64,M,0.00,M*1D##986
$GPGGA,225314,3844.3813,N,10934.4066,W,1,08,1.20,1427.35,M,-16.600,M,,*4B##2
$GPRMC,225314,A,3844.3813,N,10934.4066,W,28.1663,296.150,020510,,*02##2
$GPGSA,A,3,23,07,13,03,32,20,16,06,,,,,0.0,1.2,0.0*34##0
$PGRME,0.32,M,0.64,M,0.00,M*1D##878
$GPGGA,225315,3844.3851,N,10934.4153,W,1,08,1.20,1428.28,M,-16.600,M,,*48##1
$GPRMC,225315,A,3844.3851,N,10934.4153,W,27.9914,301.920,020510,,*0A##2
$GPGSA,A,3,23,07,13,03,32,20,16,06,,,,,0.0,1.2,0.0*34##0
$PGRME,0.32,M,0.64,M,0.00,M*1D##452
$GPGSV,3,1,10,07,27,264,43,23,77,358,44,03,19,130,37,13,52,319,44*73##0
$GPGSV,3,2,10,32,25,172,43,20,40,199,45,06,19,114,36,16,48,057,44*7C##0
$GPGSV,3,3,10,01,04,037,00,04,02,283,00*76##643
$GPGGA,225316,3844.3897,N,10934.4236,W,1,08,1.20,1429.22,M,-16.600,M,,*4A##2
$GPRMC,225316,A,3844.3897,N,10934.4236,W,28.9244,307.760,020510,,*0E##2
$GPGSA,A,3,23,07,13,03,32,20,16,06,,,,,0.0,1.2,0.0*34##0
$PGRME,0.32,M,0.64,M,0.00,M*1D##997
$GPGGA,225317,3844.3951,N,10934.4314,W,1,08,1.20,1430.17,M,-16.600,M,,*4F##1
$GPRMC,225317,A,3844.3951,N,10934.4314,W,29.8575,314.240,020510,,*05##2
$GPGSA,A,3,23,07,13,03,32,20,16,06,,,,,0.0,1.2,0.0*34##0
$PGRME,0.32,M,0.64,M,0.00,M*1D##996
$GPGGA,225318,3844.4014,N,10934.4387,W,1,08,1.20,1431.15,M,-16.600,M,,*46##2
$GPRMC,225318,A,3844.4014,N,10934.4387,W,30.7905,320.400,020510,,*06##2
$GPGSA,A,3,23,07,13,03,32,20,16,06,,,,,0.0,1.2,0.0*34##0
$PGRME,0.32,M,0.64,M,0.00,M*1D##1027
$GPGGA,225319,3844.4084,N,10934.4452,W,1,08,1.20,1432.13,M,-16.600,M,,*44##1
$GPRMC,225319,A,3844.4084,N,10934.4452,W,31.4320,326.850,020510,,*01##2
$GPGSA,A,3,23,07,13,03,32,20,16,06,,,,,0.0,1.2,0.0*34##0
$PGRME,0.32,M,0.64,M,0.00,M*1D##966
$GPGGA,225320,3844.4161,N,10934.4507,W,1,08,1.20,1433.14,M,-16.600,M,,*43##2
$GPRMC,225320,A,3844.4161,N,10934.4507,W,31.5875,-321.930,020510,,*27##2
$GPGSA,A,3,23,07,13,03,32,20,16,06,,,,,0.0,1.2,0.0*34##0
$PGRME,0.32,M,0.64,M,0.00,M*1D##1006
$GPGGA,225321,3844.4242,N,10934.4550,W,1,08,1.20,1434.11,M,-16.600,M,,*40##2
$GPRMC,225321,A,3844.4242,N,10934.4550,W,31.4320,-315.170,020510,,*27##2
$GPGSA,A,3,23,07,13,03,32,20,16,06,,,,,0.0,1.2,0.0*34##0
$PGRME,0.32,M,0.64,M,0.00,M*1D##1016
$GPGGA,225322,3844.4327,N,10934.4581,W,1,08,1.20,1435.10,M,-16.600,M,,*4D##2
$GPRMC,225322,A,3844.4327,N,10934.4581,W,31.3348,-308.500,020510,,*2C##2
$GPGSA,A,3,23,07,13,03,32,20,16,06,,,,,0.0,1.2,0.0*34##0
$PGRME,0.32,M,0.63,M,0.00,M*1A##976
$GPGGA,225323,3844.4413,N,10934.4599,W,1,08,1.20,1436.08,M,-16.600,M,,*4F##2
$GPRMC,225323,A,3844.4413,N,10934.4599,W,31.1793,-301.740,020510,,*2B##2
$GPGSA,A,3,23,07,13,03,32,20,16,06,,,,,0.0,1.2,0.0*34##0
$PGRME,0.32,M,0.63,M,0.00,M*1A##986
$GPGGA,225324,3844.4500,N,10934.4604,W,1,08,1.20,1436.99,M,-16.600,M,,*44##2
$GPRMC,225324,A,3844.4500,N,10934.4604,W,30.8099,-295.650,020510,,*21##2
$GPGSA,A,3,23,07,13,03,32,20,16,06,,,,,0.0,1.2,0.0*34##0
$PGRME,0.32,M,0.63,M,0.00,M*1A##1027
$GPGGA,225325,3844.4586,N,10934.4598,W,1,08,1.20,1437.91,M,-16.600,M,,*44##1
$GPRMC,225325,A,3844.4586,N,10934.4598,W,30.4017,5.820,020510,,*0D##2
$GPGSA,A,3,23,07,13,03,32,20,16,06,,,,,0.0,1.2,0.0*34##1
$PGRME,0.32,M,0.63,M,0.00,M*1A##966
$GPGGA,225326,3844.4669,N,10934.4580,W,1,08,1.20,1438.75,M,-16.600,M,,*49##9
$GPRMC,225326,A,3844.4669,N,10934.4580,W,29.6825,12.050,020510,,*3F##2
$GPGSA,A,3,23,07,13,03,32,20,16,06,,,,,0.0,1.2,0.0*34##0
$PGRME,0.32,M,0.63,M,0.00,M*1A##988
$GPGGA,225327,3844.4748,N,10934.4551,W,1,08,1.20,1439.59,M,-16.600,M,,*49##2
$GPRMC,225327,A,3844.4748,N,10934.4551,W,29.0799,18.290,020510,,*3A##1
$GPGSA,A,3,23,07,13,03,32,20,16,06,,,,,0.0,1.2,0.0*34##1
$PGRME,0.32,M,0.63,M,0.00,M*1A##1027
$GPGGA,225328,3844.4823,N,10934.4512,W,1,08,1.20,1440.39,M,-16.600,M,,*4B##1
$GPRMC,225328,A,3844.4823,N,10934.4512,W,28.5551,24.910,020510,,*3E##1
$GPGSA,A,3,23,07,13,03,32,20,16,06,,,,,0.0,1.2,0.0*34##1
$PGRME,0.32,M,0.63,M,0.00,M*1A##966
$GPGGA,225329,3844.4894,N,10934.4464,W,1,08,1.20,1441.11,M,-16.600,M,,*4D##2
$GPRMC,225329,A,3844.4894,N,10934.4464,W,27.8747,30.690,020510,,*36##1
$GPGSA,A,3,23,07,13,03,32,20,16,06,,,,,0.0,1.2,0.0*34##1
$PGRME,0.32,M,0.63,M,0.00,M*1A##996
$GPGGA,225330,3844.4958,N,10934.4408,W,1,08,1.20,1441.79,M,-16.600,M,,*40##2
$GPRMC,225330,A,3844.4958,N,10934.4408,W,27.3110,35.720,020510,,*35##1
$GPGSA,A,3,23,07,13,03,32,20,16,06,,,,,0.0,1.2,0.0*34##1
$PGRME,0.32,M,0.63,M,0.00,M*1A##449
$GPGSV,3,1,09,07,27,264,43,23,77,358,44,03,19,130,41,13,52,319,44*7A##0
$GPGSV,3,2,09,32,25,172,39,20,40,199,42,06,19,114,40,16,48,057,42*79##1
$GPGSV,3,3,09,01,04,037,00*41##578
$GPGGA,225331,3844.5018,N,10934.4347,W,1,08,1.20,1442.43,M,-16.600,M,,*4B##2
$GPRMC,225331,A,3844.5018,N,10934.4347,W,26.7667,41.010,020510,,*31##1
$GPGSA,A,3,23,07,13,03,32,20,16,06,,,,,0.0,1.2,0.0*34##0
$PGRME,0.32,M,0.62,M,0.00,M*1B##972
$GPGGA,225332,3844.5071,N,10934.4280,W,1,08,1.20,1443.08,M,-16.600,M,,*43##1
$GPRMC,225332,A,3844.5071,N,10934.4280,W,26.3197,46.730,020510,,*39##1
$GPGSA,A,3,23,07,13,03,32,20,16,06,,,,,0.0,1.2,0.0*34##1
$PGRME,0.32,M,0.62,M,0.00,M*1B##999
$GPGGA,225333,3844.5120,N,10934.4209,W,1,08,1.20,1443.69,M,-16.600,M,,*41##2
$GPRMC,225333,A,3844.5120,N,10934.4209,W,26.2225,50.800,020510,,*3C##1
$GPGSA,A,3,23,07,13,03,32,20,16,06,,,,,0.0,1.2,0.0*34##0
$PGRME,0.32,M,0.62,M,0.00,M*1B##1018
$GPGGA,225334,3844.5165,N,10934.4134,W,1,08,1.20,1444.32,M,-16.600,M,,*43##2
$GPRMC,225334,A,3844.5165,N,10934.4134,W,26.3391,52.980,020510,,*33##1
$GPGSA,A,3,23,07,13,03,32,20,16,06,,,,,0.0,1.2,0.0*34##1
$PGRME,0.32,M,0.62,M,0.00,M*1B##966
$GPGGA,225335,3844.5209,N,10934.4056,W,1,08,1.20,1444.93,M,-16.600,M,,*45##2
$GPRMC,225335,A,3844.5209,N,10934.4056,W,26.6695,54.060,020510,,*3B##1
$GPGSA,A,3,23,07,13,03,32,20,16,06,,,,,0.0,1.2,0.0*34##1
$PGRME,0.31,M,0.62,M,0.00,M*18##1007
$GPGGA,225336,3844.5252,N,10934.3976,W,1,08,1.20,1445.56,M,-16.600,M,,*4C##1
$GPRMC,225336,A,3844.5252,N,10934.3976,W,27.0972,56.800,020510,,*37##1
$GPGSA,A,3,23,07,13,03,32,20,16,06,,,,,0.0,1.2,0.0*34##1
$PGRME,0.31,M,0.61,M,0.00,M*1B##1016
$GPGGA,225337,3844.5294,N,10934.3893,W,1,08,1.20,1446.21,M,-16.600,M,,*4E##2
$GPRMC,225337,A,3844.5294,N,10934.3893,W,28.0691,57.170,020510,,*34##1
$GPGSA,A,3,23,07,13,03,32,20,16,06,,,,,0.0,1.2,0.0*34##1
$PGRME,0.31,M,0.61,M,0.00,M*1B##966
$GPGGA,225338,3844.5337,N,10934.3806,W,1,08,1.20,1446.88,M,-16.600,M,,*46##2
$GPRMC,225338,A,3844.5337,N,10934.3806,W,28.7495,57.330,020510,,*38##1
$GPGSA,A,3,23,07,13,03,32,20,16,06,,,,,0.0,1.2,0.0*34##1
$PGRME,0.31,M,0.61,M,0.00,M*1B##996
$GPGGA,225339,3844.5381,N,10934.3718,W,1,08,1.20,1447.57,M,-16.600,M,,*49##2
$GPRMC,225339,A,3844.5381,N,10934.3718,W,28.9633,57.110,020510,,*34##1
$GPGSA,A,3,23,07,13,03,32,20,16,06,,,,,0.0,1.2,0.0*34##1
$PGRME,0.31,M,0.61,M,0.00,M*1B##1026
$GPGGA,225340,3844.5425,N,10934.3630,W,1,08,1.20,1448.27,M,-16.600,M,,*4D##2
$GPRMC,225340,A,3844.5425,N,10934.3630,W,29.1965,57.380,020510,,*36##1
$GPGSA,A,3,23,07,13,03,32,20,16,06,,,,,0.0,1.2,0.0*34##1
$PGRME,0.31,M,0.61,M,0.00,M*1B##976
$GPGGA,225341,3844.5469,N,10934.3541,W,1,08,1.20,1448.94,M,-16.600,M,,*49##2
$GPRMC,225341,A,3844.5469,N,10934.3541,W,29.4104,57.620,020510,,*3F##1
$GPGSA,A,3,23,07,13,03,32,20,16,06,,,,,0.0,1.2,0.0*34##1
$PGRME,0.31,M,0.61,M,0.00,M*1B##897
$GPGGA,225342,3844.5513,N,10934.3451,W,1,08,1.20,1449.61,M,-16.600,M,,*4D##1
$GPRMC,225342,A,3844.5513,N,10934.3451,W,29.6048,57.460,020510,,*3D##2
$GPGSA,A,3,23,07,13,03,32,20,16,06,,,,,0.0,1.2,0.0*34##0
$PGRME,0.31,M,0.61,M,0.00,M*1B##1086
$GPGGA,225343,3844.5558,N,10934.3361,W,1,08,1.20,1450.25,M,-16.600,M,,*4F##2
$GPRMC,225343,A,3844.5558,N,10934.3361,W,29.9352,57.550,020510,,*32##2
$GPGSA,A,3,23,07,13,03,32,20,16,06,,,,,0.0,1.2,0.0*34##0
$PGRME,0.31,M,0.61,M,0.00,M*1B##1037
$GPGGA,225344,3844.5603,N,10934.3269,W,1,08,1.20,1450.82,M,-16.600,M,,*41##1
$GPRMC,225344,A,3844.5603,N,10934.3269,W,30.3045,57.530,020510,,*30##1
$GPGSA,A,3,23,07,13,03,32,20,16,06,,,,,0.0,1.2,0.0*34##1
$PGRME,0.31,M,0.61,M,0.00,M*1B##859
$GPGGA,225345,3844.5649,N,10934.3177,W,1,08,1.20,1451.33,M,-16.600,M,,*49##1
$GPRMC,225345,A,3844.5649,N,10934.3177,W,30.3823,57.340,020510,,*3A##1
$GPGSA,A,3,23,07,13,03,32,20,16,06,,,,,0.0,1.2,0.0*34##1
$PGRME,0.32,M,0.62,M,0.00,M*1B##450
$GPGSV,3,1,10,07,27,264,39,23,77,358,43,03,19,130,41,13,53,319,43*7E##1
$GPGSV,3,2,10,32,25,172,41,20,40,199,42,06,19,114,38,16,48,057,41*72##0
$GPGSV,3,3,10,01,04,037,00,04,02,282,27*72##643
$GPGGA,225346,3844.5695,N,10934.3086,W,1,08,1.20,1451.84,M,-16.600,M,,*48##2
$GPRMC,225346,A,3844.5695,N,10934.3086,W,30.0907,57.200,020510,,*36##1
$GPGSA,A,3,23,07,13,03,32,20,16,06,,,,,0.0,1.2,0.0*34##1
$PGRME,0.32,M,0.62,M,0.00,M*1B##996
$GPGGA,225347,3844.5741,N,10934.2994,W,1,08,1.20,1452.27,M,-16.600,M,,*40##2
$GPRMC,225347,A,3844.5741,N,10934.2994,W,30.2657,57.120,020510,,*3D##1
$GPGSA,A,3,23,07,13,03,32,20,16,06,,,,,0.0,1.2,0.0*34##1
$PGRME,0.32,M,0.62,M,0.00,M*1B##996
$GPGGA,225348,3844.5787,N,10934.2902,W,1,08,1.20,1452.66,M,-16.600,M,,*4F##2
$GPRMC,225348,A,3844.5787,N,10934.2902,W,30.5184,57.230,020510,,*3B##1
$GPGSA,A,3,23,07,13,03,32,20,16,06,,,,,0.0,1.2,0.0*34##1
$PGRME,0.32,M,0.62,M,0.00,M*1B##1027
$GPGGA,225349,3844.5833,N,10934.2810,W,1,08,1.20,1453.02,M,-16.600,M,,*4F##1
$GPRMC,225349,A,3844.5833,N,10934.2810,W,30.4795,57.260,020510,,*3A##1
$GPGSA,A,3,23,07,13,03,32,20,16,06,,,,,0.0,1.2,0.0*34##1
$PGRME,0.32,M,0.63,M,0.00,M*1A##966
$GPGGA,225350,3844.5879,N,10934.2719,W,1,08,1.20,1453.36,M,-16.600,M,,*48##2
$GPRMC,225350,A,3844.5879,N,10934.2719,W,30.0518,57.120,020510,,*3E##1
$GPGSA,A,3,23,07,13,03,32,20,16,06,,,,,0.0,1.2,0.0*34##1
$PGRME,0.32,M,0.63,M,0.00,M*1A##996
$GPGGA,225351,3844.5924,N,10934.2629,W,1,08,1.20,1453.67,M,-16.600,M,,*46##2
$GPRMC,225351,A,3844.5924,N,10934.2629,W,29.5853,57.610,020510,,*3F##1
$GPGSA,A,3,23,07,13,03,32,20,16,06,,,,,0.0,1.2,0.0*34##1
$PGRME,0.32,M,0.63,M,0.00,M*1A##1026
$GPGGA,225352,3844.5968,N,10934.2540,W,1,08,1.20,1454.00,M,-16.600,M,,*47##2
$GPRMC,225352,A,3844.5968,N,10934.2540,W,29.0994,57.650,020510,,*33##1
$GPGSA,A,3,23,07,13,03,32,20,16,06,,,,,0.0,1.2,0.0*34##1
$PGRME,0.32,M,0.63,M,0.00,M*1A##967
$GPGGA,225353,3844.6011,N,10934.2452,W,1,08,1.20,1454.29,M,-16.600,M,,*4B##1
$GPRMC,225353,A,3844.6011,N,10934.2452,W,28.4773,57.460,020510,,*37##1
$GPGSA,A,3,23,07,13,03,32,20,16,06,,,,,0.0,1.2,0.0*34##1
$PGRME,0.32,M,0.63,M,0.00,M*1A##996
$GPGGA,225354,3844.6054,N,10934.2367,W,1,08,1.20,1454.59,M,-16.600,M,,*4B##2
$GPRMC,225354,A,3844.6054,N,10934.2367,W,28.0302,56.880,020510,,*35##1
$GPGSA,A,3,23,07,13,03,32,20,16,06,,,,,0.0,1.2,0.0*34##1
$PGRME,0.32,M,0.63,M,0.00,M*1A##1026
$GPGGA,225355,3844.6097,N,10934.2283,W,1,08,1.20,1454.92,M,-16.600,M,,*49##2
$GPRMC,225355,A,3844.6097,N,10934.2283,W,27.8553,56.390,020510,,*3F##1
$GPGSA,A,3,23,07,13,03,32,20,16,06,,,,,0.0,1.2,0.0*34##0
$PGRME,0.32,M,0.64,M,0.00,M*1D##987
$GPGGA,225356,3844.6140,N,10934.2201,W,1,08,1.20,1455.25,M,-16.600,M,,*46##2
$GPRMC,225356,A,3844.6140,N,10934.2201,W,27.5054,56.340,020510,,*3F##1
$GPGSA,A,3,23,07,13,03,32,20,16,06,,,,,0.0,1.2,0.0*34##1
$PGRME,0.32,M,0.64,M,0.00,M*1D##976
$GPGGA,225357,3844.6182,N,10934.2119,W,1,08,1.20,1455.56,M,-16.600,M,,*47##2
$GPRMC,225357,A,3844.6182,N,10934.2119,W,26.9611,56.120,020510,,*34##1
$GPGSA,A,3,23,07,13,03,32,20,16,06,,,,,0.0,1.2,0.0*34##1
$PGRME,0.33,M,0.64,M,0.00,M*1C##1026
$GPGGA,225358,3844.6224,N,10934.2040,W,1,08,1.20,1455.88,M,-16.600,M,,*49##2
$GPRMC,225358,A,3844.6224,N,10934.2040,W,26.5335,55.600,020510,,*30##1
$GPGSA,A,3,23,07,13,03,32,20,16,06,,,,,0.0,1.2,0.0*34##1
$PGRME,0.33,M,0.64,M,0.00,M*1C##976
$GPGGA,225359,3844.6267,N,10934.1963,W,1,08,1.20,1456.22,M,-16.600,M,,*47##2
$GPRMC,225359,A,3844.6267,N,10934.1963,W,26.3197,53.870,020510,,*3E##1
$GPGSA,A,3,23,07,13,03,32,20,16,06,,,,,0.0,1.2,0.0*34##1
$PGRME,0.33,M,0.64,M,0.00,M*1C##888
$GPGGA,225400,3844.6312,N,10934.1888,W,1,08,1.20,1456.50,M,-16.600,M,,*4E##2
$GPRMC,225400,A,3844.6312,N,10934.1888,W,26.6501,51.050,020510,,*34##1
$GPGSA,A,3,23,07,13,03,32,20,16,06,,,,,0.0,1.2,0.0*34##0
$PGRME,0.33,M,0.64,M,0.00,M*1C##446
$GPGSV,3,1,09,07,27,264,38,23,77,358,42,03,19,130,41,13,53,319,43*76##0
$GPGSV,3,2,09,32,25,172,40,20,40,199,41,06,19,114,38,16,48,057,41*78##0
$GPGSV,3,3,09,04,02,282,33*4E##659
$GPGGA,225401,3844.6361,N,10934.1815,W,1,08,1.20,1456.76,M,-16.600,M,,*4B##2
$GPRMC,225401,A,3844.6361,N,10934.1815,W,27.1361,47.540,020510,,*30##1
$GPGSA,A,3,23,07,13,03,32,20,16,06,,,,,0.0,1.2,0.0*34##0
$PGRME,0.33,M,0.64,M,0.00,M*1C##908
$GPGGA,225402,3844.6414,N,10934.1744,W,1,08,1.20,1457.06,M,-16.600,M,,*40##1
$GPRMC,225402,A,3844.6414,N,10934.1744,W,27.7387,44.100,020510,,*30##1
$GPGSA,A,3,23,07,13,03,32,20,16,06,,,,,0.0,1.2,0.0*34##1
$PGRME,0.33,M,0.64,M,0.00,M*1C##1076
$GPGGA,225403,3844.6472,N,10934.1676,W,1,08,1.20,1457.44,M,-16.600,M,,*47##2
$GPRMC,225403,A,3844.6472,N,10934.1676,W,28.4773,41.010,020510,,*37##1
$GPGSA,A,3,23,07,13,03,32,20,16,06,,,,,0.0,1.2,0.0*34##0
$PGRME,0.33,M,0.64,M,0.00,M*1C##1027
$GPGGA,225404,3844.6534,N,10934.1611,W,1,08,1.20,1457.91,M,-16.600,M,,*4A##2
$GPRMC,225404,A,3844.6534,N,10934.1611,W,29.1771,38.140,020510,,*3E##1
$GPGSA,A,3,23,07,13,03,32,20,16,06,,,,,0.0,1.2,0.0*34##1
$PGRME,0.33,M,0.64,M,0.00,M*1C##967
$GPGGA,225405,3844.6600,N,10934.1548,W,1,08,1.20,1458.45,M,-16.600,M,,*46##1
$GPRMC,225405,A,3844.6600,N,10934.1548,W,29.7603,35.300,020510,,*3D##1
$GPGSA,A,3,23,07,13,03,32,20,16,06,,,,,0.0,1.2,0.0*34##1
$PGRME,0.33,M,0.64,M,0.00,M*1C##996
$GPGGA,225406,3844.6670,N,10934.1488,W,1,08,1.20,1459.09,M,-16.600,M,,*46##2
$GPRMC,225406,A,3844.6670,N,10934.1488,W,30.2073,32.860,020510,,*32##1
$GPGSA,A,3,23,07,13,03,32,20,16,06,,,,,0.0,1.2,0.0*34##0
$PGRME,0.33,M,0.64,M,0.00,M*1C##1027
$GPGGA,225407,3844.6742,N,10934.1431,W,1,08,1.20,1459.82,M,-16.600,M,,*46##2
$GPRMC,225407,A,3844.6742,N,10934.1431,W,30.4212,29.800,020510,,*3E##1
$GPGSA,A,3,23,07,13,03,32,20,16,06,,,,,0.0,1.2,0.0*34##0
$PGRME,0.32,M,0.64,M,0.00,M*1D##967
$GPGGA,225408,3844.6817,N,10934.1380,W,1,08,1.20,1460.64,M,-16.600,M,,*49##3
$GPRMC,225408,A,3844.6817,N,10934.1380,W,30.4406,26.590,020510,,*3B##1
$GPGSA,A,3,23,07,13,03,32,20,16,06,,,,,0.0,1.2,0.0*34##0
$PGRME,0.32,M,0.63,M,0.00,M*1A##996
$GPGGA,225409,3844.6894,N,10934.1334,W,1,08,1.20,1461.54,M,-16.600,M,,*4E##3
$GPRMC,225409,A,3844.6894,N,10934.1334,W,30.1685,23.780,020510,,*34##1
$GPGSA,A,3,23,07,13,03,32,20,16,06,,,,,0.0,1.2,0.0*34##0
$PGRME,0.32,M,0.63,M,0.00,M*1A##1027
$GPGGA,225410,3844.6971,N,10934.1294,W,1,08,1.20,1462.47,M,-16.600,M,,*46##2
$GPRMC,225410,A,3844.6971,N,10934.1294,W,29.7797,21.150,020510,,*38##1
$GPGSA,A,3,23,07,13,03,32,20,16,06,,,,,0.0,1.2,0.0*34##0
$PGRME,0.32,M,0.63,M,0.00,M*1A##966
$GPGGA,225411,3844.7049,N,10934.1258,W,1,08,1.20,1463.42,M,-16.600,M,,*40##2
$GPRMC,225411,A,3844.7049,N,10934.1258,W,29.4298,18.020,020510,,*3F##2
$GPGSA,A,3,23,07,13,03,32,20,16,06,,,,,0.0,1.2,0.0*34##0
$PGRME,0.32,M,0.63,M,0.00,M*1A##996
$GPGGA,225412,3844.7128,N,10934.1229,W,1,08,1.20,1464.38,M,-16.600,M,,*49##3
$GPRMC,225412,A,3844.7128,N,10934.1229,W,29.0994,14.490,020510,,*3C##1
$GPGSA,A,3,23,07,13,03,32,20,16,06,,,,,0.0,1.2,0.0*34##0
$PGRME,0.32,M,0.62,M,0.00,M*1B##1026
$GPGGA,225413,3844.7207,N,10934.1207,W,1,08,1.20,1465.31,M,-16.600,M,,*42##3
$GPRMC,225413,A,3844.7207,N,10934.1207,W,29.0605,10.880,020510,,*31##1
$GPGSA,A,3,23,07,13,03,32,20,16,06,,,,,0.0,1.2,0.0*34##0
$PGRME,0.32,M,0.62,M,0.00,M*1B##986
$GPGGA,225414,3844.7288,N,10934.1190,W,1,08,1.20,1466.24,M,-16.600,M,,*48##2
$GPRMC,225414,A,3844.7288,N,10934.1190,W,29.1577,8.270,020510,,*07##1
$GPGSA,A,3,23,07,13,03,32,20,16,06,,,,,0.0,1.2,0.0*34##1
$PGRME,0.32,M,0.62,M,0.00,M*1B##886
$GPGGA,225415,3844.7369,N,10934.1178,W,1,08,1.20,1467.16,M,-16.600,M,,*41##2
$GPRMC,225415,A,3844.7369,N,10934.1178,W,29.3326,5.840,020510,,*0A##1
$GPGSA,A,3,23,07,13,03,32,20,16,06,,,,,0.0,1.2,0.0*34##0
$PGRME,0.32,M,0.62,M,0.00,M*1B##437
$GPGSV,3,1,09,07,27,264,45,03,19,130,41,13,53,319,45,32,24,172,40*74##1
$GPGSV,3,2,09,20,40,199,42,06,19,114,41,16,48,057,42,01,03,037,00*76##0
$GPGSV,3,3,09,04,02,282,31*4C##649
$GPGGA,225416,3844.7451,N,10934.1170,W,1,08,1.20,1468.11,M,-16.600,M,,*4E##2
$GPRMC,225416,A,3844.7451,N,10934.1170,W,29.4687,2.970,020510,,*01##1
$GPGSA,A,3,23,07,13,03,32,20,16,06,,,,,0.0,1.2,0.0*34##1
$PGRME,0.32,M,0.62,M,0.00,M*1B##1197
$GPGGA,225417,3844.7534,N,10934.1168,W,1,08,1.20,1469.07,M,-16.600,M,,*42##2
$GPRMC,225417,A,3844.7534,N,10934.1168,W,29.5270,-295.400,020510,,*2D##1
$GPGSA,A,3,23,07,13,03,32,20,16,06,,,,,0.0,1.2,0.0*34##0
$PGRME,0.32,M,0.61,M,0.00,M*18##806
$GPGGA,225418,3844.7616,N,10934.1172,W,1,08,1.20,1470.02,M,-16.600,M,,*48##2
$GPRMC,225418,A,3844.7616,N,10934.1172,W,29.5659,-298.800,020510,,*24##2
$GPGSA,A,3,23,07,13,03,32,20,16,06,,,,,0.0,1.2,0.0*34##0
$PGRME,0.32,M,0.61,M,0.00,M*18##1027
$GPGGA,225419,3844.7699,N,10934.1182,W,1,08,1.20,1470.94,M,-16.600,M,,*4E##2
$GPRMC,225419,A,3844.7699,N,10934.1182,W,29.6048,-302.340,020510,,*25##1
$GPGSA,A,3,23,07,13,03,32,20,16,06,,,,,0.0,1.2,0.0*34##0
$PGRME,0.32,M,0.61,M,0.00,M*18##958
$GPGGA,225420,3844.7781,N,10934.1197,W,1,08,1.20,1471.84,M,-16.600,M,,*48##2
$GPRMC,225420,A,3844.7781,N,10934.1197,W,29.7603,-304.870,020510,,*25##1
$GPGSA,A,3,23,07,13,03,32,20,16,06,,,,,0.0,1.2,0.0*34##1
$PGRME,0.32,M,0.61,M,0.00,M*18##1004
$GPGGA,225421,3844.7863,N,10934.1218,W,1,08,1.20,1472.73,M,-16.600,M,,*45##2
$GPRMC,225421,A,3844.7863,N,10934.1218,W,29.9741,-307.380,020510,,*2D##2
$GPGSA,A,3,23,07,13,03,32,20,16,06,,,,,0.0,1.2,0.0*34##0
$PGRME,0.32,M,0.61,M,0.00,M*18##1026
$GPGGA,225422,3844.7945,N,10934.1244,W,1,08,1.20,1473.55,M,-16.600,M,,*4F##2
$GPRMC,225422,A,3844.7945,N,10934.1244,W,30.1296,-310.410,020510,,*25##2
$GPGSA,A,3,23,07,13,03,32,20,16,06,,,,,0.0,1.2,0.0*34##0
$PGRME,0.32,M,0.61,M,0.00,M*18##957
$GPGGA,225423,3844.8026,N,10934.1275,W,1,08,1.20,1474.34,M,-16.600,M,,*4F##1
$GPRMC,225423,A,3844.8026,N,10934.1275,W,30.3823,-313.090,020510,,*2C##2
$GPGSA,A,3,23,07,13,03,32,20,16,06,,,,,0.0,1.2,0.0*34##0
$PGRME,0.31,M,0.61,M,0.00,M*1B##997
$GPGGA,225424,3844.8107,N,10934.1311,W,1,08,1.20,1475.08,M,-16.600,M,,*47##1
$GPRMC,225424,A,3844.8107,N,10934.1311,W,30.5184,-315.890,020510,,*26##2
$GPGSA,A,3,23,07,13,03,32,20,16,06,,,,,0.0,1.2,0.0*34##0
$PGRME,0.32,M,0.61,M,0.00,M*18##1033
$GPGGA,225425,3844.8186,N,10934.1353,W,1,08,1.20,1475.79,M,-16.600,M,,*4F##2
$GPRMC,225425,A,3844.8186,N,10934.1353,W,30.6156,-319.190,020510,,*21##1
$GPGSA,A,3,23,07,13,03,32,20,16,06,,,,,0.0,1.2,0.0*34##0
$PGRME,0.32,M,0.61,M,0.00,M*18##980
$GPGGA,225426,3844.8264,N,10934.1401,W,1,08,1.20,1476.43,M,-16.600,M,,*49##2
$GPRMC,225426,A,3844.8264,N,10934.1401,W,30.5767,-322.670,020510,,*2B##1
$GPGSA,A,3,23,07,13,03,32,20,16,06,,,,,0.0,1.2,0.0*34##1
$PGRME,0.32,M,0.61,M,0.00,M*18##984
$GPGGA,225427,3844.8338,N,10934.1455,W,1,08,1.20,1477.05,M,-16.600,M,,*42##2
$GPRMC,225427,A,3844.8338,N,10934.1455,W,30.4989,-326.330,020510,,*29##1
$GPGSA,A,3,23,07,13,03,32,20,16,06,,,,,0.0,1.2,0.0*34##0
$PGRME,0.32,M,0.61,M,0.00,M*18##1029
$GPGGA,225428,3844.8410,N,10934.1514,W,1,08,1.20,1477.67,M,-16.600,M,,*40##2
$GPRMC,225428,A,3844.8410,N,10934.1514,W,30.6156,325.750,020510,,*0B##1
$GPGSA,A,3,23,07,13,03,32,20,16,06,,,,,0.0,1.2,0.0*34##1
$PGRME,0.32,M,0.61,M,0.00,M*18##966
$GPGGA,225429,3844.8480,N,10934.1579,W,1,08,1.20,1478.24,M,-16.600,M,,*4B##2
$GPRMC,225429,A,3844.8480,N,10934.1579,W,30.9849,322.560,020510,,*06##1
$GPGSA,A,3,23,07,13,03,32,20,16,06,,,,,0.0,1.2,0.0*34##1
$PGRME,0.32,M,0.61,M,0.00,M*18##906
$GPGGA,225430,3844.8548,N,10934.1650,W,1,08,1.20,1478.81,M,-16.600,M,,*41##2
$GPRMC,225430,A,3844.8548,N,10934.1650,W,31.4903,320.000,020510,,*01##1
$GPGSA,A,3,23,07,13,03,32,20,16,06,,,,,0.0,1.2,0.0*34##0
$PGRME,0.32,M,0.61,M,0.00,M*18##433
$GPGSV,3,1,11,07,27,264,45,03,19,130,36,13,53,319,43,32,24,172,39*75##1
$GPGSV,3,2,11,20,40,199,44,06,19,114,38,16,48,057,44,01,03,037,00*71##0
$GPGSV,3,3,11,04,02,282,38,19,02,150,29,134,05,258,18*7C##655
$GPGGA,225431,3844.8615,N,10934.1725,W,1,08,1.20,1479.38,M,-16.600,M,,*4B##2
$GPRMC,225431,A,3844.8615,N,10934.1725,W,31.9762,318.210,020510,,*04##1
$GPGSA,A,3,23,07,13,03,32,20,16,06,,,,,0.0,1.2,0.0*34##0
$PGRME,0.32,M,0.61,M,0.00,M*18##991
$GPGGA,225432,3844.8682,N,10934.1803,W,1,08,1.20,1479.97,M,-16.600,M,,*48##3
$GPRMC,225432,A,3844.8682,N,10934.1803,W,32.3844,317.400,020510,,*08##1
$GPGSA,A,3,23,07,13,03,32,20,16,06,,,,,0.0,1.2,0.0*34##1
$PGRME,0.32,M,0.61,M,0.00,M*18##990
$GPGGA,225433,3844.8749,N,10934.1882,W,1,08,1.20,1480.59,M,-16.600,M,,*42##1
$GPRMC,225433,A,3844.8749,N,10934.1882,W,32.7927,317.880,020510,,*02##1
$GPGSA,A,3,23,07,13,03,32,20,16,06,,,,,0.0,1.2,0.0*34##1
$PGRME,0.32,M,0.61,M,0.00,M*18##1024
$GPGGA,225434,3844.8818,N,10934.1961,W,1,08,1.20,1481.21,M,-16.600,M,,*4C##2
$GPRMC,225434,A,3844.8818,N,10934.1961,W,32.9870,317.900,020510,,*06##1
$GPGSA,A,3,23,07,13,03,32,20,16,06,,,,,0.0,1.2,0.0*34##0
$PGRME,0.32,M,0.61,M,0.00,M*18##973
$GPGGA,225435,3844.8886,N,10934.2041,W,1,08,1.20,1481.87,M,-16.600,M,,*4E##2
$GPRMC,225435,A,3844.8886,N,10934.2041,W,33.1620,318.180,020510,,*05##1
$GPGSA,A,3,23,07,13,03,32,20,16,06,,,,,0.0,1.2,0.0*34##0
$PGRME,0.32,M,0.61,M,0.00,M*18##993
$GPGGA,225436,3844.8956,N,10934.2121,W,1,08,1.20,1482.52,M,-16.600,M,,*4D##2
$GPRMC,225436,A,3844.8956,N,10934.2121,W,33.3758,318.130,020510,,*0A##1
$GPGSA,A,3,23,07,13,03,32,20,16,06,,,,,0.0,1.2,0.0*34##1
$PGRME,0.32,M,0.62,M,0.00,M*1B##1026
$GPGGA,225437,3844.9025,N,10934.2202,W,1,08,1.20,1483.19,M,-16.600,M,,*4C##3
$GPRMC,225437,A,3844.9025,N,10934.2202,W,33.5896,317.990,020510,,*03##1
$GPGSA,A,3,23,07,13,03,32,20,16,06,,,,,0.0,1.2,0.0*34##0
$PGRME,0.32,M,0.62,M,0.00,M*1B##966
$GPGGA,225438,3844.9095,N,10934.2283,W,1,08,1.20,1483.89,M,-16.600,M,,*48##3
$GPRMC,225438,A,3844.9095,N,10934.2283,W,33.7257,317.570,020510,,*09##1
$GPGSA,A,3,23,07,13,03,32,20,16,06,,,,,0.0,1.2,0.0*34##0
$PGRME,0.32,M,0.62,M,0.00,M*1B##996
$GPGGA,225439,3844.9163,N,10934.2364,W,1,08,1.20,1484.59,M,-16.600,M,,*43##3
$GPRMC,225439,A,3844.9163,N,10934.2364,W,32.9676,317.280,020510,,*08##1
$GPGSA,A,3,23,07,13,03,32,20,16,06,,,,,0.0,1.2,0.0*34##0
$PGRME,0.32,M,0.62,M,0.00,M*1B##1026
$GPGGA,225440,3844.9231,N,10934.2443,W,1,08,1.20,1485.25,M,-16.600,M,,*41##3
$GPRMC,225440,A,3844.9231,N,10934.2443,W,32.3650,317.860,020510,,*0A##1
$GPGSA,A,3,23,07,13,03,32,20,16,06,,,,,0.0,1.2,0.0*34##1
$PGRME,0.32,M,0.62,M,0.00,M*1B##965
$GPGGA,225441,3844.9298,N,10934.2520,W,1,08,1.20,1485.94,M,-16.600,M,,*4D##3
$GPRMC,225441,A,3844.9298,N,10934.2520,W,32.2484,318.860,020510,,*09##1
$GPGSA,A,3,23,07,13,03,32,20,16,06,,,,,0.0,1.2,0.0*34##1
$PGRME,0.32,M,0.62,M,0.00,M*1B##995
$GPGGA,225442,3844.9367,N,10934.2595,W,1,08,1.20,1486.55,M,-16.600,M,,*4F##3
$GPRMC,225442,A,3844.9367,N,10934.2595,W,31.8790,320.860,020510,,*01##1
$GPGSA,A,3,23,07,13,03,32,20,16,06,,,,,0.0,1.2,0.0*34##0
$PGRME,0.32,M,0.62,M,0.00,M*1B##1026
$GPGGA,225443,3844.9437,N,10934.2664,W,1,08,1.20,1487.13,M,-16.600,M,,*42##3
$GPRMC,225443,A,3844.9437,N,10934.2664,W,31.5875,323.620,020510,,*0F##1
$GPGSA,A,3,23,07,13,03,32,20,16,06,,,,,0.0,1.2,0.0*34##0
$PGRME,0.32,M,0.62,M,0.00,M*1B##966
$GPGGA,225444,3844.9510,N,10934.2729,W,1,08,1.20,1487.60,M,-16.600,M,,*4D##3
$GPRMC,225444,A,3844.9510,N,10934.2729,W,31.5680,326.990,020510,,*01##1
$GPGSA,A,3,23,07,13,03,32,20,16,06,,,,,0.0,1.2,0.0*34##0
$PGRME,0.32,M,0.62,M,0.00,M*1B##996
$GPGGA,225445,3844.9586,N,10934.2788,W,1,08,1.20,1488.03,M,-16.600,M,,*42##3
$GPRMC,225445,A,3844.9586,N,10934.2788,W,32.0346,-324.420,020510,,*24##1
$GPGSA,A,3,23,07,13,03,32,20,16,06,,,,,0.0,1.2,0.0*34##0
$PGRME,0.32,M,0.62,M,0.00,M*1B##446
$GPGSV,3,1,10,07,27,264,45,03,19,130,37,13,53,319,43,32,24,172,39*75##1
$GPGSV,3,2,10,20,40,199,43,06,19,114,37,16,48,057,43,01,03,037,00*7F##0
$GPGSV,3,3,10,04,02,282,33,19,02,150,29*73##579
$GPGGA,225446,3844.9667,N,10934.2839,W,1,08,1.20,1488.37,M,-16.600,M,,*4F##3
$GPRMC,225446,A,3844.9667,N,10934.2839,W,32.6371,-319.550,020510,,*24##1
$GPGSA,A,3,23,07,13,03,32,20,16,06,,,,,0.0,1.2,0.0*34##0
$PGRME,0.32,M,0.62,M,0.00,M*1B##966
$GPGGA,225447,3844.9753,N,10934.2883,W,1,08,1.20,1488.64,M,-16.600,M,,*4F##3
$GPRMC,225447,A,3844.9753,N,10934.2883,W,33.5119,-314.410,020510,,*24##1
$GPGSA,A,3,23,07,13,03,32,20,16,06,,,,,0.0,1.2,0.0*34##0
$PGRME,0.32,M,0.62,M,0.00,M*1B##996
$GPGGA,225448,3844.9844,N,10934.2918,W,1,08,1.20,1488.82,M,-16.600,M,,*42##3
$GPRMC,225448,A,3844.9844,N,10934.2918,W,34.1728,-309.900,020510,,*26##1
$GPGSA,A,3,23,07,13,03,32,20,16,06,,,,,0.0,1.2,0.0*34##0
$PGRME,0.32,M,0.62,M,0.00,M*1B##1026
$GPGGA,225449,3844.9938,N,10934.2945,W,1,08,1.20,1489.01,M,-16.600,M,,*4B##3
$GPRMC,225449,A,3844.9938,N,10934.2945,W,34.4838,-306.380,020510,,*23##1
$GPGSA,A,3,23,07,13,03,32,20,16,06,,,,,0.0,1.2,0.0*34##0
$PGRME,0.32,M,0.62,M,0.00,M*1B##986
$GPGGA,225450,3845.0034,N,10934.2965,W,1,08,1.20,1489.15,M,-16.600,M,,*49##3
$GPRMC,225450,A,3845.0034,N,10934.2965,W,34.6004,-303.230,020510,,*2E##1
$GPGSA,A,3,23,07,13,03,32,20,16,06,,,,,0.0,1.2,0.0*34##0
$PGRME,0.32,M,0.62,M,0.00,M*1B##976
$GPGGA,225451,3845.0130,N,10934.2979,W,1,08,1.20,1489.29,M,-16.600,M,,*4F##3
$GPRMC,225451,A,3845.0130,N,10934.2979,W,34.6976,-300.680,020510,,*27##1
$GPGSA,A,3,23,07,13,03,32,20,16,06,,,,,0.0,1.2,0.0*34##0
$PGRME,0.32,M,0.62,M,0.00,M*1B##1026
$GPGGA,225452,3845.0226,N,10934.2989,W,1,08,1.20,1489.52,M,-16.600,M,,*4B##3
$GPRMC,225452,A,3845.0226,N,10934.2989,W,34.2700,-299.740,020510,,*28##1
$GPGSA,A,3,23,07,13,03,32,20,16,06,,,,,0.0,1.2,0.0*34##0
$PGRME,0.32,M,0.62,M,0.00,M*1B##966
$GPGGA,225453,3845.0321,N,10934.2999,W,1,08,1.20,1489.79,M,-16.600,M,,*44##3
$GPRMC,225453,A,3845.0321,N,10934.2999,W,33.9978,-300.510,020510,,*25##1
$GPGSA,A,3,23,07,13,03,32,20,16,06,,,,,0.0,1.2,0.0*34##0
$PGRME,0.32,M,0.62,M,0.00,M*1B##996
$GPGGA,225454,3845.0415,N,10934.3013,W,1,08,1.20,1490.12,M,-16.600,M,,*4C##3
$GPRMC,225454,A,3845.0415,N,10934.3013,W,33.8229,-302.750,020510,,*22##1
$GPGSA,A,3,23,07,13,03,32,20,16,06,,,,,0.0,1.2,0.0*34##0
$PGRME,0.32,M,0.62,M,0.00,M*1B##1026
$GPGGA,225455,3845.0509,N,10934.3032,W,1,08,1.20,1490.51,M,-16.600,M,,*45##3
$GPRMC,225455,A,3845.0509,N,10934.3032,W,33.7840,-306.050,020510,,*25##1
$GPGSA,A,3,23,07,13,03,32,20,16,06,,,,,0.0,1.2,0.0*34##0
$PGRME,0.32,M,0.62,M,0.00,M*1B##966
$GPGGA,225456,3845.0601,N,10934.3057,W,1,08,1.20,1490.93,M,-16.600,M,,*40##3
$GPRMC,225456,A,3845.0601,N,10934.3057,W,33.8423,-308.610,020510,,*24##1
$GPGSA,A,3,23,07,13,03,32,20,16,06,,,,,0.0,1.2,0.0*34##0
$PGRME,0.32,M,0.62,M,0.00,M*1B##996
$GPGGA,225457,3845.0693,N,10934.3088,W,1,08,1.20,1491.44,M,-16.600,M,,*43##3
$GPRMC,225457,A,3845.0693,N,10934.3088,W,33.9395,-311.190,020510,,*20##1
$GPGSA,A,3,23,07,13,03,32,20,16,06,,,,,0.0,1.2,0.0*34##0
$PGRME,0.32,M,0.62,M,0.00,M*1B##1026
$GPGGA,225458,3845.0783,N,10934.3123,W,1,08,1.20,1492.05,M,-16.600,M,,*4A##3
$GPRMC,225458,A,3845.0783,N,10934.3123,W,33.9395,-313.060,020510,,*23##1
$GPGSA,A,3,23,07,13,03,32,20,16,06,,,,,0.0,1.2,0.0*34##0
$PGRME,0.32,M,0.62,M,0.00,M*1B##966
$GPGGA,225459,3845.0873,N,10934.3161,W,1,08,1.20,1492.80,M,-16.600,M,,*40##3
$GPRMC,225459,A,3845.0873,N,10934.3161,W,33.8423,-314.270,020510,,*2B##1
$GPGSA,A,3,23,07,13,03,32,20,16,06,,,,,0.0,1.2,0.0*34##0
$PGRME,0.32,M,0.62,M,0.00,M*1B##996
$GPGGA,225500,3845.0962,N,10934.3201,W,1,08,1.20,1493.65,M,-16.600,M,,*43##3
$GPRMC,225500,A,3845.0962,N,10934.3201,W,33.6674,-314.790,020510,,*27##1
$GPGSA,A,3,23,07,13,03,32,20,16,06,,,,,0.0,1.2,0.0*34##0
$PGRME,0.32,M,0.62,M,0.00,M*1B##446
$GPGSV,3,1,10,07,27,264,44,03,19,130,38,13,53,319,43,32,24,172,37*75##1
$GPGSV,3,2,10,20,40,199,41,06,19,114,39,16,48,057,44,25,51,285,00*7E##0
$GPGSV,3,3,10,04,02,282,37,19,02,150,33*7C##579
$GPGGA,225501,3845.1050,N,10934.3241,W,1,08,1.20,1494.58,M,-16.600,M,,*46##3
$GPRMC,225501,A,3845.1050,N,10934.3241,W,33.3369,-315.300,020510,,*2B##1
$GPGSA,A,3,23,07,13,03,32,20,16,06,,,,,0.0,1.2,0.0*34##0
$PGRME,0.32,M,0.62,M,0.00,M*1B##976
$GPGGA,225502,3845.1137,N,10934.3282,W,1,08,1.20,1495.52,M,-16.600,M,,*41##3
$GPRMC,225502,A,3845.1137,N,10934.3282,W,33.0259,-315.330,020510,,*25##1
$GPGSA,A,3,23,07,13,03,32,20,16,06,,,,,0.0,1.2,0.0*34##0
$PGRME,0.32,M,0.62,M,0.00,M*1B##986
$GPGGA,225503,3845.1223,N,10934.3322,W,1,08,1.20,1496.47,M,-16.600,M,,*4A##3
$GPRMC,225503,A,3845.1223,N,10934.3322,W,32.7927,-315.150,020510,,*29##1
$GPGSA,A,3,23,07,13,03,32,20,16,06,,,,,0.0,1.2,0.0*34##0
$PGRME,0.32,M,0.62,M,0.00,M*1B##1026
$GPGGA,225504,3845.1309,N,10934.3361,W,1,08,1.20,1497.42,M,-16.600,M,,*47##3
$GPRMC,225504,A,3845.1309,N,10934.3361,W,32.5594,-314.950,020510,,*2F##1
$GPGSA,A,3,23,07,13,03,32,20,16,06,,,,,0.0,1.2,0.0*34##0
$PGRME,0.32,M,0.62,M,0.00,M*1B##966
$GPGGA,225505,3845.1394,N,10934.3401,W,1,08,1.20,1498.40,M,-16.600,M,,*4E##3
$GPRMC,225505,A,3845.1394,N,10934.3401,W,32.3844,-315.120,020510,,*23##1
$GPGSA,A,3,23,07,13,03,32,20,16,06,,,,,0.0,1.2,0.0*34##0
$PGRME,0.32,M,0.62,M,0.00,M*1B##996
$GPGGA,225506,3845.1479,N,10934.3440,W,1,08,1.20,1499.36,M,-16.600,M,,*4C##3
$GPRMC,225506,A,3845.1479,N,10934.3440,W,32.0540,-315.200,020510,,*2A##1
$GPGSA,A,3,23,07,13,03,32,20,16,06,,,,,0.0,1.2,0.0*34##0
$PGRME,0.32,M,0.62,M,0.00,M*1B##1026
$GPGGA,225507,3845.1563,N,10934.3478,W,1,08,1.20,1500.32,M,-16.600,M,,*49##3
$GPRMC,225507,A,3845.1563,N,10934.3478,W,31.8207,-315.090,020510,,*2E##1
$GPGSA,A,3,23,07,13,03,32,20,16,06,,,,,0.0,1.2,0.0*34##0
$PGRME,0.32,M,0.62,M,0.00,M*1B##966
$GPGGA,225508,3845.1646,N,10934.3517,W,1,08,1.20,1501.27,M,-16.600,M,,*4F##3
$GPRMC,225508,A,3845.1646,N,10934.3517,W,31.5292,-315.240,020510,,*23##1
$GPGSA,A,3,23,07,13,03,32,20,16,06,,,,,0.0,1.2,0.0*34##0
$PGRME,0.32,M,0.62,M,0.00,M*1B##996
$GPGGA,225509,3845.1728,N,10934.3555,W,1,08,1.20,1502.22,M,-16.600,M,,*47##3
$GPRMC,225509,A,3845.1728,N,10934.3555,W,30.6156,-315.420,020510,,*24##1
$GPGSA,A,3,23,07,13,03,32,20,16,06,,,,,0.0,1.2,0.0*34##0
$PGRME,0.32,M,0.62,M,0.00,M*1B##1026
$GPGGA,225510,3845.1807,N,10934.3592,W,1,08,1.20,1503.12,M,-16.600,M,,*44##3
$GPRMC,225510,A,3845.1807,N,10934.3592,W,30.1102,-315.360,020510,,*20##1
$GPGSA,A,3,23,07,13,03,32,20,16,06,,,,,0.0,1.2,0.0*34##0
$PGRME,0.32,M,0.62,M,0.00,M*1B##966
$GPGGA,225511,3845.1886,N,10934.3629,W,1,08,1.20,1503.98,M,-16.600,M,,*4D##3
$GPRMC,225511,A,3845.1886,N,10934.3629,W,29.9352,-315.390,020510,,*23##1
$GPGSA,A,3,23,07,13,03,32,20,16,06,,,,,0.0,1.2,0.0*34##0
$PGRME,0.32,M,0.62,M,0.00,M*1B##996
$GPGGA,225512,3845.1965,N,10934.3666,W,1,08,1.20,1504.79,M,-16.600,M,,*41##3
$GPRMC,225512,A,3845.1965,N,10934.3666,W,30.0907,-315.890,020510,,*27##1
$GPGSA,A,3,23,07,13,03,32,20,16,06,,,,,0.0,1.2,0.0*34##0
$PGRME,0.32,M,0.62,M,0.00,M*1B##1026
$GPGGA,225513,3845.2044,N,10934.3705,W,1,08,1.20,1505.51,M,-16.600,M,,*46##3
$GPRMC,225513,A,3845.2044,N,10934.3705,W,30.3823,-316.940,020510,,*20##1
$GPGSA,A,3,23,07,13,03,32,20,16,06,,,,,0.0,1.2,0.0*34##0
$PGRME,0.32,M,0.62,M,0.00,M*1B##986
$GPGGA,225514,3845.2123,N,10934.3747,W,1,08,1.20,1506.21,M,-16.600,M,,*43##3
$GPRMC,225514,A,3845.2123,N,10934.3747,W,30.7905,-319.050,020510,,*27##1
$GPGSA,A,3,23,07,13,03,32,20,16,06,,,,,0.0,1.2,0.0*34##0
$PGRME,0.32,M,0.62,M,0.00,M*1B##878
$GPGGA,225515,3845.2201,N,10934.3794,W,1,08,1.20,1506.78,M,-16.600,M,,*43##2
$GPRMC,225515,A,3845.2201,N,10934.3794,W,31.2181,-321.060,020510,,*23##1
$GPGSA,A,3,23,07,13,03,32,20,16,06,,,,,0.0,1.2,0.0*34##1
$PGRME,0.32,M,0.62,M,0.00,M*1B##444
$GPGSV,3,1,10,07,28,265,44,23,77,001,43,03,20,130,37,13,53,321,42*74##1
$GPGSV,3,2,10,32,24,172,38,20,39,199,42,06,19,114,38,16,48,055,44*74##0
$GPGSV,3,3,10,04,02,282,35,19,02,150,31*7C##649
$GPGGA,225516,3845.2279,N,10934.3845,W,1,08,1.20,1507.27,M,-16.600,M,,*47##3
$GPRMC,225516,A,3845.2279,N,10934.3845,W,31.6458,-323.610,020510,,*2A##1
$GPGSA,A,3,23,07,13,03,32,20,16,06,,,,,0.0,1.2,0.0*34##0
$PGRME,0.32,M,0.62,M,0.00,M*1B##996
$GPGGA,225517,3845.2357,N,10934.3900,W,1,08,1.20,1507.71,M,-16.600,M,,*48##3
$GPRMC,225517,A,3845.2357,N,10934.3900,W,32.0929,-325.070,020510,,*2E##1
$GPGSA,A,3,23,07,13,03,32,20,16,06,,,,,0.0,1.2,0.0*34##0
$PGRME,0.32,M,0.62,M,0.00,M*1B##996
$GPGGA,225518,3845.2434,N,10934.3957,W,1,08,1.20,1508.12,M,-16.600,M,,*4D##3
$GPRMC,225518,A,3845.2434,N,10934.3957,W,32.4428,-325.320,020510,,*2F##1
$GPGSA,A,3,23,07,13,03,32,20,16,06,,,,,0.0,1.2,0.0*34##0
$PGRME,0.32,M,0.62,M,0.00,M*1B##1026
$GPGGA,225519,3845.2513,N,10934.4016,W,1,08,1.20,1508.55,M,-16.600,M,,*40##3
$GPRMC,225519,A,3845.2513,N,10934.4016,W,33.0065,-325.710,020510,,*2E##1
$GPGSA,A,3,23,07,13,03,32,20,16,06,,,,,0.0,1.2,0.0*34##0
$PGRME,0.32,M,0.62,M,0.00,M*1B##966
$GPGGA,225520,3845.2593,N,10934.4077,W,1,08,1.20,1508.97,M,-16.600,M,,*4B##3
$GPRMC,225520,A,3845.2593,N,10934.4077,W,33.6674,-326.000,020510,,*2E##1
$GPGSA,A,3,23,07,13,03,32,20,16,06,,,,,0.0,1.2,0.0*34##0
$PGRME,0.32,M,0.62,M,0.00,M*1B##996
$GPGGA,225521,3845.2675,N,10934.4139,W,1,08,1.20,1509.36,M,-16.600,M,,*40##2
$GPRMC,225521,A,3845.2675,N,10934.4139,W,34.2505,-325.820,020510,,*20##2
$GPGSA,A,3,23,07,13,03,32,20,16,06,,,,,0.0,1.2,0.0*34##0
$PGRME,0.32,M,0.62,M,0.00,M*1B##1026
$GPGGA,225522,3845.2757,N,10934.4201,W,1,08,1.20,1509.77,M,-16.600,M,,*4F##2
$GPRMC,225522,A,3845.2757,N,10934.4201,W,34.7754,-325.780,020510,,*2C##2
$GPGSA,A,3,23,07,13,03,32,20,16,06,,,,,0.0,1.2,0.0*34##0
$PGRME,0.32,M,0.62,M,0.00,M*1B##966
$GPGGA,225523,3845.2841,N,10934.4265,W,1,08,1.20,1510.22,M,-16.600,M,,*4C##2
$GPRMC,225523,A,3845.2841,N,10934.4265,W,35.2613,-325.980,020510,,*2F##2
$GPGSA,A,3,23,07,13,03,32,20,16,06,,,,,0.0,1.2,0.0*34##0
$PGRME,0.32,M,0.62,M,0.00,M*1B##996
$GPGGA,225524,3845.2926,N,10934.4330,W,1,08,1.20,1510.71,M,-16.600,M,,*4C##2
$GPRMC,225524,A,3845.2926,N,10934.4330,W,35.7084,-325.840,020510,,*29##2
$GPGSA,A,3,23,07,13,03,32,20,16,06,,,,,0.0,1.2,0.0*34##0
$PGRME,0.32,M,0.63,M,0.00,M*1A##1026
$GPGGA,225525,3845.3012,N,10934.4395,W,1,08,1.20,1511.23,M,-16.600,M,,*4B##2
$GPRMC,225525,A,3845.3012,N,10934.4395,W,36.1166,-326.060,020510,,*29##2
$GPGSA,A,3,23,07,13,03,32,20,16,06,,,,,0.0,1.2,0.0*34##0
$PGRME,0.32,M,0.62,M,0.00,M*1B##976
$GPGGA,225526,3845.3099,N,10934.4461,W,1,08,1.20,1511.88,M,-16.600,M,,*46##2
$GPRMC,225526,A,3845.3099,N,10934.4461,W,36.4471,-326.060,020510,,*23##1
$GPGSA,A,3,23,07,13,03,32,20,16,06,,,,,0.0,1.2,0.0*34##1
$PGRME,0.32,M,0.62,M,0.00,M*1B##897
$GPGGA,225527,3845.3186,N,10934.4529,W,1,08,1.20,1512.62,M,-16.600,M,,*42##2
$GPRMC,225527,A,3845.3186,N,10934.4529,W,36.6998,-326.530,020510,,*28##1
$GPGSA,A,3,23,07,13,03,32,20,16,06,,,,,0.0,1.2,0.0*34##1
$PGRME,0.32,M,0.62,M,0.00,M*1B##1085
$GPGGA,225528,3845.3273,N,10934.4598,W,1,08,1.20,1513.45,M,-16.600,M,,*4A##2
$GPRMC,225528,A,3845.3273,N,10934.4598,W,36.7192,-327.190,020510,,*28##2
$GPGSA,A,3,23,07,13,03,32,20,16,06,,,,,0.0,1.2,0.0*34##0
$PGRME,0.32,M,0.62,M,0.00,M*1B##996
$GPGGA,225529,3845.3358,N,10934.4667,W,1,08,1.20,1514.41,M,-16.600,M,,*43##2
$GPRMC,225529,A,3845.3358,N,10934.4667,W,35.9222,327.040,020510,,*06##2
$GPGSA,A,3,23,07,13,03,32,20,16,06,,,,,0.0,1.2,0.0*34##0
$PGRME,0.32,M,0.62,M,0.00,M*1B##996
$GPGGA,225530,3845.3440,N,10934.4738,W,1,08,1.20,1515.45,M,-16.600,M,,*4B##2
$GPRMC,225530,A,3845.3440,N,10934.4738,W,35.1058,324.970,020510,,*05##2
$GPGSA,A,3,23,07,13,03,32,20,16,06,,,,,0.0,1.2,0.0*34##0
$PGRME,0.32,M,0.62,M,0.00,M*1B##446
$GPGSV,3,1,11,07,28,265,44,23,77,001,42,03,20,130,37,13,53,321,42*74##1
$GPGSV,3,2,11,32,24,172,37,20,39,198,43,06,19,114,38,16,48,055,43*7D##0
$GPGSV,3,3,11,31,01,067,00,04,02,282,00,19,02,150,28*41##579
$GPGGA,225531,3845.3518,N,10934.4811,W,1,08,1.20,1516.50,M,-16.600,M,,*45##2
$GPRMC,225531,A,3845.3518,N,10934.4811,W,34.2505,322.760,020510,,*0A##2
$GPGSA,A,3,23,07,13,03,32,20,16,06,,,,,0.0,1.2,0.0*34##0
$PGRME,0.32,M,0.62,M,0.00,M*1B##966
$GPGGA,225532,3845.3592,N,10934.4887,W,1,08,1.20,1517.53,M,-16.600,M,,*49##2
$GPRMC,225532,A,3845.3592,N,10934.4887,W,33.9590,320.370,020510,,*03##2
$GPGSA,A,3,23,07,13,03,32,20,16,06,,,,,0.0,1.2,0.0*34##0
$PGRME,0.33,M,0.63,M,0.00,M*1B##996
$GPGGA,225533,3845.3663,N,10934.4967,W,1,08,1.20,1518.62,M,-16.600,M,,*47##2
$GPRMC,225533,A,3845.3663,N,10934.4967,W,34.0367,317.850,020510,,*0D##2
$GPGSA,A,3,23,07,13,03,32,20,16,06,,,,,0.0,1.2,0.0*34##0
$PGRME,0.33,M,0.63,M,0.00,M*1B##1026
$GPGGA,225534,3845.3732,N,10934.5051,W,1,08,1.20,1519.74,M,-16.600,M,,*4E##2
$GPRMC,225534,A,3845.3732,N,10934.5051,W,34.1922,315.160,020510,,*00##2
$GPGSA,A,3,23,07,13,03,32,20,16,06,,,,,0.0,1.2,0.0*34##0
$PGRME,0.33,M,0.63,M,0.00,M*1B##869
$GPGGA,225535,3845.3797,N,10934.5140,W,1,08,1.20,1520.88,M,-16.600,M,,*48##2
$GPRMC,225535,A,3845.3797,N,10934.5140,W,34.3089,312.170,020510,,*03##1
$GPGSA,A,3,23,07,13,03,32,20,16,06,,,,,0.0,1.2,0.0*34##0
$PGRME,0.33,M,0.63,M,0.00,M*1B##1094
$GPGGA,225536,3845.3859,N,10934.5233,W,1,08,1.20,1522.01,M,-16.600,M,,*42##2
$GPRMC,225536,A,3845.3859,N,10934.5233,W,34.4255,309.340,020510,,*05##2
$GPGSA,A,3,23,07,13,03,32,20,16,06,,,,,0.0,1.2,0.0*34##0
$PGRME,0.33,M,0.63,M,0.00,M*1B##1026
$GPGGA,225537,3845.3918,N,10934.5331,W,1,08,1.20,1523.15,M,-16.600,M,,*40##2
$GPRMC,225537,A,3845.3918,N,10934.5331,W,34.5616,306.820,020510,,*03##2
$GPGSA,A,3,23,07,13,03,32,20,16,06,,,,,0.0,1.2,0.0*34##0
$PGRME,0.33,M,0.63,M,0.00,M*1B##868
$GPGGA,225538,3845.3974,N,10934.5432,W,1,08,1.20,1524.28,M,-16.600,M,,*48##2
$GPRMC,225538,A,3845.3974,N,10934.5432,W,34.6587,304.220,020510,,*02##2
$GPGSA,A,3,23,07,13,03,32,20,16,06,,,,,0.0,1.2,0.0*34##0
$PGRME,0.33,M,0.63,M,0.00,M*1B##1094
$GPGGA,225539,3845.4026,N,10934.5536,W,1,08,1.20,1525.43,M,-16.600,M,,*49##2
$GPRMC,225539,A,3845.4026,N,10934.5536,W,34.6976,301.720,020510,,*0D##2
$GPGSA,A,3,23,07,13,03,32,20,16,06,,,,,0.0,1.2,0.0*34##0
$PGRME,0.33,M,0.63,M,0.00,M*1B##1026
$GPGGA,225540,3845.4074,N,10934.5643,W,1,08,1.20,1526.53,M,-16.600,M,,*43##2
$GPRMC,225540,A,3845.4074,N,10934.5643,W,34.6782,298.860,020510,,*0A##2
$GPGSA,A,3,23,07,13,03,32,20,16,06,,,,,0.0,1.2,0.0*34##0
$PGRME,0.33,M,0.63,M,0.00,M*1B##966
$GPGGA,225541,3845.4118,N,10934.5753,W,1,08,1.20,1527.63,M,-16.600,M,,*4B##3
$GPRMC,225541,A,3845.4118,N,10934.5753,W,34.6782,295.760,020510,,*02##1
$GPGSA,A,3,23,07,13,03,32,20,16,06,,,,,0.0,1.2,0.0*34##0
$PGRME,0.33,M,0.63,M,0.00,M*1B##996
$GPGGA,225542,3845.4158,N,10934.5866,W,1,08,1.20,1528.64,M,-16.600,M,,*4D##2
$GPRMC,225542,A,3845.4158,N,10934.5866,W,34.5616,293.340,020510,,*03##2
$GPGSA,A,3,23,07,13,03,32,20,16,06,,,,,0.0,1.2,0.0*34##0
$PGRME,0.33,M,0.63,M,0.00,M*1B##1026
$GPGGA,225543,3845.4193,N,10934.5979,W,1,08,1.20,1529.59,M,-16.600,M,,*4B##2
$GPRMC,225543,A,3845.4193,N,10934.5979,W,33.8229,291.100,020510,,*0C##2
$GPGSA,A,3,23,07,13,03,32,20,16,06,,,,,0.0,1.2,0.0*34##0
$PGRME,0.33,M,0.63,M,0.00,M*1B##886
$GPGGA,225544,3845.4224,N,10934.6091,W,1,08,1.20,1530.50,M,-16.600,M,,*4E##2
$GPRMC,225544,A,3845.4224,N,10934.6091,W,32.5983,288.630,020510,,*03##2
$GPGSA,A,3,23,07,13,03,32,20,16,06,,,,,0.0,1.2,0.0*34##0
$PGRME,0.33,M,0.63,M,0.00,M*1B##977
$GPGGA,225545,3845.4251,N,10934.6200,W,1,08,1.20,1531.35,M,-16.600,M,,*45##2
$GPRMC,225545,A,3845.4251,N,10934.6200,W,31.2765,286.560,020510,,*00##2
$GPGSA,A,3,23,07,13,03,32,20,16,06,,,,,0.0,1.2,0.0*34##0
$PGRME,0.33,M,0.63,M,0.00,M*1B##445
$GPGSV,3,1,11,07,28,265,42,23,77,003,42,03,20,130,36,13,54,321,41*75##1
$GPGSV,3,2,11,32,24,172,40,20,39,198,43,06,19,114,36,16,48,055,43*73##0
$GPGSV,3,3,11,31,01,067,00,04,02,282,00,19,02,150,30*48##649
$GPGGA,225546,3845.4273,N,10934.6305,W,1,08,1.20,1532.14,M,-16.600,M,,*42##2
$GPRMC,225546,A,3845.4273,N,10934.6305,W,29.6048,284.350,020510,,*05##2
$GPGSA,A,3,23,07,13,03,32,20,16,06,,,,,0.0,1.2,0.0*34##0
$PGRME,0.33,M,0.63,M,0.00,M*1B##996
$GPGGA,225547,3845.4290,N,10934.6404,W,1,08,1.20,1532.90,M,-16.600,M,,*44##2
$GPRMC,225547,A,3845.4290,N,10934.6404,W,27.5248,281.320,020510,,*02##2
$GPGSA,A,3,23,07,13,03,32,20,16,06,,,,,0.0,1.2,0.0*34##0
$PGRME,0.33,M,0.64,M,0.00,M*1C##996
$GPGGA,225548,3845.4302,N,10934.6498,W,1,08,1.20,1533.65,M,-16.600,M,,*4F##2
$GPRMC,225548,A,3845.4302,N,10934.6498,W,25.8726,278.130,020510,,*05##2
$GPGSA,A,3,23,07,13,03,32,20,16,06,,,,,0.0,1.2,0.0*34##0
$PGRME,0.33,M,0.64,M,0.00,M*1C##1026
$GPGGA,225549,3845.4311,N,10934.6587,W,1,08,1.20,1534.25,M,-16.600,M,,*40##2
$GPRMC,225549,A,3845.4311,N,10934.6587,W,24.6091,276.820,020510,,*0B##2
$GPGSA,A,3,23,07,13,03,32,20,16,06,,,,,0.0,1.2,0.0*34##0
$PGRME,0.33,M,0.64,M,0.00,M*1C##966
$GPGGA,225550,3845.4318,N,10934.6673,W,1,08,1.20,1534.84,M,-16.600,M,,*42##2
$GPRMC,225550,A,3845.4318,N,10934.6673,W,23.5400,276.110,020510,,*00##2
$GPGSA,A,3,23,07,13,03,32,20,16,06,,,,,0.0,1.2,0.0*34##0
$PGRME,0.33,M,0.64,M,0.00,M*1C##996
$GPGGA,225551,3845.4323,N,10934.6755,W,1,08,1.20,1535.40,M,-16.600,M,,*47##2
$GPRMC,225551,A,3845.4323,N,10934.6755,W,22.7235,274.610,020510,,*0A##2
$GPGSA,A,3,23,07,13,03,32,20,16,06,,,,,0.0,1.2,0.0*34##0
$PGRME,0.33,M,0.64,M,0.00,M*1C##1026
$GPGGA,225552,3845.4327,N,10934.6834,W,1,08,1.20,1535.98,M,-16.600,M,,*4D##2
$GPRMC,225552,A,3845.4327,N,10934.6834,W,21.8877,272.870,020510,,*0B##2
$GPGSA,A,3,23,07,13,03,32,20,16,06,,,,,0.0,1.2,0.0*34##0
$PGRME,0.33,M,0.64,M,0.00,M*1C##966
$GPGGA,225553,3845.4327,N,10934.6912,W,1,08,1.20,1536.59,M,-16.600,M,,*47##2
$GPRMC,225553,A,3845.4327,N,10934.6912,W,21.8683,270.070,020510,,*00##2
$GPGSA,A,3,23,07,13,03,32,20,16,06,,,,,0.0,1.2,0.0*34##0
$PGRME,0.32,M,0.64,M,0.00,M*1D##996
$GPGGA,225554,3845.4326,N,10934.6991,W,1,08,1.20,1537.19,M,-16.600,M,,*4F##2
$GPRMC,225554,A,3845.4326,N,10934.6991,W,22.1793,269.120,020510,,*0B##2
$GPGSA,A,3,23,07,13,03,32,20,16,06,,,,,0.0,1.2,0.0*34##0
$PGRME,0.32,M,0.64,M,0.00,M*1D##1026
$GPGGA,225555,3845.4324,N,10934.7072,W,1,08,1.20,1537.86,M,-16.600,M,,*4F##2
$GPRMC,225555,A,3845.4324,N,10934.7072,W,23.3067,267.690,020510,,*00##2
$GPGSA,A,3,23,07,13,03,32,20,16,06,,,,,0.0,1.2,0.0*34##0
$PGRME,0.32,M,0.64,M,0.00,M*1D##966
$GPGGA,225556,3845.4320,N,10934.7157,W,1,08,1.20,1538.55,M,-16.600,M,,*4F##2
$GPRMC,225556,A,3845.4320,N,10934.7157,W,24.3952,265.900,020510,,*0D##2
$GPGSA,A,3,23,07,13,03,32,20,16,06,,,,,0.0,1.2,0.0*34##0
$PGRME,0.32,M,0.64,M,0.00,M*1D##996
$GPGGA,225557,3845.4312,N,10934.7246,W,1,08,1.20,1539.31,M,-16.600,M,,*4F##2
$GPRMC,225557,A,3845.4312,N,10934.7246,W,25.4255,263.340,020510,,*0C##2
$GPGSA,A,3,23,07,13,03,32,20,16,06,,,,,0.0,1.2,0.0*34##0
$PGRME,0.32,M,0.64,M,0.00,M*1D##1026
$GPGGA,225558,3845.4302,N,10934.7338,W,1,08,1.20,1540.18,M,-16.600,M,,*4C##2
$GPRMC,225558,A,3845.4302,N,10934.7338,W,26.3197,260.960,020510,,*08##2
$GPGSA,A,3,23,07,13,03,32,20,16,06,,,,,0.0,1.2,0.0*34##0
$PGRME,0.32,M,0.64,M,0.00,M*1D##966
$GPGGA,225559,3845.4288,N,10934.7432,W,1,08,1.20,1541.08,M,-16.600,M,,*43##2
$GPRMC,225559,A,3845.4288,N,10934.7432,W,27.1944,259.250,020510,,*00##2
$GPGSA,A,3,23,07,13,03,32,20,16,06,,,,,0.0,1.2,0.0*34##0
$PGRME,0.32,M,0.64,M,0.00,M*1D##996
$GPGGA,225600,3845.4272,N,10934.7529,W,1,08,1.20,1542.03,M,-16.600,M,,*4A##2
$GPRMC,225600,A,3845.4272,N,10934.7529,W,28.1080,258.440,020510,,*09##2
$GPGSA,A,3,23,07,13,03,32,20,16,06,,,,,0.0,1.2,0.0*34##0
$PGRME,0.32,M,0.64,M,0.00,M*1D##446
$GPGSV,3,1,11,07,28,265,40,23,77,003,43,03,20,130,38,13,54,321,43*7A##1
$GPGSV,3,2,11,32,24,172,41,20,39,198,43,06,19,114,36,16,48,055,42*73##0
$GPGSV,3,3,11,31,01,067,00,04,02,282,00,19,02,150,37*4F##579
$GPGGA,225601,3845.4255,N,10934.7629,W,1,08,1.20,1543.02,M,-16.600,M,,*4D##2
$GPRMC,225601,A,3845.4255,N,10934.7629,W,28.9827,257.470,020510,,*0F##2
$GPGSA,A,3,23,07,13,03,32,20,16,06,,,,,0.0,1.2,0.0*34##0
$PGRME,0.32,M,0.64,M,0.00,M*1D##966
$GPGGA,225602,3845.4236,N,10934.7730,W,1,08,1.20,1544.03,M,-16.600,M,,*44##2
$GPRMC,225602,A,3845.4236,N,10934.7730,W,29.3909,256.790,020510,,*0A##2
$GPGSA,A,3,23,07,13,03,32,20,16,06,,,,,0.0,1.2,0.0*34##0
$PGRME,0.32,M,0.64,M,0.00,M*1D##996
$GPGGA,225603,3845.4217,N,10934.7832,W,1,08,1.20,1545.09,M,-16.600,M,,*40##2
$GPRMC,225603,A,3845.4217,N,10934.7832,W,29.2354,256.650,020510,,*0B##2
$GPGSA,A,3,23,07,13,03,32,20,16,06,,,,,0.0,1.2,0.0*34##0
$PGRME,0.32,M,0.64,M,0.00,M*1D##1026
$GPGGA,225604,3845.4197,N,10934.7934,W,1,08,1.20,1546.16,M,-16.600,M,,*46##2
$GPRMC,225604,A,3845.4197,N,10934.7934,W,28.9244,257.020,020510,,*0A##2
$GPGSA,A,3,23,07,13,03,32,20,16,06,,,,,0.0,1.2,0.0*34##0
$PGRME,0.33,M,0.64,M,0.00,M*1C##966
$GPGGA,225605,3845.4179,N,10934.8034,W,1,08,1.20,1547.26,M,-16.600,M,,*43##2
$GPRMC,225605,A,3845.4179,N,10934.8034,W,28.6717,257.890,020510,,*02##2
$GPGSA,A,3,23,07,13,03,32,20,16,06,,,,,0.0,1.2,0.0*34##0
$PGRME,0.33,M,0.65,M,0.00,M*1D##996
$GPGGA,225606,3845.4163,N,10934.8134,W,1,08,1.20,1548.36,M,-16.600,M,,*44##2
$GPRMC,225606,A,3845.4163,N,10934.8134,W,28.4579,258.750,020510,,*0F##2
$GPGSA,A,3,23,07,13,03,32,20,16,06,,,,,0.0,1.2,0.0*34##0
$PGRME,0.33,M,0.65,M,0.00,M*1D##1026
$GPGGA,225607,3845.4148,N,10934.8234,W,1,08,1.20,1549.43,M,-16.600,M,,*4C##2
$GPRMC,225607,A,3845.4148,N,10934.8234,W,28.2829,259.730,020510,,*0D##2
$GPGSA,A,3,23,07,13,03,32,20,16,06,,,,,0.0,1.2,0.0*34##0
$PGRME,0.33,M,0.65,M,0.00,M*1D##1006
$GPGGA,225608,3845.4134,N,10934.8333,W,1,08,1.20,1550.50,M,-16.600,M,,*44##2
$GPRMC,225608,A,3845.4134,N,10934.8333,W,28.1274,261.560,020510,,*02##2
$GPGSA,A,3,23,07,13,03,32,20,16,06,,,,,0.0,1.2,0.0*34##0
$PGRME,0.33,M,0.65,M,0.00,M*1D##858
$GPGGA,225609,3845.4125,N,10934.8432,W,1,08,1.20,1551.56,M,-16.600,M,,*44##2
$GPRMC,225609,A,3845.4125,N,10934.8432,W,27.8164,264.500,020510,,*02##2
$GPGSA,A,3,23,07,13,03,32,20,16,06,,,,,0.0,1.2,0.0*34##0
$PGRME,0.33,M,0.66,M,0.00,M*1E##1094
$GPGGA,225610,3845.4119,N,10934.8530,W,1,08,1.20,1552.62,M,-16.600,M,,*44##2
$GPRMC,225610,A,3845.4119,N,10934.8530,W,27.3305,268.000,020510,,*01##2
$GPGSA,A,3,23,07,13,03,32,20,16,06,,,,,0.0,1.2,0.0*34##0
$PGRME,0.33,M,0.66,M,0.00,M*1E##997
$GPGGA,225611,3845.4119,N,10934.8628,W,1,08,1.20,1553.61,M,-16.600,M,,*4D##1
$GPRMC,225611,A,3845.4119,N,10934.8628,W,27.4860,271.220,020510,,*0D##2
$GPGSA,A,3,23,07,13,03,32,20,16,06,,,,,0.0,1.2,0.0*34##0
$PGRME,0.33,M,0.65,M,0.00,M*1D##996
$GPGGA,225612,3845.4123,N,10934.8728,W,1,08,1.20,1554.62,M,-16.600,M,,*42##2
$GPRMC,225612,A,3845.4123,N,10934.8728,W,28.3024,274.500,020510,,*06##2
$GPGSA,A,3,23,07,13,03,32,20,16,06,,,,,0.0,1.2,0.0*34##0
$PGRME,0.33,M,0.65,M,0.00,M*1D##1026
$GPGGA,225613,3845.4132,N,10934.8830,W,1,08,1.20,1555.67,M,-16.600,M,,*41##2
$GPRMC,225613,A,3845.4132,N,10934.8830,W,29.0994,278.700,020510,,*0F##2
$GPGSA,A,3,23,07,13,03,32,20,16,06,,,,,0.0,1.2,0.0*34##0
$PGRME,0.33,M,0.65,M,0.00,M*1D##886
$GPGGA,225614,3845.4148,N,10934.8933,W,1,08,1.20,1556.73,M,-16.600,M,,*4F##2
$GPRMC,225614,A,3845.4148,N,10934.8933,W,29.9352,283.530,020510,,*0B##2
$GPGSA,A,3,23,07,13,03,32,20,16,06,,,,,0.0,1.2,0.0*34##0
$PGRME,0.33,M,0.65,M,0.00,M*1D##978
$GPGGA,225615,3845.4171,N,10934.9037,W,1,08,1.20,1557.84,M,-16.600,M,,*41##2
$GPRMC,225615,A,3845.4171,N,10934.9037,W,30.7322,288.000,020510,,*00##1
$GPGSA,A,3,23,07,13,03,32,20,16,06,,,,,0.0,1.2,0.0*34##0
$PGRME,0.33,M,0.65,M,0.00,M*1D##445
$GPGSV,3,1,11,07,28,265,41,23,78,003,43,03,20,129,38,13,54,321,42*7D##1
$GPGSV,3,2,11,32,23,172,41,20,39,198,43,06,20,112,35,16,47,055,41*77##0
$GPGSV,3,3,11,31,01,067,19,04,01,282,00,19,02,150,33*40##649
$GPGGA,225616,3845.4201,N,10934.9141,W,1,08,1.20,1559.00,M,-16.600,M,,*44##2
$GPRMC,225616,A,3845.4201,N,10934.9141,W,31.3931,292.650,020510,,*02##2
$GPGSA,A,3,23,07,13,03,32,20,16,06,,,,,0.0,1.2,0.0*34##0
$PGRME,0.33,M,0.65,M,0.00,M*1D##996
$GPGGA,225617,3845.4239,N,10934.9244,W,1,08,1.20,1560.13,M,-16.600,M,,*40##2
$GPRMC,225617,A,3845.4239,N,10934.9244,W,32.1512,297.380,020510,,*0F##2
$GPGSA,A,3,23,07,13,03,32,20,16,06,,,,,0.0,1.2,0.0*34##0
$PGRME,0.33,M,0.65,M,0.00,M*1D##996
$GPGGA,225618,3845.4284,N,10934.9345,W,1,08,1.20,1561.33,M,-16.600,M,,*4A##2
$GPRMC,225618,A,3845.4284,N,10934.9345,W,32.8315,301.700,020510,,*0C##2
$GPGSA,A,3,23,07,13,03,32,20,16,06,,,,,0.0,1.2,0.0*34##0
$PGRME,0.33,M,0.65,M,0.00,M*1D##1026
$GPGGA,225619,3845.4335,N,10934.9442,W,1,08,1.20,1562.49,M,-16.600,M,,*4E##2
$GPRMC,225619,A,3845.4335,N,10934.9442,W,32.9676,305.430,020510,,*03##2
$GPGSA,A,3,23,07,13,03,32,20,16,06,,,,,0.0,1.2,0.0*34##0
$PGRME,0.33,M,0.65,M,0.00,M*1D##868
$GPGGA,225620,3845.4390,N,10934.9535,W,1,08,1.20,1563.62,M,-16.600,M,,*42##1
$GPRMC,225620,A,3845.4390,N,10934.9535,W,32.5788,309.000,020510,,*00##2
$GPGSA,A,3,23,07,13,03,32,20,16,06,,,,,0.0,1.2,0.0*34##0
$PGRME,0.33,M,0.65,M,0.00,M*1D##997
$GPGGA,225621,3845.4450,N,10934.9622,W,1,08,1.20,1564.76,M,-16.600,M,,*4F##2
$GPRMC,225621,A,3845.4450,N,10934.9622,W,31.9957,313.420,020510,,*01##2
$GPGSA,A,3,23,07,13,03,32,20,16,06,,,,,0.0,1.2,0.0*34##0
$PGRME,0.32,M,0.65,M,0.00,M*1C##1094
$GPGGA,225622,3845.4514,N,10934.9700,W,1,08,1.20,1565.91,M,-16.600,M,,*44##3
$GPRMC,225622,A,3845.4514,N,10934.9700,W,31.4125,318.500,020510,,*0A##1
$GPGSA,A,3,23,07,13,03,32,20,16,06,,,,,0.0,1.2,0.0*34##0
$PGRME,0.32,M,0.65,M,0.00,M*1C##996
$GPGGA,225623,3845.4582,N,10934.9770,W,1,08,1.20,1567.00,M,-16.600,M,,*47##3
$GPRMC,225623,A,3845.4582,N,10934.9770,W,30.8877,323.610,020510,,*0A##1
$GPGSA,A,3,23,07,13,03,32,20,16,06,,,,,0.0,1.2,0.0*34##0
$PGRME,0.32,M,0.65,M,0.00,M*1C##996
$GPGGA,225624,3845.4653,N,10934.9831,W,1,08,1.20,1568.02,M,-16.600,M,,*48##3
$GPRMC,225624,A,3845.4653,N,10934.9831,W,30.4212,327.630,020510,,*0B##1
$GPGSA,A,3,23,07,13,03,32,20,16,06,,,,,0.0,1.2,0.0*34##0
$PGRME,0.32,M,0.65,M,0.00,M*1C##1026
$GPGGA,225625,3845.4726,N,10934.9885,W,1,08,1.20,1568.96,M,-16.600,M,,*48##3
$GPRMC,225625,A,3845.4726,N,10934.9885,W,30.0907,-323.970,020510,,*2F##1
$GPGSA,A,3,23,07,13,03,32,20,16,06,,,,,0.0,1.2,0.0*34##0
$PGRME,0.33,M,0.65,M,0.00,M*1D##868
$GPGGA,225626,3845.4802,N,10934.9932,W,1,08,1.20,1569.89,M,-16.600,M,,*40##2
$GPRMC,225626,A,3845.4802,N,10934.9932,W,30.0907,-319.590,020510,,*23##1
$GPGSA,A,3,23,07,13,03,32,20,16,06,,,,,0.0,1.2,0.0*34##1
$PGRME,0.33,M,0.65,M,0.00,M*1D##1005
$GPGGA,225627,3845.4882,N,10934.9972,W,1,08,1.20,1570.77,M,-16.600,M,,*44##2
$GPRMC,225627,A,3845.4882,N,10934.9972,W,31.0626,-315.080,020510,,*2B##1
$GPGSA,A,3,23,07,13,03,32,20,16,06,,,,,0.0,1.2,0.0*34##1
$PGRME,0.33,M,0.65,M,0.00,M*1D##1085
$GPGGA,225628,3845.4966,N,10935.0006,W,1,08,1.20,1571.56,M,-16.600,M,,*40##3
$GPRMC,225628,A,3845.4966,N,10935.0006,W,31.8596,-311.140,020510,,*24##1
$GPGSA,A,3,23,07,13,03,32,20,16,06,,,,,0.0,1.2,0.0*34##0
$PGRME,0.33,M,0.64,M,0.00,M*1C##996
$GPGGA,225629,3845.5053,N,10935.0033,W,1,08,1.20,1572.33,M,-16.600,M,,*49##2
$GPRMC,225629,A,3845.5053,N,10935.0033,W,32.3456,-307.870,020510,,*25##2
$GPGSA,A,3,23,07,13,03,32,20,16,06,,,,,0.0,1.2,0.0*34##0
$PGRME,0.33,M,0.64,M,0.00,M*1C##996
$GPGGA,225630,3845.5143,N,10935.0055,W,1,08,1.20,1573.07,M,-16.600,M,,*47##3
$GPRMC,225630,A,3845.5143,N,10935.0055,W,32.6177,-305.140,020510,,*26##1
$GPGSA,A,3,23,07,13,03,32,20,16,06,,,,,0.0,1.2,0.0*34##0
$PGRME,0.33,M,0.64,M,0.00,M*1C##446
$GPGSV,3,1,11,07,28,265,43,23,78,003,43,03,20,129,38,13,54,321,42*7F##1
$GPGSV,3,2,11,32,23,172,37,20,39,198,42,06,20,112,38,16,47,055,43*78##0
$GPGSV,3,3,11,31,01,067,00,04,01,282,20,19,02,150,33*4A##579
$GPGGA,225631,3845.5234,N,10935.0071,W,1,08,1.20,1573.71,M,-16.600,M,,*42##4
$GPRMC,225631,A,3845.5234,N,10935.0071,W,33.0454,-302.410,020510,,*26##2
$GPGSA,A,3,23,07,13,03,32,20,16,06,,,,,0.0,1.2,0.0*34##0
$PGRME,0.33,M,0.64,M,0.00,M*1C##964
$GPGGA,225632,3845.5328,N,10935.0084,W,1,08,1.20,1574.30,M,-16.600,M,,*45##3
$GPRMC,225632,A,3845.5328,N,10935.0084,W,33.5896,-300.910,020510,,*2B##1
$GPGSA,A,3,23,07,13,03,32,20,16,06,,,,,0.0,1.2,0.0*34##0
$PGRME,0.33,M,0.64,M,0.00,M*1C##996
$GPGGA,225633,3845.5423,N,10935.0094,W,1,08,1.20,1574.77,M,-16.600,M,,*4A##3
$GPRMC,225633,A,3845.5423,N,10935.0094,W,34.2505,-299.940,020510,,*24##1
$GPGSA,A,3,23,07,13,03,32,20,16,06,,,,,0.0,1.2,0.0*34##0
$PGRME,0.33,M,0.64,M,0.00,M*1C##1026
$GPGGA,225634,3845.5520,N,10935.0103,W,1,08,1.20,1575.24,M,-16.600,M,,*47##3
$GPRMC,225634,A,3845.5520,N,10935.0103,W,34.9114,-299.730,020510,,*28##1
$GPGSA,A,3,23,07,13,03,32,20,16,06,,,,,0.0,1.2,0.0*34##0
$PGRME,0.33,M,0.64,M,0.00,M*1C##868
$GPGGA,225635,3845.5618,N,10935.0111,W,1,08,1.20,1575.73,M,-16.600,M,,*4F##2
$GPRMC,225635,A,3845.5618,N,10935.0111,W,35.5529,-299.490,020510,,*2C##1
$GPGSA,A,3,23,07,13,03,32,20,16,06,,,,,0.0,1.2,0.0*34##1
$PGRME,0.33,M,0.64,M,0.00,M*1C##1094
$GPGGA,225636,3845.5719,N,10935.0120,W,1,08,1.20,1576.18,M,-16.600,M,,*40##3
$GPRMC,225636,A,3845.5719,N,10935.0120,W,36.1166,-299.200,020510,,*2A##1
$GPGSA,A,3,23,07,13,03,32,20,16,06,,,,,0.0,1.2,0.0*34##0
$PGRME,0.33,M,0.64,M,0.00,M*1C##1026
$GPGGA,225637,3845.5821,N,10935.0128,W,1,08,1.20,1576.63,M,-16.600,M,,*41##3
$GPRMC,225637,A,3845.5821,N,10935.0128,W,36.7387,-299.160,020510,,*29##1
$GPGSA,A,3,23,07,13,03,32,20,16,06,,,,,0.0,1.2,0.0*34##0
$PGRME,0.33,M,0.64,M,0.00,M*1C##986
$GPGGA,225638,3845.5924,N,10935.0136,W,1,08,1.20,1577.08,M,-16.600,M,,*49##3
$GPRMC,225638,A,3845.5924,N,10935.0136,W,37.3607,-299.010,020510,,*23##1
$GPGSA,A,3,23,07,13,03,32,20,16,06,,,,,0.0,1.2,0.0*34##0
$PGRME,0.33,M,0.63,M,0.00,M*1B##878
$GPGGA,225639,3845.6030,N,10935.0144,W,1,08,1.20,1577.52,M,-16.600,M,,*4D##2
$GPRMC,225639,A,3845.6030,N,10935.0144,W,37.8855,-299.010,020510,,*2A##1
$GPGSA,A,3,23,07,13,03,32,20,16,06,,,,,0.0,1.2,0.0*34##0
$PGRME,0.33,M,0.63,M,0.00,M*1B##1095
$GPGGA,225640,3845.6136,N,10935.0152,W,1,08,1.20,1577.96,M,-16.600,M,,*4B##3
$GPRMC,225640,A,3845.6136,N,10935.0152,W,38.2160,-298.890,020510,,*2F##1
$GPGSA,A,3,23,07,13,03,32,20,16,06,,,,,0.0,1.2,0.0*34##0
$PGRME,0.33,M,0.63,M,0.00,M*1B##996
$GPGGA,225641,3845.6243,N,10935.0160,W,1,08,1.20,1578.46,M,-16.600,M,,*48##3
$GPRMC,225641,A,3845.6243,N,10935.0160,W,37.8272,-299.130,020510,,*29##1
$GPGSA,A,3,23,07,13,03,32,20,16,06,,,,,0.0,1.2,0.0*34##0
$PGRME,0.33,M,0.63,M,0.00,M*1B##996
$GPGGA,225642,3845.6348,N,10935.0168,W,1,08,1.20,1578.94,M,-16.600,M,,*46##3
$GPRMC,225642,A,3845.6348,N,10935.0168,W,37.2246,-299.210,020510,,*24##1
$GPGSA,A,3,23,07,13,03,32,20,16,06,,,,,0.0,1.2,0.0*34##0
$PGRME,0.32,M,0.63,M,0.00,M*1A##1026
$GPGGA,225643,3845.6451,N,10935.0177,W,1,08,1.20,1579.46,M,-16.600,M,,*48##3
$GPRMC,225643,A,3845.6451,N,10935.0177,W,36.9136,-299.320,020510,,*28##1
$GPGSA,A,3,23,07,13,03,32,20,16,06,,,,,0.0,1.2,0.0*34##0
$PGRME,0.32,M,0.63,M,0.00,M*1A##986
$GPGGA,225644,3845.6554,N,10935.0185,W,1,08,1.20,1579.98,M,-16.600,M,,*45##2
$GPRMC,225644,A,3845.6554,N,10935.0185,W,36.6609,-299.110,020510,,*23##2
$GPGSA,A,3,23,07,13,03,32,20,16,06,,,,,0.0,1.2,0.0*34##0
$PGRME,0.32,M,0.63,M,0.00,M*1A##879
$GPGGA,225645,3845.6656,N,10935.0193,W,1,08,1.20,1580.51,M,-16.600,M,,*41##2
$GPRMC,225645,A,3845.6656,N,10935.0193,W,36.4860,-298.880,020510,,*26##2
$GPGSA,A,3,23,07,13,03,32,20,16,06,,,,,0.0,1.2,0.0*34##0
$PGRME,0.32,M,0.63,M,0.00,M*1A##443
$GPGSV,3,1,11,07,28,265,42,23,78,004,43,03,20,129,38,13,54,321,43*78##1
$GPGSV,3,2,11,32,23,172,36,20,39,198,40,06,20,112,39,16,47,055,43*7A##0
$GPGSV,3,3,11,31,01,067,00,04,01,282,35,19,03,150,31*4D##649
$GPGGA,225646,3845.6757,N,10935.0200,W,1,08,1.20,1581.05,M,-16.600,M,,*4B##3
$GPRMC,225646,A,3845.6757,N,10935.0200,W,35.7473,-298.750,020510,,*20##1
$GPGSA,A,3,23,07,13,03,32,20,16,06,,,,,0.0,1.2,0.0*34##0
$PGRME,0.32,M,0.63,M,0.00,M*1A##996
$GPGGA,225647,3845.6856,N,10935.0207,W,1,08,1.20,1581.60,M,-16.600,M,,*40##4
$GPRMC,225647,A,3845.6856,N,10935.0207,W,34.7365,-298.600,020510,,*2D##2
$GPGSA,A,3,23,07,13,03,32,20,16,06,,,,,0.0,1.2,0.0*34##0
$PGRME,0.32,M,0.63,M,0.00,M*1A##994
$GPGGA,225648,3845.6951,N,10935.0214,W,1,08,1.20,1582.10,M,-16.600,M,,*4F##3
$GPRMC,225648,A,3845.6951,N,10935.0214,W,33.6868,-298.990,020510,,*20##1
$GPGSA,A,3,23,07,13,03,32,20,16,06,,,,,0.0,1.2,0.0*34##0
$PGRME,0.33,M,0.63,M,0.00,M*1B##1026
$GPGGA,225649,3845.7044,N,10935.0223,W,1,08,1.20,1582.60,M,-16.600,M,,*41##3
$GPRMC,225649,A,3845.7044,N,10935.0223,W,32.5594,-300.230,020510,,*24##1
$GPGSA,A,3,23,07,13,03,32,20,16,06,,,,,0.0,1.2,0.0*34##0
$PGRME,0.33,M,0.63,M,0.00,M*1B##986
$GPGGA,225651,3845.7133,N,10935.0232,W,1,08,1.20,1583.01,M,-16.600,M,,*4F##3
