# NMEA GPS data followed by ## then the time in ms before next message was sent
$GPRMC,230352,A,3846.4737,N,10935.5689,W,21.0324,149.870,020510,,*0B##2
$GPGSA,A,3,23,07,13,03,32,20,06,16,,,,,0.0,1.2,0.0*34##1
$PGRME,0.31,M,0.59,M,0.00,M*10##976
$GPGGA,230353,3846.4685,N,10935.5652,W,1,08,1.20,1579.80,M,-16.600,M,,*4D##2
$GPRMC,230353,A,3846.4685,N,10935.5652,W,21.2851,151.810,020510,,*00##1
$GPGSA,A,3,23,07,13,03,32,20,06,16,,,,,0.0,1.2,0.0*34##0
$PGRME,0.31,M,0.59,M,0.00,M*10##1004
$GPGGA,230354,3846.4633,N,10935.5619,W,1,08,1.20,1580.07,M,-16.600,M,,*41##2
$GPRMC,230354,A,3846.4633,N,10935.5619,W,20.9158,155.520,020510,,*05##1
$GPGSA,A,3,23,07,13,03,32,20,06,16,,,,,0.0,1.2,0.0*34##1
$PGRME,0.31,M,0.59,M,0.00,M*10##1009
$GPGGA,230355,3846.4580,N,10935.5590,W,1,08,1.20,1580.30,M,-16.600,M,,*4D##2
$GPRMC,230355,A,3846.4580,N,10935.5590,W,20.6631,158.480,020510,,*0C##1
$GPGSA,A,3,23,07,13,03,32,20,06,16,,,,,0.0,1.2,0.0*34##0
$PGRME,0.31,M,0.59,M,0.00,M*10##987
$GPGGA,230356,3846.4526,N,10935.5565,W,1,08,1.20,1580.48,M,-16.600,M,,*47##2
$GPRMC,230356,A,3846.4526,N,10935.5565,W,20.7603,160.600,020510,,*08##1
$GPGSA,A,3,23,07,13,03,32,20,06,16,,,,,0.0,1.2,0.0*34##0
$PGRME,0.31,M,0.59,M,0.00,M*10##898
$GPGGA,230357,3846.4471,N,10935.5542,W,1,08,1.20,1580.60,M,-16.600,M,,*4A##1
$GPRMC,230357,A,3846.4471,N,10935.5542,W,21.0713,163.170,020510,,*0A##1
$GPGSA,A,3,23,07,13,03,32,20,06,16,,,,,0.0,1.2,0.0*34##1
$PGRME,0.31,M,0.59,M,0.00,M*10##1076
$GPGGA,230358,3846.4414,N,10935.5522,W,1,08,1.20,1580.67,M,-16.600,M,,*47##2
$GPRMC,230358,A,3846.4414,N,10935.5522,W,21.3240,165.840,020510,,*0C##1
$GPGSA,A,3,23,07,13,03,32,20,06,16,,,,,0.0,1.2,0.0*34##0
$PGRME,0.31,M,0.59,M,0.00,M*10##1007
$GPGGA,230359,3846.4357,N,10935.5505,W,1,08,1.20,1580.66,M,-16.600,M,,*42##2
$GPRMC,230359,A,3846.4357,N,10935.5505,W,21.2462,168.190,020510,,*06##1
$GPGSA,A,3,23,07,13,03,32,20,06,16,,,,,0.0,1.2,0.0*34##0
$PGRME,0.31,M,0.59,M,0.00,M*10##903
$GPGGA,230400,3846.4299,N,10935.5490,W,1,08,1.20,1580.62,M,-16.600,M,,*43##2
$GPRMC,230400,A,3846.4299,N,10935.5490,W,21.3434,169.480,020510,,*04##0
$GPGSA,A,3,23,07,13,03,32,20,06,16,,,,,0.0,1.2,0.0*34##1
$PGRME,0.31,M,0.59,M,0.00,M*10##431
$GPGSV,3,1,09,07,30,268,45,23,80,019,44,03,22,127,41,13,57,322,42*7D##1
$GPGSV,3,2,09,32,20,172,38,20,35,196,41,06,22,109,42,16,45,052,45*7A##0
$GPGSV,3,3,09,19,05,147,00*4F##649
$GPGGA,230401,3846.4240,N,10935.5476,W,1,08,1.20,1580.55,M,-16.600,M,,*4A##2
$GPRMC,230401,A,3846.4240,N,10935.5476,W,21.6544,168.700,020510,,*00##1
$GPGSA,A,3,23,07,13,03,32,20,06,16,,,,,0.0,1.2,0.0*34##0
$PGRME,0.31,M,0.59,M,0.00,M*10##1067
$GPGGA,230402,3846.4181,N,10935.5461,W,1,08,1.20,1580.43,M,-16.600,M,,*46##2
$GPRMC,230402,A,3846.4181,N,10935.5461,W,21.7905,168.770,020510,,*04##1
$GPGSA,A,3,23,07,13,03,32,20,06,16,,,,,0.0,1.2,0.0*34##0
$PGRME,0.31,M,0.60,M,0.00,M*1A##937
$GPGGA,230403,3846.4122,N,10935.5446,W,1,07,1.20,1580.27,M,-16.600,M,,*46##2
$GPRMC,230403,A,3846.4122,N,10935.5446,W,21.6544,169.360,020510,,*05##1
$GPGSA,A,3,23,07,13,32,20,06,16,,,,,,0.0,1.2,0.0*37##0
$PGRME,0.31,M,0.60,M,0.00,M*1A##1017
$GPGGA,230404,3846.4063,N,10935.5433,W,1,07,1.20,1580.12,M,-16.600,M,,*41##2
$GPRMC,230404,A,3846.4063,N,10935.5433,W,21.5378,169.520,020510,,*0C##1
$GPGSA,A,3,23,07,13,32,20,06,16,,,,,,0.0,1.2,0.0*37##0
$PGRME,0.31,M,0.60,M,0.00,M*1A##967
$GPGGA,230405,3846.4004,N,10935.5418,W,1,07,1.20,1579.80,M,-16.600,M,,*45##2
$GPRMC,230405,A,3846.4004,N,10935.5418,W,21.4600,167.860,020510,,*09##1
$GPGSA,A,3,23,07,13,32,20,06,16,,,,,,0.0,1.2,0.0*37##0
$PGRME,0.32,M,0.60,M,0.00,M*19##997
$GPGGA,230406,3846.3946,N,10935.5400,W,1,07,1.20,1579.64,M,-16.600,M,,*4D##2
$GPRMC,230406,A,3846.3946,N,10935.5400,W,21.3240,165.540,020510,,*01##1
$GPGSA,A,3,23,07,13,32,20,06,16,,,,,,0.0,1.2,0.0*37##0
$PGRME,0.32,M,0.60,M,0.00,M*19##1027
$GPGGA,230407,3846.3890,N,10935.5379,W,1,07,1.20,1579.48,M,-16.600,M,,*41##2
$GPRMC,230407,A,3846.3890,N,10935.5379,W,21.2657,161.980,020510,,*04##1
$GPGSA,A,3,23,07,13,32,20,06,16,,,,,,0.0,1.2,0.0*37##0
$PGRME,0.32,M,0.60,M,0.00,M*19##887
$GPGGA,230408,3846.3834,N,10935.5354,W,1,07,1.20,1579.29,M,-16.600,M,,*48##2
$GPRMC,230408,A,3846.3834,N,10935.5354,W,21.2073,158.670,020510,,*00##1
$GPGSA,A,3,23,07,13,32,20,06,16,,,,,,0.0,1.2,0.0*37##0
$PGRME,0.32,M,0.60,M,0.00,M*19##1087
$GPGGA,230409,3846.3780,N,10935.5324,W,1,07,1.20,1579.06,M,-16.600,M,,*43##2
$GPRMC,230409,A,3846.3780,N,10935.5324,W,21.3045,155.290,020510,,*05##1
$GPGSA,A,3,23,07,13,32,20,06,16,,,,,,0.0,1.2,0.0*37##0
$PGRME,0.32,M,0.60,M,0.00,M*19##1017
$GPGGA,230410,3846.3727,N,10935.5290,W,1,09,1.20,1578.82,M,-16.600,M,,*4B##2
$GPRMC,230410,A,3846.3727,N,10935.5290,W,21.2657,150.710,020510,,*02##1
$GPGSA,A,3,23,07,13,19,32,20,06,03,16,,,,0.0,1.2,0.0*3C##0
$PGRME,0.32,M,0.60,M,0.00,M*19##977
$GPGGA,230411,3846.3678,N,10935.5251,W,1,09,1.20,1578.54,M,-16.600,M,,*47##2
$GPRMC,230411,A,3846.3678,N,10935.5251,W,20.8380,146.900,020510,,*09##1
$GPGSA,A,3,23,07,13,19,32,20,06,03,16,,,,0.0,1.2,0.0*3C##0
$PGRME,0.32,M,0.60,M,0.00,M*19##908
$GPGGA,230412,3846.3631,N,10935.5209,W,1,09,1.20,1578.28,M,-16.600,M,,*4F##2
$GPRMC,230412,A,3846.3631,N,10935.5209,W,20.3715,143.940,020510,,*08##0
$GPGSA,A,3,23,07,13,19,32,20,06,03,16,,,,0.0,1.2,0.0*3C##1
$PGRME,0.32,M,0.60,M,0.00,M*19##1016
$GPGGA,230413,3846.3586,N,10935.5165,W,1,09,1.20,1578.02,M,-16.600,M,,*40##3
$GPRMC,230413,A,3846.3586,N,10935.5165,W,20.0022,141.660,020510,,*00##1
$GPGSA,A,3,23,07,13,19,32,20,06,03,16,,,,0.0,1.2,0.0*3C##0
$PGRME,0.31,M,0.60,M,0.00,M*1A##976
$GPGGA,230414,3846.3544,N,10935.5120,W,1,09,1.20,1577.75,M,-16.600,M,,*47##2
$GPRMC,230414,A,3846.3544,N,10935.5120,W,20.0022,139.660,020510,,*07##1
$GPGSA,A,3,23,07,13,19,32,20,06,03,16,,,,0.0,1.2,0.0*3C##0
$PGRME,0.31,M,0.60,M,0.00,M*1A##989
$GPGGA,230415,3846.3502,N,10935.5073,W,1,09,1.20,1577.47,M,-16.600,M,,*42##2
$GPRMC,230415,A,3846.3502,N,10935.5073,W,19.9438,137.160,020510,,*06##1
$GPGSA,A,3,23,07,13,19,32,20,06,03,16,,,,0.0,1.2,0.0*3C##0
$PGRME,0.31,M,0.60,M,0.00,M*1A##435
$GPGSV,3,1,09,07,30,268,44,23,80,019,45,19,05,147,33,13,57,322,43*71##1
$GPGSV,3,2,09,32,20,172,39,20,35,196,43,06,22,109,42,16,45,052,44*78##0
$GPGSV,3,3,09,03,22,127,41*42##659
$GPGGA,230416,3846.3463,N,10935.5024,W,1,09,1.20,1577.19,M,-16.600,M,,*4E##2
$GPRMC,230416,A,3846.3463,N,10935.5024,W,19.5940,135.240,020510,,*0C##1
$GPGSA,A,3,23,07,13,19,32,20,06,03,16,,,,0.0,1.2,0.0*3C##0
$PGRME,0.31,M,0.60,M,0.00,M*1A##997
$GPGGA,230417,3846.3425,N,10935.4975,W,1,09,1.20,1576.95,M,-16.600,M,,*44##2
$GPRMC,230417,A,3846.3425,N,10935.4975,W,19.2441,134.580,020510,,*02##1
$GPGSA,A,3,23,07,13,19,32,20,06,03,16,,,,0.0,1.2,0.0*3C##0
$PGRME,0.31,M,0.60,M,0.00,M*1A##899
$GPGGA,230418,3846.3388,N,10935.4926,W,1,09,1.20,1576.72,M,-16.600,M,,*44##2
$GPRMC,230418,A,3846.3388,N,10935.4926,W,19.3413,134.600,020510,,*06##1
$GPGSA,A,3,23,07,13,19,32,20,06,03,16,,,,0.0,1.2,0.0*3C##0
$PGRME,0.31,M,0.60,M,0.00,M*1A##1095
$GPGGA,230419,3846.3350,N,10935.4877,W,1,09,1.20,1576.48,M,-16.600,M,,*4C##2
$GPRMC,230419,A,3846.3350,N,10935.4877,W,19.4773,134.970,020510,,*0D##1
$GPGSA,A,3,23,07,13,19,32,20,06,03,16,,,,0.0,1.2,0.0*3C##0
$PGRME,0.31,M,0.59,M,0.00,M*10##997
$GPGGA,230420,3846.3312,N,10935.4828,W,1,09,1.20,1576.27,M,-16.600,M,,*43##2
$GPRMC,230420,A,3846.3312,N,10935.4828,W,19.4773,135.180,020510,,*0D##1
$GPGSA,A,3,23,07,13,19,32,20,06,03,16,,,,0.0,1.2,0.0*3C##0
$PGRME,0.31,M,0.59,M,0.00,M*10##898
$GPGGA,230421,3846.3274,N,10935.4779,W,1,09,1.20,1576.06,M,-16.600,M,,*4B##2
$GPRMC,230421,A,3846.3274,N,10935.4779,W,19.1080,135.540,020510,,*00##1
$GPGSA,A,3,23,07,13,19,32,20,06,03,16,,,,0.0,1.2,0.0*3C##0
$PGRME,0.31,M,0.59,M,0.00,M*10##1096
$GPGGA,230422,3846.3237,N,10935.4733,W,1,09,1.20,1575.87,M,-16.600,M,,*4B##2
$GPRMC,230422,A,3846.3237,N,10935.4733,W,17.9611,136.340,020510,,*07##1
$GPGSA,A,3,23,07,13,19,32,20,06,03,16,,,,0.0,1.2,0.0*3C##0
$PGRME,0.31,M,0.59,M,0.00,M*10##899
$GPGGA,230423,3846.3203,N,10935.4692,W,1,09,1.20,1575.69,M,-16.600,M,,*47##2
$GPRMC,230423,A,3846.3203,N,10935.4692,W,16.0173,137.350,020510,,*00##1
$GPGSA,A,3,23,07,13,19,32,20,06,03,16,,,,0.0,1.2,0.0*3C##0
$PGRME,0.31,M,0.59,M,0.00,M*10##997
$GPGGA,230424,3846.3172,N,10935.4655,W,1,09,1.20,1575.52,M,-16.600,M,,*46##2
$GPRMC,230424,A,3846.3172,N,10935.4655,W,14.6566,138.270,020510,,*01##1
$GPGSA,A,3,23,07,13,19,32,20,06,03,16,,,,0.0,1.2,0.0*3C##0
$PGRME,0.31,M,0.59,M,0.00,M*10##1025
$GPGGA,230425,3846.3143,N,10935.4623,W,1,09,1.20,1575.33,M,-16.600,M,,*43##2
$GPRMC,230425,A,3846.3143,N,10935.4623,W,13.2181,139.030,020510,,*0A##1
$GPGSA,A,3,23,07,13,19,32,20,06,03,16,,,,0.0,1.2,0.0*3C##0
$PGRME,0.31,M,0.59,M,0.00,M*10##977
$GPGGA,230426,3846.3118,N,10935.4595,W,1,09,1.20,1575.16,M,-16.600,M,,*47##2
$GPRMC,230426,A,3846.3118,N,10935.4595,W,11.3326,141.100,020510,,*08##1
$GPGSA,A,3,23,07,13,19,32,20,06,03,16,,,,0.0,1.2,0.0*3C##0
$PGRME,0.31,M,0.59,M,0.00,M*10##1087
$GPGGA,230427,3846.3095,N,10935.4573,W,1,09,1.20,1575.01,M,-16.600,M,,*4C##2
$GPRMC,230427,A,3846.3095,N,10935.4573,W,9.6415,144.740,020510,,*39##1
$GPGSA,A,3,23,07,13,19,32,20,06,03,16,,,,0.0,1.2,0.0*3C##0
$PGRME,0.31,M,0.59,M,0.00,M*10##1027
$GPGGA,230428,3846.3074,N,10935.4553,W,1,09,1.20,1574.84,M,-16.600,M,,*42##2
$GPRMC,230428,A,3846.3074,N,10935.4553,W,9.2138,143.210,020510,,*32##1
$GPGSA,A,3,23,07,13,19,32,20,06,03,16,,,,0.0,1.2,0.0*3C##0
$PGRME,0.31,M,0.59,M,0.00,M*10##967
$GPGGA,230429,3846.3055,N,10935.4533,W,1,09,1.20,1574.66,M,-16.600,M,,*4A##2
$GPRMC,230429,A,3846.3055,N,10935.4533,W,8.9028,141.110,020510,,*3D##1
$GPGSA,A,3,23,07,13,19,32,20,06,03,16,,,,0.0,1.2,0.0*3C##0
$PGRME,0.31,M,0.59,M,0.00,M*10##887
$GPGGA,230430,3846.3038,N,10935.4514,W,1,09,1.20,1574.63,M,-16.600,M,,*49##2
$GPRMC,230430,A,3846.3038,N,10935.4514,W,7.5227,136.150,020510,,*31##1
$GPGSA,A,3,23,07,13,19,32,20,06,03,16,,,,0.0,1.2,0.0*3C##0
$PGRME,0.31,M,0.59,M,0.00,M*10##447
$GPGSV,3,1,09,07,30,268,44,23,80,019,45,19,05,147,35,13,57,322,43*77##1
$GPGSV,3,2,09,32,20,172,39,20,35,196,43,06,22,109,41,16,45,052,45*7A##0
$GPGSV,3,3,09,03,22,127,41*42##659
$GPGGA,230431,3846.3026,N,10935.4499,W,1,09,1.20,1574.61,M,-16.600,M,,*41##2
$GPRMC,230431,A,3846.3026,N,10935.4499,W,5.2289,133.740,020510,,*38##1
$GPGSA,A,3,23,07,13,19,32,20,06,03,16,,,,0.0,1.2,0.0*3C##0
$PGRME,0.31,M,0.59,M,0.00,M*10##957
$GPGGA,230432,3846.3019,N,10935.4489,W,1,09,1.20,1574.60,M,-16.600,M,,*4E##2
$GPRMC,230432,A,3846.3019,N,10935.4489,W,2.7019,132.870,020510,,*32##1
$GPGSA,A,3,23,07,13,19,32,20,06,03,16,,,,0.0,1.2,0.0*3C##0
$PGRME,0.31,M,0.59,M,0.00,M*10##1027
$GPGGA,230433,3846.3016,N,10935.4485,W,1,09,1.20,1574.60,M,-16.600,M,,*4C##2
$GPRMC,230433,A,3846.3016,N,10935.4485,W,0.7970,133.700,020510,,*3D##1
$GPGSA,A,3,23,07,13,19,32,20,06,03,16,,,,0.0,1.2,0.0*3C##0
$PGRME,0.31,M,0.59,M,0.00,M*10##1027
$GPGGA,230434,3846.3016,N,10935.4484,W,1,09,1.20,1574.60,M,-16.600,M,,*4A##2
$GPRMC,230434,A,3846.3016,N,10935.4484,W,0.0194,153.770,020510,,*3F##1
$GPGSA,A,3,23,07,13,19,32,20,06,03,16,,,,0.0,1.2,0.0*3C##0
$PGRME,0.31,M,0.59,M,0.00,M*10##977
$GPGGA,230435,3846.3017,N,10935.4484,W,1,09,1.20,1574.61,M,-16.600,M,,*4B##2
$GPRMC,230435,A,3846.3017,N,10935.4484,W,0.0389,148.440,020510,,*3B##1
$GPGSA,A,3,23,07,13,19,32,20,06,03,16,,,,0.0,1.2,0.0*3C##0
$PGRME,0.31,M,0.59,M,0.00,M*10##997
$GPGGA,230436,3846.3017,N,10935.4485,W,1,09,1.20,1574.62,M,-16.600,M,,*4A##2
$GPRMC,230436,A,3846.3017,N,10935.4485,W,0.0389,153.500,020510,,*36##1
$GPGSA,A,3,23,07,13,19,32,20,06,03,16,,,,0.0,1.2,0.0*3C##0
$PGRME,0.31,M,0.59,M,0.00,M*10##1017
$GPGGA,230437,3846.3018,N,10935.4485,W,1,09,1.20,1574.64,M,-16.600,M,,*42##2
$GPRMC,230437,A,3846.3018,N,10935.4485,W,0.0583,145.870,020510,,*39##1
$GPGSA,A,3,23,07,13,19,32,20,06,03,16,,,,0.0,1.2,0.0*3C##0
$PGRME,0.31,M,0.59,M,0.00,M*10##977
$GPGGA,230438,3846.3018,N,10935.4485,W,1,09,1.20,1574.65,M,-16.600,M,,*4C##1
$GPRMC,230438,A,3846.3018,N,10935.4485,W,0.0583,150.560,020510,,*3E##1
$GPGSA,A,3,23,07,13,19,32,20,06,03,16,,,,0.0,1.2,0.0*3C##0
$PGRME,0.31,M,0.59,M,0.00,M*10##998
$GPGGA,230439,3846.3019,N,10935.4485,W,1,09,1.20,1574.66,M,-16.600,M,,*4F##2
$GPRMC,230439,A,3846.3019,N,10935.4485,W,0.0389,144.650,020510,,*37##1
$GPGSA,A,3,23,07,13,19,32,20,06,03,16,,,,0.0,1.2,0.0*3C##0
$PGRME,0.31,M,0.59,M,0.00,M*10##1017
$GPGGA,230440,3846.3019,N,10935.4486,W,1,09,1.20,1574.68,M,-16.600,M,,*4C##2
$GPRMC,230440,A,3846.3019,N,10935.4486,W,0.0389,142.870,020510,,*30##1
$GPGSA,A,3,23,07,13,19,32,20,06,03,16,,,,0.0,1.2,0.0*3C##0
$PGRME,0.31,M,0.59,M,0.00,M*10##967
$GPGGA,230441,3846.3020,N,10935.4486,W,1,09,1.20,1574.69,M,-16.600,M,,*46##2
$GPRMC,230441,A,3846.3020,N,10935.4486,W,0.0583,151.940,020510,,*37##1
$GPGSA,A,3,23,07,13,19,32,20,06,03,16,,,,0.0,1.2,0.0*3C##0
$PGRME,0.31,M,0.59,M,0.00,M*10##1007
$GPGGA,230442,3846.3020,N,10935.4486,W,1,09,1.20,1574.70,M,-16.600,M,,*4D##1
$GPRMC,230442,A,3846.3020,N,10935.4486,W,0.0583,144.410,020510,,*38##1
$GPGSA,A,3,23,07,13,19,32,20,06,03,16,,,,0.0,1.2,0.0*3C##0
$PGRME,0.31,M,0.59,M,0.00,M*10##1018
$GPGGA,230443,3846.3021,N,10935.4486,W,1,09,1.20,1574.70,M,-16.600,M,,*4D##2
$GPRMC,230443,A,3846.3021,N,10935.4486,W,0.0583,147.220,020510,,*3E##1
$GPGSA,A,3,23,07,13,19,32,20,06,03,16,,,,0.0,1.2,0.0*3C##0
$PGRME,0.31,M,0.59,M,0.00,M*10##977
$GPGGA,230444,3846.3021,N,10935.4486,W,1,09,1.20,1574.70,M,-16.600,M,,*4A##1
$GPRMC,230444,A,3846.3021,N,10935.4486,W,0.0778,138.940,020510,,*3A##1
$GPGSA,A,3,23,07,13,19,32,20,06,03,16,,,,0.0,1.2,0.0*3C##0
$PGRME,0.31,M,0.59,M,0.00,M*10##998
$GPGGA,230445,3846.3021,N,10935.4486,W,1,09,1.20,1574.69,M,-16.600,M,,*43##1
$GPRMC,230445,A,3846.3021,N,10935.4486,W,0.0778,142.180,020510,,*32##1
$GPGSA,A,3,23,07,13,19,32,20,06,03,16,,,,0.0,1.2,0.0*3C##0
$PGRME,0.31,M,0.59,M,0.00,M*10##438
$GPGSV,3,1,09,07,30,268,41,23,80,019,43,19,05,147,34,13,57,322,42*74##1
$GPGSV,3,2,09,32,20,172,38,20,35,196,42,06,22,109,38,16,45,052,43*72##0
$GPGSV,3,3,09,03,22,127,39*4D##589
$GPGGA,230446,3846.3022,N,10935.4487,W,1,09,1.20,1574.68,M,-16.600,M,,*43##2
$GPRMC,230446,A,3846.3022,N,10935.4487,W,0.0778,131.320,020510,,*3F##1
$GPGSA,A,3,23,07,13,19,32,20,06,03,16,,,,0.0,1.2,0.0*3C##0
$PGRME,0.31,M,0.59,M,0.00,M*10##957
$GPGGA,230447,3846.3022,N,10935.4487,W,1,09,1.20,1574.68,M,-16.600,M,,*42##1
$GPRMC,230447,A,3846.3022,N,10935.4487,W,0.0778,136.940,020510,,*35##0
$GPGSA,A,3,23,07,13,19,32,20,06,03,16,,,,0.0,1.2,0.0*3C##1
$PGRME,0.31,M,0.59,M,0.00,M*10##1008
$GPGGA,230448,3846.3023,N,10935.4487,W,1,09,1.20,1574.68,M,-16.600,M,,*4C##2
$GPRMC,230448,A,3846.3023,N,10935.4487,W,0.0778,138.690,020510,,*37##1
$GPGSA,A,3,23,07,13,19,32,20,06,03,16,,,,0.0,1.2,0.0*3C##0
$PGRME,0.31,M,0.59,M,0.00,M*10##1017
$GPGGA,230449,3846.3023,N,10935.4487,W,1,09,1.20,1574.67,M,-16.600,M,,*42##1
$GPRMC,230449,A,3846.3023,N,10935.4487,W,0.0778,136.000,020510,,*37##1
$GPGSA,A,3,23,07,13,19,32,20,06,03,16,,,,0.0,1.2,0.0*3C##0
$PGRME,0.31,M,0.59,M,0.00,M*10##978
$GPGGA,230450,3846.3023,N,10935.4487,W,1,09,1.20,1574.67,M,-16.600,M,,*4A##1
$GPRMC,230450,A,3846.3023,N,10935.4487,W,0.1555,133.250,020510,,*31##1
$GPGSA,A,3,23,07,13,19,32,20,06,03,16,,,,0.0,1.2,0.0*3C##0
$PGRME,0.31,M,0.59,M,0.00,M*10##888
$GPGGA,230451,3846.3023,N,10935.4486,W,1,09,1.20,1574.66,M,-16.600,M,,*4B##2
$GPRMC,230451,A,3846.3023,N,10935.4486,W,0.9914,132.300,020510,,*35##1
$GPGSA,A,3,23,07,13,19,32,20,06,03,16,,,,0.0,1.2,0.0*3C##0
$PGRME,0.32,M,0.59,M,0.00,M*13##1097
$GPGGA,230452,3846.3020,N,10935.4482,W,1,09,1.20,1574.64,M,-16.600,M,,*4D##2
$GPRMC,230452,A,3846.3020,N,10935.4482,W,1.9244,132.750,020510,,*3F##1
$GPGSA,A,3,23,07,13,19,32,20,06,03,16,,,,0.0,1.2,0.0*3C##0
$PGRME,0.32,M,0.59,M,0.00,M*13##997
$GPGGA,230453,3846.3016,N,10935.4477,W,1,09,1.20,1574.63,M,-16.600,M,,*44##2
$GPRMC,230453,A,3846.3016,N,10935.4477,W,2.5270,132.160,020510,,*3C##1
$GPGSA,A,3,23,07,13,19,32,20,06,03,16,,,,0.0,1.2,0.0*3C##0
$PGRME,0.32,M,0.59,M,0.00,M*13##1007
$GPGGA,230454,3846.3013,N,10935.4471,W,1,09,1.20,1574.62,M,-16.600,M,,*41##2
$GPRMC,230454,A,3846.3013,N,10935.4471,W,1.7495,133.090,020510,,*3B##1
$GPGSA,A,3,23,07,13,19,32,20,06,03,16,,,,0.0,1.2,0.0*3C##0
$PGRME,0.32,M,0.59,M,0.00,M*13##1017
$GPGGA,230455,3846.3011,N,10935.4468,W,1,09,1.20,1574.60,M,-16.600,M,,*48##2
$GPRMC,230455,A,3846.3011,N,10935.4468,W,0.6998,132.680,020510,,*36##1
$GPGSA,A,3,23,07,13,19,32,20,06,03,16,,,,0.0,1.2,0.0*3C##0
$PGRME,0.32,M,0.59,M,0.00,M*13##977
$GPGGA,230456,3846.3011,N,10935.4468,W,1,09,1.20,1574.60,M,-16.600,M,,*4B##1
$GPRMC,230456,A,3846.3011,N,10935.4468,W,0.0583,134.140,020510,,*38##1
$GPGSA,A,3,23,07,13,19,32,20,06,03,16,,,,0.0,1.2,0.0*3C##0
$PGRME,0.32,M,0.60,M,0.00,M*19##888
$GPGGA,230457,3846.3011,N,10935.4468,W,1,09,1.20,1574.59,M,-16.600,M,,*40##1
$GPRMC,230457,A,3846.3011,N,10935.4468,W,0.0583,134.860,020510,,*32##1
$GPGSA,A,3,23,07,13,19,32,20,06,03,16,,,,0.0,1.2,0.0*3C##0
$PGRME,0.32,M,0.60,M,0.00,M*19##1108
$GPGGA,230458,3846.3011,N,10935.4468,W,1,09,1.20,1574.59,M,-16.600,M,,*4F##1
$GPRMC,230458,A,3846.3011,N,10935.4468,W,0.0778,134.670,020510,,*34##1
$GPGSA,A,3,23,07,13,19,32,20,06,03,16,,,,0.0,1.2,0.0*3C##0
$PGRME,0.32,M,0.60,M,0.00,M*19##888
$GPGGA,230459,3846.3012,N,10935.4468,W,1,09,1.20,1574.58,M,-16.600,M,,*4C##2
$GPRMC,230459,A,3846.3012,N,10935.4468,W,0.0778,136.490,020510,,*38##1
$GPGSA,A,3,23,07,13,19,32,20,06,03,16,,,,0.0,1.2,0.0*3C##0
$PGRME,0.32,M,0.60,M,0.00,M*19##1107
$GPGGA,230500,3846.3012,N,10935.4468,W,1,09,1.20,1574.58,M,-16.600,M,,*41##1
$GPRMC,230500,A,3846.3012,N,10935.4468,W,0.0778,135.430,020510,,*3C##0
$GPGSA,A,3,23,07,13,19,32,20,06,03,16,,,,0.0,1.2,0.0*3C##1
$PGRME,0.32,M,0.60,M,0.00,M*19##448
$GPGSV,3,1,09,07,31,268,41,23,80,022,43,19,05,147,33,13,58,322,42*75##1
$GPGSV,3,2,09,32,20,172,38,20,35,196,42,06,22,109,38,16,44,052,43*73##0
$GPGSV,3,3,09,03,23,126,39*4D##579
$GPGGA,230501,3846.3012,N,10935.4468,W,1,09,1.20,1574.57,M,-16.600,M,,*4F##1
$GPRMC,230501,A,3846.3012,N,10935.4468,W,0.0778,134.060,020510,,*3D##1
$GPGSA,A,3,23,07,13,19,32,20,06,03,16,,,,0.0,1.2,0.0*3C##0
$PGRME,0.32,M,0.60,M,0.00,M*19##968
$GPGGA,230502,3846.3012,N,10935.4468,W,1,09,1.20,1574.57,M,-16.600,M,,*4C##1
$GPRMC,230502,A,3846.3012,N,10935.4468,W,0.0778,137.720,020510,,*3E##0
$GPGSA,A,3,23,07,13,19,32,20,06,03,16,,,,0.0,1.2,0.0*3C##1
$PGRME,0.32,M,0.60,M,0.00,M*19##888
$GPGGA,230503,3846.3013,N,10935.4468,W,1,09,1.20,1574.56,M,-16.600,M,,*4D##2
$GPRMC,230503,A,3846.3013,N,10935.4468,W,0.0778,135.400,020510,,*3D##1
$GPGSA,A,3,23,07,13,19,32,20,06,03,16,,,,0.0,1.2,0.0*3C##0
$PGRME,0.32,M,0.60,M,0.00,M*19##1107
$GPGGA,230504,3846.3013,N,10935.4468,W,1,09,1.20,1574.56,M,-16.600,M,,*4A##1
$GPRMC,230504,A,3846.3013,N,10935.4468,W,0.0778,134.360,020510,,*3A##0
$GPGSA,A,3,23,07,13,19,32,20,06,03,16,,,,0.0,1.2,0.0*3C##1
$PGRME,0.32,M,0.60,M,0.00,M*19##900
$GPGGA,230505,3846.3013,N,10935.4469,W,1,09,1.20,1574.55,M,-16.600,M,,*49##1
$GPRMC,230505,A,3846.3013,N,10935.4469,W,0.0583,134.700,020510,,*3E##1
$GPGSA,A,3,23,07,13,19,32,20,06,03,16,,,,0.0,1.2,0.0*3C##0
$PGRME,0.32,M,0.60,M,0.00,M*19##986
$GPGGA,230506,3846.3013,N,10935.4469,W,1,09,1.20,1574.55,M,-16.600,M,,*4A##1
$GPRMC,230506,A,3846.3013,N,10935.4469,W,0.0778,140.800,020510,,*37##1
$GPGSA,A,3,23,07,13,19,32,20,06,03,16,,,,0.0,1.2,0.0*3C##0
$PGRME,0.32,M,0.60,M,0.00,M*19##1108
$GPGGA,230507,3846.3014,N,10935.4469,W,1,09,1.20,1574.54,M,-16.600,M,,*4D##2
$GPRMC,230507,A,3846.3014,N,10935.4469,W,0.0778,132.580,020510,,*31##1
$GPGSA,A,3,23,07,13,19,32,20,06,03,16,,,,0.0,1.2,0.0*3C##0
$PGRME,0.32,M,0.60,M,0.00,M*19##899
$GPGGA,230508,3846.3014,N,10935.4469,W,1,09,1.20,1574.53,M,-16.600,M,,*45##1
$GPRMC,230508,A,3846.3014,N,10935.4469,W,0.0778,134.890,020510,,*34##0
$GPGSA,A,3,23,07,13,19,32,20,06,03,16,,,,0.0,1.2,0.0*3C##1
$PGRME,0.32,M,0.60,M,0.00,M*19##998
$GPGGA,230509,3846.3014,N,10935.4469,W,1,09,1.20,1574.52,M,-16.600,M,,*45##0
$GPRMC,230509,A,3846.3014,N,10935.4469,W,0.1749,133.410,020510,,*35##1
$GPGSA,A,3,23,07,13,19,32,20,06,03,16,,,,0.0,1.2,0.0*3C##0
$PGRME,0.32,M,0.60,M,0.00,M*19##1017
$GPGGA,230510,3846.3013,N,10935.4468,W,1,09,1.20,1574.53,M,-16.600,M,,*4A##2
$GPRMC,230510,A,3846.3013,N,10935.4468,W,0.8553,130.460,020510,,*3F##1
$GPGSA,A,3,23,07,13,19,32,20,06,03,16,,,,0.0,1.2,0.0*3C##0
$PGRME,0.32,M,0.60,M,0.00,M*19##979
$GPGGA,230511,3846.3011,N,10935.4464,W,1,09,1.20,1574.52,M,-16.600,M,,*44##1
$GPRMC,230511,A,3846.3011,N,10935.4464,W,1.9438,130.560,020510,,*3D##1
$GPGSA,A,3,23,07,13,19,32,20,06,03,16,,,,0.0,1.2,0.0*3C##1
$PGRME,0.32,M,0.60,M,0.00,M*19##985
$GPGGA,230512,3846.3006,N,10935.4456,W,1,09,1.20,1574.51,M,-16.600,M,,*43##2
$GPRMC,230512,A,3846.3006,N,10935.4456,W,4.0043,127.200,020510,,*3A##1
$GPGSA,A,3,23,07,13,19,32,20,06,03,16,,,,0.0,1.2,0.0*3C##0
$PGRME,0.32,M,0.60,M,0.00,M*19##1107
$GPGGA,230513,3846.2998,N,10935.4441,W,1,09,1.20,1574.49,M,-16.600,M,,*42##2
$GPRMC,230513,A,3846.2998,N,10935.4441,W,6.3369,124.970,020510,,*37##1
$GPGSA,A,3,23,07,13,19,32,20,06,03,16,,,,0.0,1.2,0.0*3C##0
$PGRME,0.32,M,0.60,M,0.00,M*19##907
$GPGGA,230514,3846.2987,N,10935.4420,W,1,09,1.20,1574.47,M,-16.600,M,,*42##2
$GPRMC,230514,A,3846.2987,N,10935.4420,W,7.9309,125.430,020510,,*3C##1
$GPGSA,A,3,23,07,13,19,32,20,06,03,16,,,,0.0,1.2,0.0*3C##0
$PGRME,0.32,M,0.60,M,0.00,M*19##977
$GPGGA,230515,3846.2972,N,10935.4395,W,1,09,1.20,1574.39,M,-16.600,M,,*49##2
$GPRMC,230515,A,3846.2972,N,10935.4395,W,9.5054,128.110,020510,,*3D##1
$GPGSA,A,3,23,07,13,19,32,20,06,03,16,,,,0.0,1.2,0.0*3C##0
$PGRME,0.32,M,0.60,M,0.00,M*19##445
$GPGSV,3,1,09,07,31,268,42,23,80,022,45,19,05,147,33,13,58,324,43*77##0
$GPGSV,3,2,09,32,19,172,39,20,35,196,44,06,22,109,39,16,44,052,44*78##0
$GPGSV,3,3,09,03,23,126,40*43##653
$GPGGA,230516,3846.2954,N,10935.4367,W,1,09,1.20,1574.31,M,-16.600,M,,*4B##1
$GPRMC,230516,A,3846.2954,N,10935.4367,W,10.8855,130.100,020510,,*03##1
$GPGSA,A,3,23,07,13,19,32,20,06,03,16,,,,0.0,1.2,0.0*3C##0
$PGRME,0.32,M,0.60,M,0.00,M*19##997
$GPGGA,230517,3846.2933,N,10935.4336,W,1,09,1.20,1574.18,M,-16.600,M,,*44##2
$GPRMC,230517,A,3846.2933,N,10935.4336,W,12.3434,132.340,020510,,*01##1
$GPGSA,A,3,23,07,13,19,32,20,06,03,16,,,,0.0,1.2,0.0*3C##0
$PGRME,0.32,M,0.60,M,0.00,M*19##997
$GPGGA,230518,3846.2908,N,10935.4302,W,1,09,1.20,1574.04,M,-16.600,M,,*49##2
$GPRMC,230518,A,3846.2908,N,10935.4302,W,14.0929,134.490,020510,,*09##1
$GPGSA,A,3,23,07,13,19,32,20,06,03,16,,,,0.0,1.2,0.0*3C##0
$PGRME,0.32,M,0.60,M,0.00,M*19##1027
$GPGGA,230519,3846.2879,N,10935.4264,W,1,09,1.20,1573.87,M,-16.600,M,,*42##2
$GPRMC,230519,A,3846.2879,N,10935.4264,W,15.2009,135.350,020510,,*0C##1
$GPGSA,A,3,23,07,13,19,32,20,06,03,16,,,,0.0,1.2,0.0*3C##0
$PGRME,0.32,M,0.60,M,0.00,M*19##867
$GPGGA,230520,3846.2848,N,10935.4225,W,1,09,1.20,1573.70,M,-16.600,M,,*47##2
$GPRMC,230520,A,3846.2848,N,10935.4225,W,15.9978,135.410,020510,,*06##1
$GPGSA,A,3,23,07,13,19,32,20,06,03,16,,,,0.0,1.2,0.0*3C##0
$PGRME,0.32,M,0.60,M,0.00,M*19##1097
$GPGGA,230521,3846.2816,N,10935.4184,W,1,09,1.20,1573.53,M,-16.600,M,,*44##2
$GPRMC,230521,A,3846.2816,N,10935.4184,W,17.0281,135.250,020510,,*00##1
$GPGSA,A,3,23,07,13,19,32,20,06,03,16,,,,0.0,1.2,0.0*3C##0
$PGRME,0.32,M,0.59,M,0.00,M*13##1027
$GPGGA,230522,3846.2781,N,10935.4140,W,1,09,1.20,1573.37,M,-16.600,M,,*4C##2
$GPRMC,230522,A,3846.2781,N,10935.4140,W,17.7279,135.660,020510,,*0D##1
$GPGSA,A,3,23,07,13,19,32,20,06,03,16,,,,0.0,1.2,0.0*3C##0
$PGRME,0.32,M,0.59,M,0.00,M*13##867
$GPGGA,230523,3846.2745,N,10935.4095,W,1,09,1.20,1573.23,M,-16.600,M,,*49##2
$GPRMC,230523,A,3846.2745,N,10935.4095,W,18.4471,136.380,020510,,*07##1
$GPGSA,A,3,23,07,13,19,32,20,06,03,16,,,,0.0,1.2,0.0*3C##0
$PGRME,0.32,M,0.59,M,0.00,M*13##1097
$GPGGA,230524,3846.2707,N,10935.4050,W,1,09,1.20,1573.11,M,-16.600,M,,*40##2
$GPRMC,230524,A,3846.2707,N,10935.4050,W,18.9914,137.160,020510,,*01##1
$GPGSA,A,3,23,07,13,19,32,20,06,03,16,,,,0.0,1.2,0.0*3C##0
$PGRME,0.31,M,0.59,M,0.00,M*10##1027
$GPGGA,230525,3846.2667,N,10935.4004,W,1,09,1.20,1573.02,M,-16.600,M,,*45##2
$GPRMC,230525,A,3846.2667,N,10935.4004,W,19.1663,137.800,020510,,*0F##1
$GPGSA,A,3,23,07,13,19,32,20,06,03,16,,,,0.0,1.2,0.0*3C##0
$PGRME,0.31,M,0.59,M,0.00,M*10##977
$GPGGA,230526,3846.2626,N,10935.3958,W,1,09,1.20,1572.95,M,-16.600,M,,*4B##2
$GPRMC,230526,A,3846.2626,N,10935.3958,W,19.7106,139.710,020510,,*0C##1
$GPGSA,A,3,23,07,13,19,32,20,06,03,16,,,,0.0,1.2,0.0*3C##0
$PGRME,0.31,M,0.59,M,0.00,M*10##987
$GPGGA,230527,3846.2582,N,10935.3913,W,1,09,1.20,1572.87,M,-16.600,M,,*4B##2
$GPRMC,230527,A,3846.2582,N,10935.3913,W,20.8769,143.010,020510,,*0F##1
$GPGSA,A,3,23,07,13,19,32,20,06,03,16,,,,0.0,1.2,0.0*3C##0
$PGRME,0.31,M,0.59,M,0.00,M*10##1027
$GPGGA,230528,3846.2534,N,10935.3868,W,1,09,1.20,1572.84,M,-16.600,M,,*47##2
$GPRMC,230528,A,3846.2534,N,10935.3868,W,21.7905,145.620,020510,,*09##1
$GPGSA,A,3,23,07,13,19,32,20,06,03,16,,,,0.0,1.2,0.0*3C##0
$PGRME,0.31,M,0.59,M,0.00,M*10##967
$GPGGA,230529,3846.2481,N,10935.3825,W,1,09,1.20,1572.84,M,-16.600,M,,*40##2
$GPRMC,230529,A,3846.2481,N,10935.3825,W,22.6847,148.100,020510,,*03##1
$GPGSA,A,3,23,07,13,19,32,20,06,03,16,,,,0.0,1.2,0.0*3C##0
$PGRME,0.31,M,0.59,M,0.00,M*10##997
$GPGGA,230530,3846.2426,N,10935.3783,W,1,09,1.20,1572.87,M,-16.600,M,,*45##2
$GPRMC,230530,A,3846.2426,N,10935.3783,W,23.4428,150.780,020510,,*04##1
$GPGSA,A,3,23,07,13,19,32,20,06,03,16,,,,0.0,1.2,0.0*3C##0
$PGRME,0.31,M,0.59,M,0.00,M*10##449
$GPGSV,3,1,09,07,31,268,44,23,80,022,45,19,05,147,34,13,58,324,43*76##0
$GPGSV,3,2,09,32,19,172,39,20,35,196,43,06,22,109,40,16,44,052,44*71##1
$GPGSV,3,3,09,03,23,126,40*43##577
$GPGGA,230531,3846.2367,N,10935.3744,W,1,09,1.20,1572.97,M,-16.600,M,,*4C##2
$GPRMC,230531,A,3846.2367,N,10935.3744,W,23.9482,153.690,020510,,*02##1
$GPGSA,A,3,23,07,13,19,32,20,06,03,16,,,,0.0,1.2,0.0*3C##0
$PGRME,0.31,M,0.59,M,0.00,M*10##987
$GPGGA,230532,3846.2306,N,10935.3708,W,1,09,1.20,1573.08,M,-16.600,M,,*47##2
$GPRMC,230532,A,3846.2306,N,10935.3708,W,24.1814,157.150,020510,,*0D##1
$GPGSA,A,3,23,07,13,19,32,20,06,03,16,,,,0.0,1.2,0.0*3C##0
$PGRME,0.31,M,0.59,M,0.00,M*10##877
$GPGGA,230533,3846.2242,N,10935.3678,W,1,09,1.20,1573.19,M,-16.600,M,,*41##2
$GPRMC,230533,A,3846.2242,N,10935.3678,W,24.4536,161.030,020510,,*01##1
$GPGSA,A,3,23,07,13,19,32,20,06,03,16,,,,0.0,1.2,0.0*3C##0
$PGRME,0.31,M,0.59,M,0.00,M*10##1107
$GPGGA,230534,3846.2176,N,10935.3652,W,1,09,1.20,1573.29,M,-16.600,M,,*49##2
$GPRMC,230534,A,3846.2176,N,10935.3652,W,25.0562,165.020,020510,,*0B##1
$GPGSA,A,3,23,07,13,19,32,20,06,03,16,,,,0.0,1.2,0.0*3C##0
$PGRME,0.31,M,0.59,M,0.00,M*10##887
$GPGGA,230535,3846.2107,N,10935.3631,W,1,09,1.20,1573.40,M,-16.600,M,,*44##2
$GPRMC,230535,A,3846.2107,N,10935.3631,W,25.6004,168.130,020510,,*07##1
$GPGSA,A,3,23,07,13,19,32,20,06,03,16,,,,0.0,1.2,0.0*3C##0
$PGRME,0.31,M,0.59,M,0.00,M*10##1097
$GPGGA,230536,3846.2036,N,10935.3614,W,1,09,1.20,1573.52,M,-16.600,M,,*40##2
$GPRMC,230536,A,3846.2036,N,10935.3614,W,26.2225,169.360,020510,,*00##1
$GPGSA,A,3,23,07,13,19,32,20,06,03,16,,,,0.0,1.2,0.0*3C##0
$PGRME,0.31,M,0.59,M,0.00,M*10##1027
$GPGGA,230537,3846.1963,N,10935.3597,W,1,09,1.20,1573.60,M,-16.600,M,,*42##2
$GPRMC,230537,A,3846.1963,N,10935.3597,W,26.5918,170.300,020510,,*0F##1
$GPGSA,A,3,23,07,13,19,32,20,06,03,16,,,,0.0,1.2,0.0*3C##0
$PGRME,0.31,M,0.59,M,0.00,M*10##977
$GPGGA,230538,3846.1890,N,10935.3582,W,1,09,1.20,1573.72,M,-16.600,M,,*47##2
$GPRMC,230538,A,3846.1890,N,10935.3582,W,26.7279,170.740,020510,,*07##1
$GPGSA,A,3,23,07,13,19,32,20,06,03,16,,,,0.0,1.2,0.0*3C##0
$PGRME,0.31,M,0.59,M,0.00,M*10##887
$GPGGA,230539,3846.1816,N,10935.3567,W,1,09,1.20,1573.88,M,-16.600,M,,*46##2
$GPRMC,230539,A,3846.1816,N,10935.3567,W,26.6501,171.140,020510,,*0D##1
$GPGSA,A,3,23,07,13,19,32,20,06,03,16,,,,0.0,1.2,0.0*3C##0
$PGRME,0.31,M,0.59,M,0.00,M*10##1097
$GPGGA,230540,3846.1743,N,10935.3553,W,1,09,1.20,1574.08,M,-16.600,M,,*4F##2
$GPRMC,230540,A,3846.1743,N,10935.3553,W,26.4363,171.010,020510,,*0F##1
$GPGSA,A,3,23,07,13,19,32,20,06,03,16,,,,0.0,1.2,0.0*3C##0
$PGRME,0.31,M,0.59,M,0.00,M*10##1007
$GPGGA,230541,3846.1670,N,10935.3537,W,1,09,1.20,1574.34,M,-16.600,M,,*42##2
$GPRMC,230541,A,3846.1670,N,10935.3537,W,26.4752,169.760,020510,,*02##1
$GPGSA,A,3,23,07,13,19,32,20,06,03,16,,,,0.0,1.2,0.0*3C##0
$PGRME,0.31,M,0.59,M,0.00,M*10##910
$GPGGA,230542,3846.1596,N,10935.3519,W,1,09,1.20,1574.57,M,-16.600,M,,*43##2
$GPRMC,230542,A,3846.1596,N,10935.3519,W,26.8639,167.660,020510,,*09##1
$GPGSA,A,3,23,07,13,19,32,20,06,03,16,,,,0.0,1.2,0.0*3C##0
$PGRME,0.31,M,0.59,M,0.00,M*10##1004
$GPGGA,230543,3846.1524,N,10935.3497,W,1,09,1.20,1574.79,M,-16.600,M,,*40##2
$GPRMC,230543,A,3846.1524,N,10935.3497,W,26.6501,165.400,020510,,*06##1
$GPGSA,A,3,23,07,13,19,32,20,06,03,16,,,,0.0,1.2,0.0*3C##0
$PGRME,0.31,M,0.59,M,0.00,M*10##980
$GPGGA,230544,3846.1452,N,10935.3471,W,1,09,1.20,1574.96,M,-16.600,M,,*4E##1
$GPRMC,230544,A,3846.1452,N,10935.3471,W,26.6112,162.330,020510,,*0C##1
$GPGSA,A,3,23,07,13,19,32,20,06,03,16,,,,0.0,1.2,0.0*3C##0
$PGRME,0.31,M,0.59,M,0.00,M*10##996
$GPGGA,230545,3846.1382,N,10935.3440,W,1,09,1.20,1575.12,M,-16.600,M,,*4A##2
$GPRMC,230545,A,3846.1382,N,10935.3440,W,26.7084,159.610,020510,,*05##1
$GPGSA,A,3,23,07,13,19,32,20,06,03,16,,,,0.0,1.2,0.0*3C##0
$PGRME,0.31,M,0.59,M,0.00,M*10##446
$GPGSV,3,1,09,07,31,268,45,23,80,022,44,19,05,147,34,13,58,324,43*76##1
$GPGSV,3,2,09,32,19,172,35,20,35,196,41,06,22,109,42,16,44,052,45*7C##0
$GPGSV,3,3,09,03,23,126,42*41##569
$GPGGA,230546,3846.1313,N,10935.3404,W,1,09,1.20,1575.29,M,-16.600,M,,*49##2
$GPRMC,230546,A,3846.1313,N,10935.3404,W,27.0194,156.460,020510,,*02##1
$GPGSA,A,3,23,07,13,19,32,20,06,03,16,,,,0.0,1.2,0.0*3C##0
$PGRME,0.31,M,0.59,M,0.00,M*10##1077
$GPGGA,230547,3846.1244,N,10935.3362,W,1,09,1.20,1575.44,M,-16.600,M,,*47##2
$GPRMC,230547,A,3846.1244,N,10935.3362,W,27.6415,152.910,020510,,*03##1
$GPGSA,A,3,23,07,13,19,32,20,06,03,16,,,,0.0,1.2,0.0*3C##0
$PGRME,0.31,M,0.59,M,0.00,M*10##899
$GPGGA,230548,3846.1176,N,10935.3315,W,1,09,1.20,1575.59,M,-16.600,M,,*46##2
$GPRMC,230548,A,3846.1176,N,10935.3315,W,27.9330,149.630,020510,,*06##1
$GPGSA,A,3,23,07,13,19,32,20,06,03,16,,,,0.0,1.2,0.0*3C##0
$PGRME,0.31,M,0.59,M,0.00,M*10##1015
$GPGGA,230549,3846.1110,N,10935.3263,W,1,09,1.20,1575.76,M,-16.600,M,,*4A##2
$GPRMC,230549,A,3846.1110,N,10935.3263,W,27.5637,147.750,020510,,*00##1
$GPGSA,A,3,23,07,13,19,32,20,06,03,16,,,,0.0,1.2,0.0*3C##0
$PGRME,0.31,M,0.58,M,0.00,M*11##1087
$GPGGA,230550,3846.1047,N,10935.3208,W,1,09,1.20,1575.89,M,-16.600,M,,*4C##2
$GPRMC,230550,A,3846.1047,N,10935.3208,W,27.0778,143.460,020510,,*0D##1
$GPGSA,A,3,23,07,13,19,32,20,06,03,16,,,,0.0,1.2,0.0*3C##0
$PGRME,0.31,M,0.58,M,0.00,M*11##877
$GPGGA,230551,3846.0989,N,10935.3148,W,1,09,1.20,1576.00,M,-16.600,M,,*42##2
$GPRMC,230551,A,3846.0989,N,10935.3148,W,26.5529,138.470,020510,,*0E##1
$GPGSA,A,3,23,07,13,19,32,20,06,03,16,,,,0.0,1.2,0.0*3C##0
$PGRME,0.31,M,0.58,M,0.00,M*11##1027
$GPGGA,230552,3846.0937,N,10935.3083,W,1,09,1.20,1576.06,M,-16.600,M,,*44##2
$GPRMC,230552,A,3846.0937,N,10935.3083,W,26.1058,133.370,020510,,*05##1
$GPGSA,A,3,23,07,13,19,32,20,06,03,16,,,,0.0,1.2,0.0*3C##0
$PGRME,0.31,M,0.58,M,0.00,M*11##1077
$GPGGA,230553,3846.0889,N,10935.3013,W,1,09,1.20,1576.08,M,-16.600,M,,*46##2
$GPRMC,230553,A,3846.0889,N,10935.3013,W,25.7171,129.630,020510,,*0C##1
$GPGSA,A,3,23,07,13,19,32,20,06,03,16,,,,0.0,1.2,0.0*3C##0
$PGRME,0.31,M,0.58,M,0.00,M*11##887
$GPGGA,230554,3846.0846,N,10935.2941,W,1,09,1.20,1576.09,M,-16.600,M,,*4C##2
$GPRMC,230554,A,3846.0846,N,10935.2941,W,25.5032,126.640,020510,,*0B##1
$GPGSA,A,3,23,07,13,19,32,20,06,03,16,,,,0.0,1.2,0.0*3C##0
$PGRME,0.31,M,0.58,M,0.00,M*11##1108
$GPGGA,230555,3846.0805,N,10935.2866,W,1,09,1.20,1576.01,M,-16.600,M,,*46##1
$GPRMC,230555,A,3846.0805,N,10935.2866,W,25.8920,122.920,020510,,*03##1
$GPGSA,A,3,23,07,13,19,32,20,06,03,16,,,,0.0,1.2,0.0*3C##0
$PGRME,0.31,M,0.58,M,0.00,M*11##907
$GPGGA,230556,3846.0768,N,10935.2787,W,1,09,1.20,1575.93,M,-16.600,M,,*49##2
$GPRMC,230556,A,3846.0768,N,10935.2787,W,25.9892,119.960,020510,,*01##1
$GPGSA,A,3,23,07,13,19,32,20,06,03,16,,,,0.0,1.2,0.0*3C##0
$PGRME,0.31,M,0.58,M,0.00,M*11##977
$GPGGA,230557,3846.0733,N,10935.2705,W,1,09,1.20,1575.86,M,-16.600,M,,*48##2
$GPRMC,230557,A,3846.0733,N,10935.2705,W,26.1447,117.480,020510,,*06##1
$GPGSA,A,3,23,07,13,19,32,20,06,03,16,,,,0.0,1.2,0.0*3C##0
$PGRME,0.31,M,0.58,M,0.00,M*11##1107
$GPGGA,230558,3846.0701,N,10935.2620,W,1,09,1.20,1575.76,M,-16.600,M,,*4F##2
$GPRMC,230558,A,3846.0701,N,10935.2620,W,26.7084,114.880,020510,,*0C##1
$GPGSA,A,3,23,07,13,19,32,20,06,03,16,,,,0.0,1.2,0.0*3C##0
$PGRME,0.31,M,0.58,M,0.00,M*11##899
$GPGGA,230559,3846.0673,N,10935.2532,W,1,09,1.20,1575.64,M,-16.600,M,,*49##2
$GPRMC,230559,A,3846.0673,N,10935.2532,W,26.9611,111.050,020510,,*0D##0
$GPGSA,A,3,23,07,13,19,32,20,06,03,16,,,,0.0,1.2,0.0*3C##1
$PGRME,0.31,M,0.58,M,0.00,M*11##985
$GPGGA,230600,3846.0649,N,10935.2441,W,1,09,1.20,1575.48,M,-16.600,M,,*44##2
$GPRMC,230600,A,3846.0649,N,10935.2441,W,27.0972,106.620,020510,,*0B##1
$GPGSA,A,3,23,07,13,19,32,20,06,03,16,,,,0.0,1.2,0.0*3C##3
$PGRME,0.31,M,0.58,M,0.00,M*11##444
$GPGSV,3,1,09,07,31,268,42,23,80,022,44,19,05,147,33,13,58,324,43*76##1
$GPGSV,3,2,09,32,19,172,39,20,35,196,43,06,22,109,40,16,44,052,44*71##0
$GPGSV,3,3,09,03,23,126,39*4D##659
$GPGGA,230601,3846.0630,N,10935.2347,W,1,09,1.20,1575.29,M,-16.600,M,,*4D##2
$GPRMC,230601,A,3846.0630,N,10935.2347,W,27.2721,103.320,020510,,*0F##1
$GPGSA,A,3,23,07,13,19,32,20,06,03,16,,,,0.0,1.2,0.0*3C##0
$PGRME,0.31,M,0.59,M,0.00,M*10##908
$GPGGA,230602,3846.0614,N,10935.2252,W,1,09,1.20,1575.07,M,-16.600,M,,*41##1
$GPRMC,230602,A,3846.0614,N,10935.2252,W,27.4276,101.810,020510,,*04##1
$GPGSA,A,3,23,07,13,19,32,20,06,03,16,,,,0.0,1.2,0.0*3C##1
$PGRME,0.31,M,0.59,M,0.00,M*10##976
$GPGGA,230603,3846.0600,N,10935.2155,W,1,09,1.20,1574.84,M,-16.600,M,,*4B##2
$GPRMC,230603,A,3846.0600,N,10935.2155,W,27.6803,100.590,020510,,*0A##1
$GPGSA,A,3,23,07,13,19,32,20,06,03,16,,,,0.0,1.2,0.0*3C##0
$PGRME,0.31,M,0.59,M,0.00,M*10##1097
$GPGGA,230604,3846.0586,N,10935.2056,W,1,09,1.20,1574.62,M,-16.600,M,,*4B##2
$GPRMC,230604,A,3846.0586,N,10935.2056,W,28.3607,100.060,020510,,*08##1
$GPGSA,A,3,23,07,13,19,32,20,06,03,16,,,,0.0,1.2,0.0*3C##0
$PGRME,0.31,M,0.59,M,0.00,M*10##909
$GPGGA,230605,3846.0573,N,10935.1956,W,1,09,1.20,1574.40,M,-16.600,M,,*4A##1
$GPRMC,230605,A,3846.0573,N,10935.1956,W,28.7300,99.820,020510,,*32##1
$GPGSA,A,3,23,07,13,19,32,20,06,03,16,,,,0.0,1.2,0.0*3C##1
$PGRME,0.31,M,0.59,M,0.00,M*10##985
$GPGGA,230606,3846.0560,N,10935.1855,W,1,09,1.20,1574.23,M,-16.600,M,,*4C##2
$GPRMC,230606,A,3846.0560,N,10935.1855,W,28.7495,99.590,020510,,*3C##1
$GPGSA,A,3,23,07,13,19,32,20,06,03,16,,,,0.0,1.2,0.0*3C##0
$PGRME,0.31,M,0.59,M,0.00,M*10##1099
$GPGGA,230607,3846.0547,N,10935.1753,W,1,09,1.20,1574.11,M,-16.600,M,,*40##2
$GPRMC,230607,A,3846.0547,N,10935.1753,W,28.8078,100.030,020510,,*07##1
$GPGSA,A,3,23,07,13,19,32,20,06,03,16,,,,0.0,1.2,0.0*3C##0
$PGRME,0.31,M,0.59,M,0.00,M*10##907
$GPGGA,230608,3846.0533,N,10935.1652,W,1,09,1.20,1574.03,M,-16.600,M,,*4F##2
$GPRMC,230608,A,3846.0533,N,10935.1652,W,28.6911,99.920,020510,,*3A##1
$GPGSA,A,3,23,07,13,19,32,20,06,03,16,,,,0.0,1.2,0.0*3C##0
$PGRME,0.31,M,0.59,M,0.00,M*10##985
$GPGGA,230609,3846.0520,N,10935.1552,W,1,09,1.20,1573.97,M,-16.600,M,,*45##2
$GPRMC,230609,A,3846.0520,N,10935.1552,W,28.3218,99.530,020510,,*30##1
$GPGSA,A,3,23,07,13,19,32,20,06,03,16,,,,0.0,1.2,0.0*3C##0
$PGRME,0.31,M,0.59,M,0.00,M*10##1107
$GPGGA,230610,3846.0508,N,10935.1453,W,1,09,1.20,1573.96,M,-16.600,M,,*46##2
$GPRMC,230610,A,3846.0508,N,10935.1453,W,27.8553,99.490,020510,,*35##1
$GPGSA,A,3,23,07,13,19,32,20,06,03,16,,,,0.0,1.2,0.0*3C##0
$PGRME,0.31,M,0.59,M,0.00,M*10##899
$GPGGA,230611,3846.0496,N,10935.1356,W,1,09,1.20,1573.97,M,-16.600,M,,*42##1
$GPRMC,230611,A,3846.0496,N,10935.1356,W,27.3110,99.410,020510,,*30##1
$GPGSA,A,3,23,07,13,19,32,20,06,03,16,,,,0.0,1.2,0.0*3C##0
$PGRME,0.31,M,0.59,M,0.00,M*10##986
$GPGGA,230612,3846.0483,N,10935.1261,W,1,09,1.20,1573.99,M,-16.600,M,,*4E##2
$GPRMC,230612,A,3846.0483,N,10935.1261,W,26.8056,100.020,020510,,*0D##1
$GPGSA,A,3,23,07,13,19,32,20,06,03,16,,,,0.0,1.2,0.0*3C##0
$PGRME,0.32,M,0.59,M,0.00,M*13##1107
$GPGGA,230613,3846.0470,N,10935.1167,W,1,09,1.20,1574.08,M,-16.600,M,,*49##2
$GPRMC,230613,A,3846.0470,N,10935.1167,W,26.5529,100.780,020510,,*08##1
$GPGSA,A,3,23,07,13,19,32,20,06,03,16,,,,0.0,1.2,0.0*3C##0
$PGRME,0.32,M,0.60,M,0.00,M*19##899
$GPGGA,230614,3846.0455,N,10935.1075,W,1,09,1.20,1574.20,M,-16.600,M,,*41##1
$GPRMC,230614,A,3846.0455,N,10935.1075,W,26.2613,102.840,020510,,*06##1
$GPGSA,A,3,23,07,13,19,32,20,06,03,16,,,,0.0,1.2,0.0*3C##1
$PGRME,0.32,M,0.60,M,0.00,M*19##985
$GPGGA,230615,3846.0437,N,10935.0985,W,1,09,1.20,1574.35,M,-16.600,M,,*47##2
$GPRMC,230615,A,3846.0437,N,10935.0985,W,26.0864,106.090,020510,,*09##1
$GPGSA,A,3,23,07,13,19,32,20,06,03,16,,,,0.0,1.2,0.0*3C##0
$PGRME,0.32,M,0.60,M,0.00,M*19##452
$GPGSV,3,1,09,07,31,268,39,23,80,022,44,19,05,147,37,13,58,324,44*79##0
$GPGSV,3,2,09,32,19,172,41,20,35,196,42,06,22,109,37,16,44,052,43*78##0
$GPGSV,3,3,09,03,23,126,39*4D##655
$GPGGA,230616,3846.0416,N,10935.0896,W,1,09,1.20,1574.55,M,-16.600,M,,*42##2
$GPRMC,230616,A,3846.0416,N,10935.0896,W,25.9698,109.470,020510,,*08##1
$GPGSA,A,3,23,07,13,19,32,20,06,03,16,,,,0.0,1.2,0.0*3C##0
$PGRME,0.32,M,0.60,M,0.00,M*19##908
$GPGGA,230617,3846.0389,N,10935.0810,W,1,09,1.20,1574.80,M,-16.600,M,,*44##2
$GPRMC,230617,A,3846.0389,N,10935.0810,W,25.8920,113.130,020510,,*01##1
$GPGSA,A,3,23,07,13,19,32,20,06,03,16,,,,0.0,1.2,0.0*3C##0
$PGRME,0.32,M,0.60,M,0.00,M*19##976
$GPGGA,230618,3846.0358,N,10935.0727,W,1,09,1.20,1575.07,M,-16.600,M,,*42##2
$GPRMC,230618,A,3846.0358,N,10935.0727,W,26.1836,118.130,020510,,*0E##1
$GPGSA,A,3,23,07,13,19,32,20,06,03,16,,,,0.0,1.2,0.0*3C##0
$PGRME,0.32,M,0.60,M,0.00,M*19##1027
$GPGGA,230619,3846.0321,N,10935.0646,W,1,09,1.20,1575.36,M,-16.600,M,,*49##2
$GPRMC,230619,A,3846.0321,N,10935.0646,W,26.8056,122.660,020510,,*0B##1
$GPGSA,A,3,23,07,13,19,32,20,06,03,16,,,,0.0,1.2,0.0*3C##0
$PGRME,0.32,M,0.60,M,0.00,M*19##978
$GPGGA,230620,3846.0278,N,10935.0567,W,1,09,1.20,1575.65,M,-16.600,M,,*48##2
$GPRMC,230620,A,3846.0278,N,10935.0567,W,27.1749,126.660,020510,,*09##1
$GPGSA,A,3,23,07,13,19,32,20,06,03,16,,,,0.0,1.2,0.0*3C##0
$PGRME,0.32,M,0.60,M,0.00,M*19##997
$GPGGA,230621,3846.0231,N,10935.0492,W,1,09,1.20,1575.93,M,-16.600,M,,*46##2
$GPRMC,230621,A,3846.0231,N,10935.0492,W,26.9611,131.200,020510,,*0F##1
$GPGSA,A,3,23,07,13,19,32,20,06,03,16,,,,0.0,1.2,0.0*3C##0
$PGRME,0.32,M,0.61,M,0.00,M*18##1026
$GPGGA,230622,3846.0180,N,10935.0424,W,1,09,1.20,1576.18,M,-16.600,M,,*41##2
$GPRMC,230622,A,3846.0180,N,10935.0424,W,26.3780,135.880,020510,,*0D##1
$GPGSA,A,3,23,07,13,19,32,20,06,03,16,,,,0.0,1.2,0.0*3C##0
$PGRME,0.32,M,0.61,M,0.00,M*18##968
$GPGGA,230623,3846.0126,N,10935.0362,W,1,09,1.20,1576.42,M,-16.600,M,,*46##2
$GPRMC,230623,A,3846.0126,N,10935.0362,W,25.6393,140.660,020510,,*07##1
$GPGSA,A,3,23,07,13,19,32,20,06,03,16,,,,0.0,1.2,0.0*3C##0
$PGRME,0.32,M,0.61,M,0.00,M*18##997
$GPGGA,230624,3846.0069,N,10935.0308,W,1,09,1.20,1576.65,M,-16.600,M,,*42##2
$GPRMC,230624,A,3846.0069,N,10935.0308,W,25.1145,145.300,020510,,*0E##1
$GPGSA,A,3,23,07,13,19,32,20,06,03,16,,,,0.0,1.2,0.0*3C##0
$PGRME,0.32,M,0.61,M,0.00,M*18##1026
$GPGGA,230625,3846.0011,N,10935.0261,W,1,09,1.20,1576.86,M,-16.600,M,,*4F##2
$GPRMC,230625,A,3846.0011,N,10935.0261,W,24.7451,149.330,020510,,*06##1
$GPGSA,A,3,23,07,13,19,32,20,06,03,16,,,,0.0,1.2,0.0*3C##0
$PGRME,0.32,M,0.61,M,0.00,M*18##968
$GPGGA,230626,3845.9951,N,10935.0219,W,1,09,1.20,1576.99,M,-16.600,M,,*4A##2
$GPRMC,230626,A,3845.9951,N,10935.0219,W,24.6479,153.140,020510,,*08##1
$GPGSA,A,3,23,07,13,19,32,20,06,03,16,,,,0.0,1.2,0.0*3C##0
$PGRME,0.32,M,0.61,M,0.00,M*18##986
$GPGGA,230627,3845.9888,N,10935.0184,W,1,09,1.20,1577.12,M,-16.600,M,,*4B##2
$GPRMC,230627,A,3845.9888,N,10935.0184,W,24.5313,157.530,020510,,*04##1
$GPGSA,A,3,23,07,13,19,32,20,06,03,16,,,,0.0,1.2,0.0*3C##0
$PGRME,0.32,M,0.61,M,0.00,M*18##1027
$GPGGA,230628,3845.9825,N,10935.0154,W,1,09,1.20,1577.27,M,-16.600,M,,*48##2
$GPRMC,230628,A,3845.9825,N,10935.0154,W,24.1620,161.360,020510,,*06##1
$GPGSA,A,3,23,07,13,19,32,20,06,03,16,,,,0.0,1.2,0.0*3C##0
$PGRME,0.32,M,0.61,M,0.00,M*18##967
$GPGGA,230629,3845.9760,N,10935.0131,W,1,09,1.20,1577.42,M,-16.600,M,,*47##2
$GPRMC,230629,A,3845.9760,N,10935.0131,W,24.1620,166.410,020510,,*0D##1
$GPGSA,A,3,23,07,13,19,32,20,06,03,16,,,,0.0,1.2,0.0*3C##0
$PGRME,0.32,M,0.61,M,0.00,M*18##997
$GPGGA,230630,3845.9695,N,10935.0115,W,1,09,1.20,1577.55,M,-16.600,M,,*44##2
$GPRMC,230630,A,3845.9695,N,10935.0115,W,23.8510,171.010,020510,,*04##1
$GPGSA,A,3,23,07,13,19,32,20,06,03,16,,,,0.0,1.2,0.0*3C##0
$PGRME,0.32,M,0.61,M,0.00,M*18##447
$GPGSV,3,1,09,07,31,268,43,23,80,022,43,19,05,147,17,13,58,324,42*77##1
$GPGSV,3,2,09,32,19,172,33,20,35,196,41,06,22,109,40,16,44,052,43*7E##0
$GPGSV,3,3,09,03,23,126,39*4D##659
$GPGGA,230631,3845.9631,N,10935.0105,W,1,09,1.20,1577.66,M,-16.600,M,,*4A##2
$GPRMC,230631,A,3845.9631,N,10935.0105,W,22.1793,173.450,020510,,*09##1
$GPGSA,A,3,23,07,13,19,32,20,06,03,16,,,,0.0,1.2,0.0*3C##0
$PGRME,0.32,M,0.61,M,0.00,M*18##957
$GPGGA,230632,3845.9572,N,10935.0098,W,1,09,1.20,1577.77,M,-16.600,M,,*48##2
$GPRMC,230632,A,3845.9572,N,10935.0098,W,20.6048,175.270,020510,,*0D##1
$GPGSA,A,3,23,07,13,19,32,20,06,03,16,,,,0.0,1.2,0.0*3C##0
$PGRME,0.32,M,0.61,M,0.00,M*18##927
$GPGGA,230633,3845.9516,N,10935.0094,W,1,09,1.20,1577.87,M,-16.600,M,,*48##2
$GPRMC,230633,A,3845.9516,N,10935.0094,W,19.6717,176.690,020510,,*0C##1
$GPGSA,A,3,23,07,13,19,32,20,06,03,16,,,,0.0,1.2,0.0*3C##0
$PGRME,0.32,M,0.61,M,0.00,M*18##1097
$GPGGA,230634,3845.9462,N,10935.0092,W,1,09,1.20,1577.96,M,-16.600,M,,*4B##2
$GPRMC,230634,A,3845.9462,N,10935.0092,W,19.1663,178.550,020510,,*0B##1
$GPGSA,A,3,23,07,13,19,32,20,06,03,16,,,,0.0,1.2,0.0*3C##0
$PGRME,0.32,M,0.60,M,0.00,M*19##997
$GPGGA,230635,3845.9410,N,10935.0093,W,1,09,1.20,1578.02,M,-16.600,M,,*4C##2
$GPRMC,230635,A,3845.9410,N,10935.0093,W,18.7387,182.520,020510,,*04##1
$GPGSA,A,3,23,07,13,19,32,20,06,03,16,,,,0.0,1.2,0.0*3C##0
$PGRME,0.32,M,0.60,M,0.00,M*19##997
$GPGGA,230636,3845.9358,N,10935.0100,W,1,09,1.20,1578.06,M,-16.600,M,,*4B##2
$GPRMC,230636,A,3845.9358,N,10935.0100,W,18.4665,186.700,020510,,*09##1
$GPGSA,A,3,23,07,13,19,32,20,06,03,16,,,,0.0,1.2,0.0*3C##0
$PGRME,0.32,M,0.60,M,0.00,M*19##1027
$GPGGA,230637,3845.9308,N,10935.0110,W,1,09,1.20,1578.10,M,-16.600,M,,*49##2
$GPRMC,230637,A,3845.9308,N,10935.0110,W,18.3693,190.140,020510,,*07##1
$GPGSA,A,3,23,07,13,19,32,20,06,03,16,,,,0.0,1.2,0.0*3C##0
$PGRME,0.32,M,0.60,M,0.00,M*19##867
$GPGGA,230638,3845.9257,N,10935.0124,W,1,09,1.20,1578.12,M,-16.600,M,,*48##2
$GPRMC,230638,A,3845.9257,N,10935.0124,W,18.6803,192.340,020510,,*06##1
$GPGSA,A,3,23,07,13,19,32,20,06,03,16,,,,0.0,1.2,0.0*3C##0
$PGRME,0.32,M,0.60,M,0.00,M*19##1097
$GPGGA,230639,3845.9206,N,10935.0139,W,1,09,1.20,1578.16,M,-16.600,M,,*45##2
$GPRMC,230639,A,3845.9206,N,10935.0139,W,19.0108,191.420,020510,,*08##1
$GPGSA,A,3,23,07,13,19,32,20,06,03,16,,,,0.0,1.2,0.0*3C##0
$PGRME,0.32,M,0.60,M,0.00,M*19##1027
$GPGGA,230640,3845.9153,N,10935.0152,W,1,09,1.20,1578.21,M,-16.600,M,,*41##2
$GPRMC,230640,A,3845.9153,N,10935.0152,W,19.5162,189.420,020510,,*08##1
$GPGSA,A,3,23,07,13,19,32,20,06,03,16,,,,0.0,1.2,0.0*3C##0
$PGRME,0.32,M,0.60,M,0.00,M*19##867
$GPGGA,230641,3845.9099,N,10935.0164,W,1,09,1.20,1578.29,M,-16.600,M,,*4A##2
$GPRMC,230641,A,3845.9099,N,10935.0164,W,20.1577,188.550,020510,,*02##1
$GPGSA,A,3,23,07,13,19,32,20,06,03,16,,,,0.0,1.2,0.0*3C##0
$PGRME,0.32,M,0.60,M,0.00,M*19##1097
$GPGGA,230642,3845.9043,N,10935.0175,W,1,09,1.20,1578.37,M,-16.600,M,,*41##2
$GPRMC,230642,A,3845.9043,N,10935.0175,W,20.4298,187.190,020510,,*02##1
$GPGSA,A,3,23,07,13,19,32,20,06,03,16,,,,0.0,1.2,0.0*3C##0
$PGRME,0.32,M,0.60,M,0.00,M*19##1027
$GPGGA,230643,3845.8985,N,10935.0184,W,1,09,1.20,1578.50,M,-16.600,M,,*4D##2
$GPRMC,230643,A,3845.8985,N,10935.0184,W,20.9158,186.590,020510,,*08##1
$GPGSA,A,3,23,07,13,19,32,20,06,03,16,,,,0.0,1.2,0.0*3C##0
$PGRME,0.32,M,0.60,M,0.00,M*19##879
$GPGGA,230644,3845.8926,N,10935.0194,W,1,09,1.20,1578.61,M,-16.600,M,,*40##1
$GPRMC,230644,A,3845.8926,N,10935.0194,W,21.7516,186.970,020510,,*04##1
$GPGSA,A,3,23,07,13,19,32,20,06,03,16,,,,0.0,1.2,0.0*3C##0
$PGRME,0.32,M,0.60,M,0.00,M*19##1086
$GPGGA,230645,3845.8865,N,10935.0205,W,1,09,1.20,1578.78,M,-16.600,M,,*44##2
$GPRMC,230645,A,3845.8865,N,10935.0205,W,22.3931,187.630,020510,,*0C##1
$GPGSA,A,3,23,07,13,19,32,20,06,03,16,,,,0.0,1.2,0.0*3C##0
$PGRME,0.32,M,0.60,M,0.00,M*19##447
$GPGSV,3,1,09,07,31,268,44,23,80,022,44,19,05,147,30,13,58,324,42*72##1
$GPGSV,3,2,09,32,19,172,35,20,35,196,39,06,22,109,42,16,44,052,43*75##0
$GPGSV,3,3,09,03,23,126,41*42##579
$GPGGA,230646,3845.8803,N,10935.0215,W,1,09,1.20,1578.96,M,-16.600,M,,*46##2
$GPRMC,230646,A,3845.8803,N,10935.0215,W,22.5097,186.640,020510,,*0B##1
$GPGSA,A,3,23,07,13,19,32,20,06,03,16,,,,0.0,1.2,0.0*3C##0
$PGRME,0.32,M,0.60,M,0.00,M*19##967
$GPGGA,230647,3845.8741,N,10935.0225,W,1,09,1.20,1579.16,M,-16.600,M,,*44##2
$GPRMC,230647,A,3845.8741,N,10935.0225,W,22.0238,185.990,020510,,*03##1
$GPGSA,A,3,23,07,13,19,32,20,06,03,16,,,,0.0,1.2,0.0*3C##0
$PGRME,0.32,M,0.60,M,0.00,M*19##997
$GPGGA,230648,3845.8681,N,10935.0233,W,1,09,1.20,1579.40,M,-16.600,M,,*42##2
$GPRMC,230648,A,3845.8681,N,10935.0233,W,21.0324,185.980,020510,,*08##1
$GPGSA,A,3,23,07,13,19,32,20,06,03,16,,,,0.0,1.2,0.0*3C##0
$PGRME,0.33,M,0.60,M,0.00,M*18##1027
$GPGGA,230649,3845.8626,N,10935.0242,W,1,09,1.20,1579.64,M,-16.600,M,,*4E##2
$GPRMC,230649,A,3845.8626,N,10935.0242,W,18.9914,187.620,020510,,*0F##1
$GPGSA,A,3,23,07,13,19,32,20,06,03,16,,,,0.0,1.2,0.0*3C##0
$PGRME,0.33,M,0.60,M,0.00,M*18##927
$GPGGA,230650,3845.8578,N,10935.0254,W,1,09,1.20,1579.86,M,-16.600,M,,*45##2
$GPRMC,230650,A,3845.8578,N,10935.0254,W,16.3866,192.900,020510,,*01##1
$GPGSA,A,3,23,07,13,19,32,20,06,03,16,,,,0.0,1.2,0.0*3C##0
$PGRME,0.33,M,0.60,M,0.00,M*18##1037
$GPGGA,230651,3845.8538,N,10935.0269,W,1,09,1.20,1580.09,M,-16.600,M,,*4F##2
$GPRMC,230651,A,3845.8538,N,10935.0269,W,13.9374,198.200,020510,,*0C##1
$GPGSA,A,3,23,07,13,19,32,20,06,03,16,,,,0.0,1.2,0.0*3C##0
$PGRME,0.33,M,0.60,M,0.00,M*18##1027
$GPGGA,230652,3845.8504,N,10935.0285,W,1,09,1.20,1580.28,M,-16.600,M,,*42##2
$GPRMC,230652,A,3845.8504,N,10935.0285,W,12.1490,200.030,020510,,*05##1
$GPGSA,A,3,23,07,13,19,32,20,06,03,16,,,,0.0,1.2,0.0*3C##0
$PGRME,0.33,M,0.60,M,0.00,M*18##967
$GPGGA,230653,3845.8474,N,10935.0299,W,1,09,1.20,1580.42,M,-16.600,M,,*44##2
$GPRMC,230653,A,3845.8474,N,10935.0299,W,10.7883,197.470,020510,,*08##1
$GPGSA,A,3,23,07,13,19,32,20,06,03,16,,,,0.0,1.2,0.0*3C##0
$PGRME,0.33,M,0.60,M,0.00,M*18##997
$GPGGA,230654,3845.8447,N,10935.0308,W,1,09,1.20,1580.56,M,-16.600,M,,*4F##2
$GPRMC,230654,A,3845.8447,N,10935.0308,W,9.3305,189.370,020510,,*37##1
$GPGSA,A,3,23,07,13,19,32,20,06,03,16,,,,0.0,1.2,0.0*3C##0
$PGRME,0.33,M,0.60,M,0.00,M*18##1027
$GPGGA,230655,3845.8424,N,10935.0312,W,1,09,1.20,1580.66,M,-16.600,M,,*43##2
$GPRMC,230655,A,3845.8424,N,10935.0312,W,7.5616,184.270,020510,,*3B##1
$GPGSA,A,3,23,07,13,19,32,20,06,03,16,,,,0.0,1.2,0.0*3C##0
$PGRME,0.33,M,0.60,M,0.00,M*18##967
$GPGGA,230656,3845.8408,N,10935.0313,W,1,09,1.20,1580.75,M,-16.600,M,,*4D##2
$GPRMC,230656,A,3845.8408,N,10935.0313,W,4.7624,181.640,020510,,*35##1
$GPGSA,A,3,23,07,13,19,32,20,06,03,16,,,,0.0,1.2,0.0*3C##0
$PGRME,0.33,M,0.60,M,0.00,M*18##897
$GPGGA,230657,3845.8400,N,10935.0314,W,1,09,1.20,1580.79,M,-16.600,M,,*4F##2
$GPRMC,230657,A,3845.8400,N,10935.0314,W,1.8078,180.020,020510,,*3F##1
$GPGSA,A,3,23,07,13,19,32,20,06,03,16,,,,0.0,1.2,0.0*3C##0
$PGRME,0.33,M,0.60,M,0.00,M*18##1027
$GPGGA,230658,3845.8398,N,10935.0314,W,1,09,1.20,1580.80,M,-16.600,M,,*40##2
$GPRMC,230658,A,3845.8398,N,10935.0314,W,0.1749,167.180,020510,,*39##1
$GPGSA,A,3,23,07,13,19,32,20,06,03,16,,,,0.0,1.2,0.0*3C##0
$PGRME,0.33,M,0.60,M,0.00,M*18##1077
$GPGGA,230659,3845.8398,N,10935.0315,W,1,09,1.20,1580.80,M,-16.600,M,,*40##2
$GPRMC,230659,A,3845.8398,N,10935.0315,W,0.0389,108.310,020510,,*32##1
$GPGSA,A,3,23,07,13,19,32,20,06,03,16,,,,0.0,1.2,0.0*3C##0
$PGRME,0.33,M,0.60,M,0.00,M*18##887
$GPGGA,230700,3845.8399,N,10935.0315,W,1,09,1.20,1580.78,M,-16.600,M,,*4B##2
$GPRMC,230700,A,3845.8399,N,10935.0315,W,0.0389,88.290,020510,,*0E##1
$GPGSA,A,3,23,07,13,19,32,20,06,03,16,,,,0.0,1.2,0.0*3C##0
$PGRME,0.34,M,0.60,M,0.00,M*1F##447
$GPGSV,3,1,09,07,31,268,43,23,80,022,43,19,05,147,32,13,58,324,41*73##1
$GPGSV,3,2,09,32,19,172,35,20,35,196,38,06,22,109,42,16,44,052,43*74##0
$GPGSV,3,3,09,03,23,126,42*41##579
$GPGGA,230701,3845.8400,N,10935.0315,W,1,09,1.20,1580.76,M,-16.600,M,,*43##2
$GPRMC,230701,A,3845.8400,N,10935.0315,W,0.0389,83.310,020510,,*0A##1
$GPGSA,A,3,23,07,13,19,32,20,06,03,16,,,,0.0,1.2,0.0*3C##0
$PGRME,0.34,M,0.60,M,0.00,M*1F##967
$GPGGA,230702,3845.8400,N,10935.0315,W,1,09,1.20,1580.74,M,-16.600,M,,*42##1
$GPRMC,230702,A,3845.8400,N,10935.0315,W,0.0583,57.050,020510,,*0B##1
$GPGSA,A,3,23,07,13,19,32,20,06,03,16,,,,0.0,1.2,0.0*3C##0
$PGRME,0.34,M,0.60,M,0.00,M*1F##1098
$GPGGA,230703,3845.8401,N,10935.0316,W,1,09,1.20,1580.71,M,-16.600,M,,*44##2
$GPRMC,230703,A,3845.8401,N,10935.0316,W,0.0389,56.420,020510,,*06##1
$GPGSA,A,3,23,07,13,19,32,20,06,03,16,,,,0.0,1.2,0.0*3C##0
$PGRME,0.34,M,0.60,M,0.00,M*1F##1027
$GPGGA,230704,3845.8401,N,10935.0316,W,1,09,1.20,1580.69,M,-16.600,M,,*4A##1
$GPRMC,230704,A,3845.8401,N,10935.0316,W,0.0389,79.100,020510,,*0B##1
$GPGSA,A,3,23,07,13,19,32,20,06,03,16,,,,0.0,1.2,0.0*3C##0
$PGRME,0.34,M,0.60,M,0.00,M*1F##868
$GPGGA,230705,3845.8402,N,10935.0316,W,1,09,1.20,1580.66,M,-16.600,M,,*47##2
$GPRMC,230705,A,3845.8402,N,10935.0316,W,0.0389,38.350,020510,,*0B##1
$GPGSA,A,3,23,07,13,19,32,20,06,03,16,,,,0.0,1.2,0.0*3C##0
$PGRME,0.34,M,0.60,M,0.00,M*1F##1097
$GPGGA,230706,3845.8403,N,10935.0316,W,1,09,1.20,1580.64,M,-16.600,M,,*47##2
$GPRMC,230706,A,3845.8403,N,10935.0316,W,0.0389,59.500,020510,,*0D##1
$GPGSA,A,3,23,07,13,19,32,20,06,03,16,,,,0.0,1.2,0.0*3C##0
$PGRME,0.34,M,0.60,M,0.00,M*1F##1027
$GPGGA,230707,3845.8403,N,10935.0316,W,1,09,1.20,1580.63,M,-16.600,M,,*41##1
$GPRMC,230707,A,3845.8403,N,10935.0316,W,0.0389,54.210,020510,,*07##1
$GPGSA,A,3,23,07,13,19,32,20,06,03,16,,,,0.0,1.2,0.0*3C##0
$PGRME,0.34,M,0.60,M,0.00,M*1F##868
$GPGGA,230708,3845.8404,N,10935.0317,W,1,09,1.20,1580.60,M,-16.600,M,,*4B##2
$GPRMC,230708,A,3845.8404,N,10935.0317,W,0.0389,58.610,020510,,*06##1
$GPGSA,A,3,23,07,13,19,32,20,06,03,16,,,,0.0,1.2,0.0*3C##0
$PGRME,0.34,M,0.60,M,0.00,M*1F##1097
$GPGGA,230709,3845.8404,N,10935.0317,W,1,09,1.20,1580.58,M,-16.600,M,,*41##1
$GPRMC,230709,A,3845.8404,N,10935.0317,W,0.0389,54.520,020510,,*0B##1
$GPGSA,A,3,23,07,13,19,32,20,06,03,16,,,,0.0,1.2,0.0*3C##0
$PGRME,0.34,M,0.60,M,0.00,M*1F##1028
$GPGGA,230710,3845.8405,N,10935.0317,W,1,09,1.20,1580.57,M,-16.600,M,,*47##2
$GPRMC,230710,A,3845.8405,N,10935.0317,W,0.0389,61.940,020510,,*0E##1
$GPGSA,A,3,23,07,13,19,32,20,06,03,16,,,,0.0,1.2,0.0*3C##0
$PGRME,0.34,M,0.60,M,0.00,M*1F##867
$GPGGA,230711,3845.8405,N,10935.0317,W,1,09,1.20,1580.55,M,-16.600,M,,*44##1
$GPRMC,230711,A,3845.8405,N,10935.0317,W,0.0389,57.040,020510,,*03##1
$GPGSA,A,3,23,07,13,19,32,20,06,03,16,,,,0.0,1.2,0.0*3C##0
$PGRME,0.34,M,0.60,M,0.00,M*1F##1098
$GPGGA,230712,3845.8406,N,10935.0317,W,1,09,1.20,1580.52,M,-16.600,M,,*43##2
$GPRMC,230712,A,3845.8406,N,10935.0317,W,0.0389,52.790,020510,,*0C##1
$GPGSA,A,3,23,07,13,19,32,20,06,03,16,,,,0.0,1.2,0.0*3C##0
$PGRME,0.34,M,0.60,M,0.00,M*1F##1027
$GPGGA,230713,3845.8406,N,10935.0318,W,1,09,1.20,1580.50,M,-16.600,M,,*4F##2
$GPRMC,230713,A,3845.8406,N,10935.0318,W,0.0389,57.600,020510,,*0F##1
$GPGSA,A,3,23,07,13,19,32,20,06,03,16,,,,0.0,1.2,0.0*3C##0
$PGRME,0.34,M,0.60,M,0.00,M*1F##987
$GPGGA,230714,3845.8407,N,10935.0318,W,1,09,1.20,1580.48,M,-16.600,M,,*40##2
$GPRMC,230714,A,3845.8407,N,10935.0318,W,0.0389,59.930,020510,,*0B##1
$GPGSA,A,3,23,07,13,19,32,20,06,03,16,,,,0.0,1.2,0.0*3C##0
$PGRME,0.34,M,0.60,M,0.00,M*1F##877
$GPGGA,230715,3845.8407,N,10935.0318,W,1,09,1.20,1580.47,M,-16.600,M,,*4E##1
$GPRMC,230715,A,3845.8407,N,10935.0318,W,0.0389,57.430,020510,,*09##1
$GPGSA,A,3,23,07,13,19,32,20,06,03,16,,,,0.0,1.2,0.0*3C##0
$PGRME,0.34,M,0.60,M,0.00,M*1F##448
$GPGSV,3,1,09,07,31,268,44,23,80,022,44,19,05,147,33,13,58,324,43*70##1
$GPGSV,3,2,09,32,19,172,35,20,35,196,39,06,22,109,45,16,44,052,45*74##0
$GPGSV,3,3,09,03,23,126,44*47##649
$GPGGA,230716,3845.8408,N,10935.0318,W,1,09,1.20,1580.46,M,-16.600,M,,*43##2
$GPRMC,230716,A,3845.8408,N,10935.0318,W,0.0389,63.980,020510,,*04##1
$GPGSA,A,3,23,07,13,19,32,20,06,03,16,,,,0.0,1.2,0.0*3C##0
$PGRME,0.34,M,0.60,M,0.00,M*1F##999
$GPGGA,230717,3845.8408,N,10935.0318,W,1,09,1.20,1580.44,M,-16.600,M,,*40##0
$GPRMC,230717,A,3845.8408,N,10935.0318,W,0.0389,44.760,020510,,*00##1
$GPGSA,A,3,23,07,13,19,32,20,06,03,16,,,,0.0,1.2,0.0*3C##0
$PGRME,0.34,M,0.60,M,0.00,M*1F##1018
$GPGGA,230718,3845.8409,N,10935.0319,W,1,09,1.20,1580.54,M,-16.600,M,,*4E##1
$GPRMC,230718,A,3845.8409,N,10935.0319,W,0.4471,283.090,020510,,*3A##1
$GPGSA,A,3,23,07,13,19,32,20,06,03,16,,,,0.0,1.2,0.0*3C##0
$PGRME,0.36,M,0.61,M,0.00,M*1C##1019
$GPGGA,230719,3845.8407,N,10935.0321,W,1,09,1.20,1580.67,M,-16.600,M,,*4A##1
$GPRMC,230719,A,3845.8407,N,10935.0321,W,0.8164,204.010,020510,,*34##1
$GPGSA,A,3,23,07,13,19,32,20,06,03,16,,,,0.0,1.2,0.0*3C##0
$PGRME,0.42,M,0.63,M,0.00,M*1D##868
$GPGGA,230720,3845.8407,N,10935.0324,W,1,09,1.20,1580.85,M,-16.600,M,,*49##1
$GPRMC,230720,A,3845.8407,N,10935.0324,W,1.1274,273.520,020510,,*37##1
$GPGSA,A,3,23,07,13,19,32,20,06,03,16,,,,0.0,1.2,0.0*3C##0
$PGRME,0.47,M,0.66,M,0.00,M*1D##998
$GPGGA,230721,3845.8407,N,10935.0326,W,1,09,1.20,1581.03,M,-16.600,M,,*45##1
$GPRMC,230721,A,3845.8407,N,10935.0326,W,0.2527,246.080,020510,,*3E##1
$GPGSA,A,3,23,07,13,19,32,20,06,03,16,,,,0.0,1.2,0.0*3C##0
$PGRME,0.51,M,0.69,M,0.00,M*15##1027
$GPGGA,230722,3845.8408,N,10935.0327,W,1,09,1.20,1581.17,M,-16.600,M,,*4D##1
$GPRMC,230722,A,3845.8408,N,10935.0327,W,0.1361,323.690,020510,,*31##1
$GPGSA,A,3,23,07,13,19,32,20,06,03,16,,,,0.0,1.2,0.0*3C##0
$PGRME,0.53,M,0.72,M,0.00,M*1D##969
$GPGGA,230723,3845.8409,N,10935.0327,W,1,09,1.20,1580.98,M,-16.600,M,,*4B##1
$GPRMC,230723,A,3845.8409,N,10935.0327,W,0.4082,155.930,020510,,*3C##1
$GPGSA,A,3,23,07,13,19,32,20,06,03,16,,,,0.0,1.2,0.0*3C##0
$PGRME,0.55,M,0.76,M,0.00,M*1F##998
$GPGGA,230724,3845.8409,N,10935.0328,W,1,09,1.20,1581.13,M,-16.600,M,,*41##1
$GPRMC,230724,A,3845.8409,N,10935.0328,W,0.2527,230.320,020510,,*33##1
$GPGSA,A,3,23,07,13,19,32,20,06,03,16,,,,0.0,1.2,0.0*3C##0
$PGRME,0.56,M,0.81,M,0.00,M*14##1027
$GPGGA,230725,3845.8410,N,10935.0330,W,1,09,1.20,1581.18,M,-16.600,M,,*4A##1
$GPRMC,230725,A,3845.8410,N,10935.0330,W,0.1749,287.400,020510,,*33##1
$GPGSA,A,3,23,07,13,19,32,20,06,03,16,,,,0.0,1.2,0.0*3C##0
$PGRME,0.57,M,0.85,M,0.00,M*11##988
$GPGGA,230726,3845.8412,N,10935.0331,W,1,09,1.20,1581.16,M,-16.600,M,,*44##1
$GPRMC,230726,A,3845.8412,N,10935.0331,W,0.0194,91.710,020510,,*03##1
$GPGSA,A,3,23,07,13,19,32,20,06,03,16,,,,0.0,1.2,0.0*3C##0
$PGRME,0.58,M,0.90,M,0.00,M*1A##988
$GPGGA,230727,3845.8413,N,10935.0331,W,1,09,1.20,1581.23,M,-16.600,M,,*42##1
$GPRMC,230727,A,3845.8413,N,10935.0331,W,0.2527,267.570,020510,,*32##1
$GPGSA,A,3,23,07,13,19,32,20,06,03,16,,,,0.0,1.2,0.0*3C##0
$PGRME,0.58,M,0.95,M,0.00,M*1F##1018
$GPGGA,230728,3845.8414,N,10935.0331,W,1,09,1.20,1580.90,M,-16.600,M,,*43##1
$GPRMC,230728,A,3845.8414,N,10935.0331,W,0.1555,65.250,020510,,*09##1
$GPGSA,A,3,23,07,13,19,32,20,06,03,16,,,,0.0,1.2,0.0*3C##0
$PGRME,0.60,M,0.99,M,0.00,M*18##969
$GPGGA,230730,3845.8412,N,10935.0331,W,1,09,1.20,1581.24,M,-16.600,M,,*42##1
$GPRMC,230730,A,3845.8412,N,10935.0331,W,0.5054,123.060,020510,,*34##1
$GPGSA,A,3,23,07,13,19,32,20,06,03,16,,,,0.0,1.2,0.0*3C##0
$PGRME,0.60,M,1.03,M,0.00,M*1A##998
$GPGGA,230730,3845.8411,N,10935.0330,W,1,09,1.20,1581.40,M,-16.600,M,,*42##1
$GPRMC,230730,A,3845.8411,N,10935.0330,W,0.2916,152.110,020510,,*3E##1
$GPGSA,A,3,23,07,13,19,32,20,06,03,16,,,,0.0,1.2,0.0*3C##0
$PGRME,0.61,M,1.06,M,0.00,M*1E##449
$GPGSV,3,1,09,07,31,268,29,23,80,022,24,19,05,147,16,13,58,324,25*7A##0
$GPGSV,3,2,09,32,19,172,28,20,35,196,33,06,22,109,21,16,44,052,30*72##1
$GPGSV,3,3,09,03,23,126,20*45##576
$GPGGA,230731,3845.8411,N,10935.0330,W,1,09,1.20,1581.43,M,-16.600,M,,*40##2
$GPRMC,230731,A,3845.8411,N,10935.0330,W,0.5443,135.780,020510,,*3B##1
$GPGSA,A,3,23,07,13,19,32,20,06,03,16,,,,0.0,1.2,0.0*3C##0
$PGRME,0.62,M,1.09,M,0.00,M*12##1037
$GPGGA,230732,3845.8410,N,10935.0330,W,1,09,1.20,1581.57,M,-16.600,M,,*47##2
$GPRMC,230732,A,3845.8410,N,10935.0330,W,0.2721,152.330,020510,,*37##1
$GPGSA,A,3,23,07,13,19,32,20,06,03,16,,,,0.0,1.2,0.0*3C##0
$PGRME,0.62,M,1.10,M,0.00,M*1A##928
$GPGGA,230733,3845.8411,N,10935.0331,W,1,09,1.20,1581.70,M,-16.600,M,,*43##2
$GPRMC,230733,A,3845.8411,N,10935.0331,W,0.0583,151.470,020510,,*3E##1
$GPGSA,A,3,23,07,13,19,32,20,06,03,16,,,,0.0,1.2,0.0*3C##0
$PGRME,0.62,M,1.11,M,0.00,M*1B##1026
$GPGGA,230734,3845.8412,N,10935.0330,W,1,09,1.20,1581.13,M,-16.600,M,,*43##2
$GPRMC,230734,A,3845.8412,N,10935.0330,W,0.5443,119.530,020510,,*3A##1
$GPGSA,A,3,23,07,13,19,32,20,06,03,16,,,,0.0,1.2,0.0*3C##0
$PGRME,0.62,M,1.11,M,0.00,M*1B##968
$GPGGA,230735,3845.8412,N,10935.0330,W,1,09,1.20,1580.84,M,-16.600,M,,*4D##1
$GPRMC,230735,A,3845.8412,N,10935.0330,W,0.2527,310.130,020510,,*30##1
$GPGSA,A,3,23,07,13,19,32,20,06,03,16,,,,0.0,1.2,0.0*3C##0
$PGRME,0.62,M,1.11,M,0.00,M*1B##998
$GPGGA,230736,3845.8413,N,10935.0331,W,1,09,1.20,1580.65,M,-16.600,M,,*41##2
$GPRMC,230736,A,3845.8413,N,10935.0331,W,0.6026,319.390,020510,,*32##1
$GPGSA,A,3,23,07,13,19,32,20,06,03,16,,,,0.0,1.2,0.0*3C##1
$PGRME,0.63,M,1.12,M,0.00,M*19##1025
$GPGGA,230737,3845.8414,N,10935.0333,W,1,09,1.20,1580.59,M,-16.600,M,,*4A##2
$GPRMC,230737,A,3845.8414,N,10935.0333,W,0.3110,84.190,020510,,*02##1
$GPGSA,A,3,23,07,13,19,32,20,06,03,16,,,,0.0,1.2,0.0*3C##0
$PGRME,0.63,M,1.13,M,0.00,M*18##969
$GPGGA,230738,3845.8415,N,10935.0332,W,1,09,1.20,1580.22,M,-16.600,M,,*49##1
$GPRMC,230738,A,3845.8415,N,10935.0332,W,0.2138,124.670,020510,,*34##1
$GPGSA,A,3,23,07,13,19,32,20,06,03,16,,,,0.0,1.2,0.0*3C##1
$PGRME,0.63,M,1.14,M,0.00,M*1F##997
$GPGGA,230739,3845.8415,N,10935.0332,W,1,09,1.20,1579.99,M,-16.600,M,,*4E##0
$GPRMC,230739,A,3845.8415,N,10935.0332,W,0.0778,57.760,020510,,*00##1
$GPGSA,A,3,23,07,13,19,32,20,06,03,16,,,,0.0,1.2,0.0*3C##1
$PGRME,0.64,M,1.18,M,0.00,M*14##1026
$GPGGA,230740,3845.8416,N,10935.0332,W,1,08,1.20,1580.06,M,-16.600,M,,*42##2
$GPRMC,230740,A,3845.8416,N,10935.0332,W,0.2138,301.530,020510,,*3A##1
$GPGSA,A,3,07,13,19,32,20,06,03,16,,,,,0.0,1.2,0.0*3D##0
$PGRME,0.64,M,1.22,M,0.00,M*1D##969
$GPGGA,230741,3845.8416,N,10935.0333,W,1,08,1.20,1579.62,M,-16.600,M,,*46##2
$GPRMC,230741,A,3845.8416,N,10935.0333,W,0.5637,154.630,020510,,*34##1
$GPGSA,A,3,07,13,19,32,20,06,03,16,,,,,0.0,1.2,0.0*3D##0
$PGRME,0.65,M,1.25,M,0.00,M*1B##1006
$GPGGA,230742,3845.8416,N,10935.0334,W,1,09,1.20,1579.93,M,-16.600,M,,*4D##2
$GPRMC,230742,A,3845.8416,N,10935.0334,W,0.2527,231.170,020510,,*36##0
$GPGSA,A,3,23,07,13,19,32,20,06,03,16,,,,0.0,1.2,0.0*3C##1
$PGRME,0.66,M,1.29,M,0.00,M*14##1016
$GPGGA,230743,3845.8415,N,10935.0335,W,1,09,1.20,1580.17,M,-16.600,M,,*44##2
$GPRMC,230743,A,3845.8415,N,10935.0335,W,0.8359,271.310,020510,,*30##1
$GPGSA,A,3,23,07,13,19,32,20,06,03,16,,,,0.0,1.2,0.0*3C##0
$PGRME,0.68,M,1.31,M,0.00,M*13##969
$GPGGA,230744,3845.8416,N,10935.0337,W,1,09,1.20,1579.35,M,-16.600,M,,*44##2
$GPRMC,230744,A,3845.8416,N,10935.0337,W,0.3888,-304.720,020510,,*13##1
$GPGSA,A,3,23,07,13,19,32,20,06,03,16,,,,0.0,1.2,0.0*3C##0
$PGRME,0.70,M,1.33,M,0.00,M*18##997
$GPGGA,230745,3845.8420,N,10935.0340,W,1,09,1.20,1577.83,M,-16.600,M,,*43##2
$GPRMC,230745,A,3845.8420,N,10935.0340,W,0.7970,12.030,020510,,*0A##0
$GPGSA,A,3,23,07,13,19,32,20,06,03,16,,,,0.0,1.2,0.0*3C##1
$PGRME,0.71,M,1.31,M,0.00,M*1B##445
$GPGSV,3,1,09,07,31,268,27,23,80,022,28,19,05,147,21,13,58,324,26*7F##1
$GPGSV,3,2,09,32,19,172,23,20,35,196,20,06,22,109,26,16,44,052,26*7B##0
$GPGSV,3,3,09,03,23,126,25*40##579
$GPGGA,230746,3845.8423,N,10935.0342,W,1,09,1.20,1577.07,M,-16.600,M,,*4D##2
