# NMEA GPS data followed by ## then the time in ms before next message was sent
$GPGSV,3,2,11,24,70,153,33,15,05,048,40,22,66,325,38,19,21,304,30*77##1
$GPGSV,3,3,11,03,23,273,19,09,37,072,38,06,27,261,00*40##628
$GPGGA,154152,3858.5585,N,10009.2944,W,1,09,1.20,11476.71,M,,,*28##61
$GPRMC,154152,A,3858.5585,N,10009.2944,W,543.2851,109.160,070510,,*31##43
$GPGSA,A,3,18,27,26,21,15,22,19,24,09,,,,0.0,1.2,0.0*39##1
$PGRME,0.53,M,0.65,M,0.00,M*1B##695
$GPGGA,154153,3858.5090,N,10009.1119,W,1,09,1.20,11476.86,M,,,*23##2
$GPRMC,154153,A,3858.5090,N,10009.1119,W,543.2851,109.160,070510,,*32##1
$GPGSA,A,3,18,27,26,21,15,22,19,24,09,,,,0.0,1.2,0.0*39##1
$PGRME,0.54,M,0.65,M,0.00,M*1C##1105
$GPGGA,154154,3858.4595,N,10008.9295,W,1,09,1.20,11476.99,M,,,*25##1
$GPRMC,154154,A,3858.4595,N,10008.9295,W,543.2657,109.160,070510,,*32##2
$GPGSA,A,3,18,27,26,21,15,22,19,24,09,,,,0.0,1.2,0.0*39##0
$PGRME,0.54,M,0.64,M,0.00,M*1D##1048
$GPGGA,154155,3858.4100,N,10008.7471,W,1,09,1.20,11477.13,M,,,*2D##1
$GPRMC,154155,A,3858.4100,N,10008.7471,W,543.2462,109.170,070510,,*3C##2
$GPGSA,A,3,18,27,26,21,15,22,19,24,09,,,,0.0,1.2,0.0*39##0
$PGRME,0.54,M,0.64,M,0.00,M*1D##937
$GPGGA,154156,3858.3604,N,10008.5647,W,1,09,1.20,11477.29,M,,,*26##1
$GPRMC,154156,A,3858.3604,N,10008.5647,W,543.2268,109.180,070510,,*3D##2
$GPGSA,A,3,18,27,26,21,15,22,19,24,09,,,,0.0,1.2,0.0*39##0
$PGRME,0.54,M,0.63,M,0.00,M*1A##1015
$GPGGA,154157,3858.3109,N,10008.3824,W,1,09,1.20,11477.43,M,,,*2C##2
$GPRMC,154157,A,3858.3109,N,10008.3824,W,543.2268,109.180,070510,,*3B##1
$GPGSA,A,3,18,27,26,21,15,22,19,24,09,,,,0.0,1.2,0.0*39##0
$PGRME,0.54,M,0.63,M,0.00,M*1A##1040
$GPGGA,154158,3858.2613,N,10008.2000,W,1,09,1.20,11477.58,M,,,*2B##2
$GPRMC,154158,A,3858.2613,N,10008.2000,W,543.2073,109.180,070510,,*3E##1
$GPGSA,A,3,18,27,26,21,15,22,19,24,09,,,,0.0,1.2,0.0*39##0
$PGRME,0.54,M,0.63,M,0.00,M*1A##836
$GPGGA,154159,3858.2118,N,10008.0176,W,1,09,1.20,11477.72,M,,,*2C##2
$GPRMC,154159,A,3858.2118,N,10008.0176,W,543.1685,109.180,070510,,*3D##1
$GPGSA,A,3,18,27,26,21,15,22,19,24,09,,,,0.0,1.2,0.0*39##0
$PGRME,0.54,M,0.62,M,0.00,M*1B##1097
$GPGGA,154200,3858.1622,N,10007.8353,W,1,09,1.20,11477.80,M,,,*21##1
$GPRMC,154200,A,3858.1622,N,10007.8353,W,543.2462,109.190,070510,,*34##2
$GPGSA,A,3,18,27,26,21,15,22,19,24,09,,,,0.0,1.2,0.0*39##0
$PGRME,0.54,M,0.62,M,0.00,M*1B##1065
$GPGGA,154201,3858.1126,N,10007.6529,W,1,09,1.20,11477.91,M,,,*26##2
$GPRMC,154201,A,3858.1126,N,10007.6529,W,543.1490,109.190,070510,,*3D##1
$GPGSA,A,3,18,27,26,21,15,22,19,24,09,,,,0.0,1.2,0.0*39##0
$PGRME,0.53,M,0.61,M,0.00,M*1F##935
$GPGGA,154202,3858.0630,N,10007.4706,W,1,09,1.20,11478.00,M,,,*2E##2
$GPRMC,154202,A,3858.0630,N,10007.4706,W,543.1296,109.200,070510,,*38##2
$GPGSA,A,3,18,27,26,21,15,22,19,24,09,,,,0.0,1.2,0.0*39##0
$PGRME,0.53,M,0.61,M,0.00,M*1F##981
$GPGGA,154203,3858.0135,N,10007.2883,W,1,09,1.20,11478.10,M,,,*28##1
$GPRMC,154203,A,3858.0135,N,10007.2883,W,543.1102,109.200,070510,,*31##2
$GPGSA,A,3,18,27,26,21,15,22,19,24,09,,,,0.0,1.2,0.0*39##0
$PGRME,0.53,M,0.61,M,0.00,M*1F##1065
$GPGGA,154204,3857.9639,N,10007.1060,W,1,09,1.20,11478.19,M,,,*2D##2
$GPRMC,154204,A,3857.9639,N,10007.1060,W,543.0907,109.210,070510,,*30##1
$GPGSA,A,3,18,27,26,21,15,22,19,24,09,,,,0.0,1.2,0.0*39##1
$PGRME,0.53,M,0.61,M,0.00,M*1F##852
$GPGGA,154205,3857.9143,N,10006.9237,W,1,09,1.20,11478.29,M,,,*2C##2
$GPRMC,154205,A,3857.9143,N,10006.9237,W,543.0518,109.210,070510,,*30##1
$GPGSA,A,3,18,27,26,21,15,22,19,24,09,,,,0.0,1.2,0.0*39##8
$PGRME,0.53,M,0.61,M,0.00,M*1F##1073
$GPGGA,154206,3857.8647,N,10006.7414,W,1,09,1.20,11478.38,M,,,*24##1
$GPRMC,154206,A,3857.8647,N,10006.7414,W,543.0713,109.210,070510,,*31##2
$GPGSA,A,3,18,27,26,21,15,22,19,24,09,,,,0.0,1.2,0.0*39##0
$PGRME,0.53,M,0.60,M,0.00,M*1E##448
$GPGSV,3,1,11,18,59,055,37,27,31,058,40,26,35,043,42,21,48,147,28*70##27
$GPGSV,3,2,11,24,70,153,34,15,05,048,41,22,66,325,38,19,21,304,31*70##0
$GPGSV,3,3,11,03,23,273,20,09,37,072,37,14,47,225,26*44##583
$GPGGA,154207,3857.8151,N,10006.5592,W,1,09,1.20,11478.46,M,,,*21##1
$GPRMC,154207,A,3857.8151,N,10006.5592,W,543.0324,109.200,070510,,*3C##2
$GPGSA,A,3,18,27,26,21,15,22,19,24,09,,,,0.0,1.2,0.0*39##0
$PGRME,0.53,M,0.60,M,0.00,M*1E##947
$GPGGA,154208,3857.7656,N,10006.3769,W,1,09,1.20,11478.53,M,,,*25##2
$GPRMC,154208,A,3857.7656,N,10006.3769,W,543.0518,109.210,070510,,*34##1
$GPGSA,A,3,18,27,26,21,15,22,19,24,09,,,,0.0,1.2,0.0*39##0
$PGRME,0.53,M,0.60,M,0.00,M*1E##987
$GPGGA,154209,3857.7160,N,10006.1946,W,1,09,1.20,11478.58,M,,,*2C##1
$GPRMC,154209,A,3857.7160,N,10006.1946,W,543.0130,109.200,070510,,*39##2
$GPGSA,A,3,18,27,26,21,15,22,19,24,09,,,,0.0,1.2,0.0*39##0
$PGRME,0.54,M,0.60,M,0.00,M*19##1057
$GPGGA,154210,3857.6665,N,10006.0124,W,1,09,1.20,11478.67,M,,,*26##1
$GPRMC,154210,A,3857.6665,N,10006.0124,W,543.0324,109.200,070510,,*38##2
$GPGSA,A,3,18,27,26,21,15,22,19,24,09,,,,0.0,1.2,0.0*39##0
$PGRME,0.55,M,0.60,M,0.00,M*18##847
$GPGGA,154211,3857.6169,N,10005.8301,W,1,09,1.20,11478.69,M,,,*2C##2
$GPRMC,154211,A,3857.6169,N,10005.8301,W,543.0324,109.210,070510,,*3D##1
$GPGSA,A,3,18,27,26,21,15,22,19,24,09,,,,0.0,1.2,0.0*39##0
$PGRME,0.55,M,0.61,M,0.00,M*19##1092
$GPGGA,154212,3857.5672,N,10005.6479,W,1,09,1.20,11478.63,M,,,*2D##2
$GPRMC,154212,A,3857.5672,N,10005.6479,W,542.9935,109.210,070510,,*34##1
$GPGSA,A,3,18,27,26,21,15,22,19,24,09,,,,0.0,1.2,0.0*39##1
$PGRME,0.54,M,0.60,M,0.00,M*19##1053
$GPGGA,154213,3857.5176,N,10005.4657,W,1,09,1.20,11478.60,M,,,*20##2
$GPRMC,154213,A,3857.5176,N,10005.4657,W,542.9741,109.210,070510,,*37##1
$GPGSA,A,3,18,27,26,21,15,22,19,24,09,,,,0.0,1.2,0.0*39##0
$PGRME,0.54,M,0.60,M,0.00,M*19##929
$GPGGA,154214,3857.4680,N,10005.2834,W,1,09,1.20,11478.56,M,,,*20##2
$GPRMC,154214,A,3857.4680,N,10005.2834,W,542.9352,109.210,070510,,*34##1
$GPGSA,A,3,18,27,26,21,15,22,19,24,09,,,,0.0,1.2,0.0*39##1
$PGRME,0.54,M,0.60,M,0.00,M*19##1028
$GPGGA,154215,3857.4183,N,10005.1012,W,1,09,1.20,11478.53,M,,,*2F##2
$GPRMC,154215,A,3857.4183,N,10005.1012,W,542.8963,109.210,070510,,*37##21
$GPGSA,A,3,18,27,26,21,15,22,19,24,09,,,,0.0,1.2,0.0*39##0
$PGRME,0.53,M,0.61,M,0.00,M*1F##1001
$GPGGA,154216,3857.3687,N,10004.9191,W,1,09,1.20,11478.50,M,,,*28##1
$GPRMC,154216,A,3857.3687,N,10004.9191,W,542.8769,109.220,070510,,*34##2
$GPGSA,A,3,18,27,26,21,15,22,19,24,09,,,,0.0,1.2,0.0*39##0
$PGRME,0.53,M,0.61,M,0.00,M*1F##848
$GPGGA,154217,3857.3190,N,10004.7369,W,1,09,1.20,11478.52,M,,,*21##2
$GPRMC,154217,A,3857.3190,N,10004.7369,W,542.8575,109.240,070510,,*36##1
$GPGSA,A,3,18,27,26,21,15,22,19,24,09,,,,0.0,1.2,0.0*39##1
$PGRME,0.53,M,0.62,M,0.00,M*1C##1105
$GPGGA,154218,3857.2694,N,10004.5548,W,1,09,1.20,11478.57,M,,,*2E##1
$GPRMC,154218,A,3857.2694,N,10004.5548,W,542.7991,109.250,070510,,*34##2
$GPGSA,A,3,18,27,26,21,15,22,19,24,09,,,,0.0,1.2,0.0*39##0
$PGRME,0.53,M,0.62,M,0.00,M*1C##1047
$GPGGA,154219,3857.2197,N,10004.3727,W,1,09,1.20,11478.66,M,,,*24##1
$GPRMC,154219,A,3857.2197,N,10004.3727,W,542.8380,109.260,070510,,*3A##2
$GPGSA,A,3,18,27,26,21,15,22,19,24,09,,,,0.0,1.2,0.0*39##0
$PGRME,0.52,M,0.62,M,0.00,M*1D##937
$GPGGA,154220,3857.1699,N,10004.1905,W,1,09,1.20,11478.75,M,,,*2A##2
$GPRMC,154220,A,3857.1699,N,10004.1905,W,542.8186,109.250,070510,,*31##1
$GPGSA,A,3,18,27,26,21,15,22,19,24,09,,,,0.0,1.2,0.0*39##1
$PGRME,0.52,M,0.63,M,0.00,M*1C##988
$GPGGA,154221,3857.1203,N,10004.0084,W,1,09,1.20,11478.92,M,,,*24##1
$GPRMC,154221,A,3857.1203,N,10004.0084,W,542.8575,109.250,070510,,*3E##1
$GPGSA,A,3,18,27,26,21,15,22,19,24,09,,,,0.0,1.2,0.0*39##1
$PGRME,0.52,M,0.63,M,0.00,M*1C##444
$GPGSV,3,1,11,18,59,055,39,27,31,058,41,26,35,043,44,21,48,147,31*71##1
$GPGSV,3,2,11,24,70,153,36,15,05,048,39,22,66,325,39,19,21,304,32*7F##0
$GPGSV,3,3,11,03,22,273,20,09,37,072,41,14,47,226,27*46##629
$GPGGA,154222,3857.0706,N,10003.8263,W,1,09,1.20,11479.05,M,,,*2D##2
$GPRMC,154222,A,3857.0706,N,10003.8263,W,542.7797,109.240,070510,,*38##1
$GPGSA,A,3,18,27,26,21,15,22,19,24,09,,,,0.0,1.2,0.0*39##0
$PGRME,0.52,M,0.63,M,0.00,M*1C##927
$GPGGA,154223,3857.0210,N,10003.6442,W,1,09,1.20,11479.23,M,,,*21##2
$GPRMC,154223,A,3857.0210,N,10003.6442,W,542.7603,109.230,070510,,*3B##2
$GPGSA,A,3,18,27,26,21,15,22,19,24,09,,,,0.0,1.2,0.0*39##0
$PGRME,0.52,M,0.63,M,0.00,M*1C##1001
$GPGGA,154224,3856.9714,N,10003.4621,W,1,09,1.20,11479.35,M,,,*2D##2
$GPRMC,154224,A,3856.9714,N,10003.4621,W,542.7991,109.230,070510,,*34##1
$GPGSA,A,3,18,27,26,21,15,22,19,24,09,,,,0.0,1.2,0.0*39##0
$PGRME,0.52,M,0.62,M,0.00,M*1D##1053
$GPGGA,154225,3856.9218,N,10003.2799,W,1,09,1.20,11479.47,M,,,*24##1
$GPRMC,154225,A,3856.9218,N,10003.2799,W,542.7408,109.220,070510,,*34##1
$GPGSA,A,3,18,27,26,21,15,22,19,24,09,,,,0.0,1.2,0.0*39##1
$PGRME,0.52,M,0.62,M,0.00,M*1D##939
$GPGGA,154226,3856.8723,N,10003.0978,W,1,09,1.20,11479.58,M,,,*26##1
$GPRMC,154226,A,3856.8723,N,10003.0978,W,542.7408,109.220,070510,,*38##1
$GPGSA,A,3,18,27,26,21,15,22,19,24,09,,,,0.0,1.2,0.0*39##0
$PGRME,0.51,M,0.61,M,0.00,M*1D##1005
$GPGGA,154227,3856.8227,N,10002.9157,W,1,09,1.20,11479.69,M,,,*29##2
$GPRMC,154227,A,3856.8227,N,10002.9157,W,542.7214,109.220,070510,,*3E##1
$GPGSA,A,3,18,27,26,21,15,22,19,24,09,,,,0.0,1.2,0.0*39##0
$PGRME,0.51,M,0.61,M,0.00,M*1D##1088
$GPGGA,154228,3856.7732,N,10002.7336,W,1,09,1.20,11479.78,M,,,*23##1
$GPRMC,154228,A,3856.7732,N,10002.7336,W,542.7214,109.220,070510,,*34##1
$GPGSA,A,3,18,27,26,21,15,22,19,24,09,,,,0.0,1.2,0.0*39##0
$PGRME,0.51,M,0.61,M,0.00,M*1D##897
$GPGGA,154229,3856.7236,N,10002.5515,W,1,09,1.20,11479.89,M,,,*28##1
$GPRMC,154229,A,3856.7236,N,10002.5515,W,542.7019,109.220,070510,,*3E##1
$GPGSA,A,3,18,27,26,21,15,22,19,24,09,,,,0.0,1.2,0.0*39##1
$PGRME,0.51,M,0.60,M,0.00,M*1C##997
$GPGGA,154230,3856.6741,N,10002.3694,W,1,09,1.20,11480.00,M,,,*2F##2
$GPRMC,154230,A,3856.6741,N,10002.3694,W,542.6631,109.220,070510,,*33##1
$GPGSA,A,3,18,27,26,21,15,22,19,24,09,,,,0.0,1.2,0.0*39##0
$PGRME,0.51,M,0.60,M,0.00,M*1C##1047
$GPGGA,154231,3856.6245,N,10002.1874,W,1,09,1.20,11480.08,M,,,*25##2
$GPRMC,154231,A,3856.6245,N,10002.1874,W,542.6436,109.220,070510,,*34##2
$GPGSA,A,3,18,27,26,21,15,22,19,24,09,,,,0.0,1.2,0.0*39##0
$PGRME,0.51,M,0.60,M,0.00,M*1C##947
$GPGGA,154232,3856.5750,N,10002.0053,W,1,09,1.20,11480.15,M,,,*24##5
$GPRMC,154232,A,3856.5750,N,10002.0053,W,542.5853,109.210,070510,,*36##2
$GPGSA,A,3,18,27,26,21,15,22,19,24,09,,,,0.0,1.2,0.0*39##0
$PGRME,0.51,M,0.59,M,0.00,M*16##985
$GPGGA,154233,3856.5255,N,10001.8232,W,1,09,1.20,11480.17,M,,,*29##2
$GPRMC,154233,A,3856.5255,N,10001.8232,W,542.6048,109.210,070510,,*38##2
$GPGSA,A,3,18,27,26,21,15,22,19,24,09,,,,0.0,1.2,0.0*39##0
$PGRME,0.51,M,0.59,M,0.00,M*16##1063
$GPGGA,154234,3856.4760,N,10001.6412,W,1,09,1.20,11480.14,M,,,*25##3
$GPRMC,154234,A,3856.4760,N,10001.6412,W,542.5464,109.220,070510,,*3D##1
$GPGSA,A,3,18,27,26,21,15,22,19,24,09,,,,0.0,1.2,0.0*39##1
$PGRME,0.51,M,0.59,M,0.00,M*16##935
$GPGGA,154235,3856.4264,N,10001.4592,W,1,09,1.20,11480.08,M,,,*23##3
$GPRMC,154235,A,3856.4264,N,10001.4592,W,542.5270,109.220,070510,,*35##1
$GPGSA,A,3,18,27,26,21,15,22,19,24,09,,,,0.0,1.2,0.0*39##0
$PGRME,0.51,M,0.59,M,0.00,M*16##996
$GPGGA,154236,3856.3769,N,10001.2771,W,1,09,1.20,11479.98,M,,,*29##3
$GPRMC,154236,A,3856.3769,N,10001.2771,W,542.5464,109.220,070510,,*33##1
$GPGSA,A,3,18,27,26,21,15,22,19,24,09,,,,0.0,1.2,0.0*39##0
$PGRME,0.51,M,0.58,M,0.00,M*17##441
$GPGSV,3,1,11,18,59,055,42,27,31,058,40,26,35,043,45,21,48,147,27*7A##0
$GPGSV,3,2,11,24,70,153,35,15,05,048,42,22,66,325,36,19,21,304,36*7B##0
$GPGSV,3,3,11,03,22,273,23,09,37,072,43,14,47,226,26*46##605
$GPGGA,154237,3856.3273,N,10001.0951,W,1,09,1.20,11479.82,M,,,*23##3
$GPRMC,154237,A,3856.3273,N,10001.0951,W,542.5464,109.230,070510,,*33##1
$GPGSA,A,3,18,27,26,21,15,22,19,24,09,,,,0.0,1.2,0.0*39##0
$PGRME,0.51,M,0.58,M,0.00,M*17##946
$GPGGA,154238,3856.2778,N,10000.9131,W,1,09,1.20,11479.68,M,,,*21##3
$GPRMC,154238,A,3856.2778,N,10000.9131,W,542.5270,109.240,070510,,*31##1
$GPGSA,A,3,18,27,26,21,15,22,19,24,09,,,,0.0,1.2,0.0*39##1
$PGRME,0.51,M,0.58,M,0.00,M*17##995
$GPGGA,154239,3856.2282,N,10000.7312,W,1,09,1.20,11479.55,M,,,*23##3
$GPRMC,154239,A,3856.2282,N,10000.7312,W,542.5270,109.250,070510,,*3C##1
$GPGSA,A,3,18,27,26,21,15,22,19,24,09,,,,0.0,1.2,0.0*39##0
$PGRME,0.51,M,0.58,M,0.00,M*17##1046
$GPGGA,154240,3856.1786,N,10000.5492,W,1,09,1.20,11479.45,M,,,*23##3
$GPRMC,154240,A,3856.1786,N,10000.5492,W,542.5270,109.250,070510,,*3D##0
$GPGSA,A,3,18,27,26,21,15,22,19,24,09,,,,0.0,1.2,0.0*39##1
$PGRME,0.51,M,0.57,M,0.00,M*18##946
$GPGGA,154241,3856.1290,N,10000.3672,W,1,09,1.20,11479.39,M,,,*21##2
$GPRMC,154241,A,3856.1290,N,10000.3672,W,542.5076,109.260,070510,,*33##2
$GPGSA,A,3,18,27,26,21,15,22,19,24,09,,,,0.0,1.2,0.0*39##0
$PGRME,0.51,M,0.57,M,0.00,M*18##997
$GPGGA,154242,3856.0794,N,10000.1852,W,1,09,1.20,11479.41,M,,,*23##2
$GPRMC,154242,A,3856.0794,N,10000.1852,W,542.4881,109.260,070510,,*3F##1
$GPGSA,A,3,18,27,26,21,15,22,19,24,09,,,,0.0,1.2,0.0*39##1
$PGRME,0.51,M,0.57,M,0.00,M*18##1045
$GPGGA,154243,3856.0298,N,10000.0033,W,1,09,1.20,11479.47,M,,,*23##2
$GPRMC,154243,A,3856.0298,N,10000.0033,W,542.4687,109.270,070510,,*30##2
$GPGSA,A,3,18,27,26,21,15,22,19,24,09,,,,0.0,1.2,0.0*39##0
$PGRME,0.51,M,0.57,M,0.00,M*18##946
$GPGGA,154244,3855.9802,N,09959.8214,W,1,09,1.20,11479.62,M,,,*22##2
$GPRMC,154244,A,3855.9802,N,09959.8214,W,542.4298,109.270,070510,,*3C##2
$GPGSA,A,3,18,27,26,21,15,22,19,24,09,,,,0.0,1.2,0.0*39##0
$PGRME,0.51,M,0.57,M,0.00,M*18##996
$GPGGA,154245,3855.9306,N,09959.6394,W,1,09,1.20,11479.83,M,,,*24##2
$GPRMC,154245,A,3855.9306,N,09959.6394,W,542.4492,109.270,070510,,*39##2
$GPGSA,A,3,18,27,26,21,15,22,19,24,09,,,,0.0,1.2,0.0*39##0
$PGRME,0.51,M,0.57,M,0.00,M*18##1056
$GPGGA,154246,3855.8810,N,09959.4575,W,1,09,1.20,11480.12,M,,,*2F##2
$GPRMC,154246,A,3855.8810,N,09959.4575,W,542.4298,109.270,070510,,*30##2
$GPGSA,A,3,18,27,26,21,15,22,19,24,09,,,,0.0,1.2,0.0*39##0
$PGRME,0.50,M,0.56,M,0.00,M*18##836
$GPGGA,154247,3855.8315,N,09959.2756,W,1,09,1.20,11480.45,M,,,*27##2
$GPRMC,154247,A,3855.8315,N,09959.2756,W,542.4298,109.270,070510,,*3A##1
$GPGSA,A,3,18,27,26,21,15,22,19,24,09,,,,0.0,1.2,0.0*39##1
$PGRME,0.50,M,0.56,M,0.00,M*18##1096
$GPGGA,154248,3855.7819,N,09959.0936,W,1,09,1.20,11480.82,M,,,*21##2
$GPRMC,154248,A,3855.7819,N,09959.0936,W,542.4104,109.260,070510,,*30##2
$GPGSA,A,3,18,27,26,21,15,22,19,24,09,,,,0.0,1.2,0.0*39##0
$PGRME,0.50,M,0.56,M,0.00,M*18##1057
$GPGGA,154249,3855.7323,N,09958.9117,W,1,09,1.20,11481.19,M,,,*22##1
$GPRMC,154249,A,3855.7323,N,09958.9117,W,542.3715,109.250,070510,,*32##2
$GPGSA,A,3,18,27,26,21,15,22,19,24,09,,,,0.0,1.2,0.0*39##0
$PGRME,0.50,M,0.56,M,0.00,M*18##936
$GPGGA,154250,3855.6827,N,09958.7298,W,1,09,1.20,11481.55,M,,,*26##2
$GPRMC,154250,A,3855.6827,N,09958.7298,W,542.4104,109.250,070510,,*3F##2
$GPGSA,A,3,18,27,26,21,15,22,19,24,09,,,,0.0,1.2,0.0*39##0
$PGRME,0.50,M,0.56,M,0.00,M*18##896
$GPGGA,154251,3855.6331,N,09958.5479,W,1,09,1.20,11481.88,M,,,*20##2
$GPRMC,154251,A,3855.6331,N,09958.5479,W,542.3715,109.250,070510,,*38##2
$GPGSA,A,3,18,27,26,21,15,22,19,24,09,,,,0.0,1.2,0.0*39##0
$PGRME,0.50,M,0.56,M,0.00,M*18##446
$GPGSV,3,1,11,18,59,055,42,27,31,058,40,26,35,043,44,21,48,147,29*75##0
$GPGSV,3,2,11,24,70,154,36,15,05,048,41,22,66,325,38,19,21,303,35*76##1
$GPGSV,3,3,11,03,22,271,23,09,37,072,43,14,47,226,00*40##660
$GPGGA,154252,3855.5836,N,09958.3660,W,1,09,1.20,11482.21,M,,,*20##1
$GPRMC,154252,A,3855.5836,N,09958.3660,W,542.3521,109.250,070510,,*3D##2
$GPGSA,A,3,18,27,26,21,15,22,19,24,09,,,,0.0,1.2,0.0*39##0
$PGRME,0.50,M,0.56,M,0.00,M*18##986
$GPGGA,154253,3855.5340,N,09958.1841,W,1,09,1.20,11482.52,M,,,*20##3
$GPRMC,154253,A,3855.5340,N,09958.1841,W,542.3521,109.250,070510,,*39##0
$GPGSA,A,3,18,27,26,21,15,22,19,24,09,,,,0.0,1.2,0.0*39##1
$PGRME,0.50,M,0.56,M,0.00,M*18##896
$GPGGA,154254,3855.4844,N,09958.0023,W,1,09,1.20,11482.81,M,,,*2A##2
$GPRMC,154254,A,3855.4844,N,09958.0023,W,542.2937,109.260,070510,,*34##2
$GPGSA,A,3,18,27,26,21,15,22,19,24,09,,,,0.0,1.2,0.0*39##0
$PGRME,0.50,M,0.55,M,0.00,M*1B##1057
$GPGGA,154255,3855.4348,N,09957.8204,W,1,09,1.20,11483.06,M,,,*22##2
$GPRMC,154255,A,3855.4348,N,09957.8204,W,542.1965,109.250,070510,,*35##1
$GPGSA,A,3,18,27,26,21,15,22,19,24,09,,,,0.0,1.2,0.0*39##0
$PGRME,0.50,M,0.55,M,0.00,M*1B##936
$GPGGA,154256,3855.3852,N,09957.6386,W,1,09,1.20,11483.31,M,,,*27##2
$GPRMC,154256,A,3855.3852,N,09957.6386,W,542.2160,109.260,070510,,*39##2
$GPGSA,A,3,18,27,26,21,15,22,19,24,09,,,,0.0,1.2,0.0*39##1
$PGRME,0.51,M,0.55,M,0.00,M*1A##995
$GPGGA,154257,3855.3356,N,09957.4568,W,1,09,1.20,11483.54,M,,,*2E##3
$GPRMC,154257,A,3855.3356,N,09957.4568,W,542.2160,109.250,070510,,*30##1
$GPGSA,A,3,18,27,26,21,15,22,19,24,09,,,,0.0,1.2,0.0*39##0
$PGRME,0.51,M,0.55,M,0.00,M*1A##1056
$GPGGA,154258,3855.2860,N,09957.2749,W,1,09,1.20,11483.76,M,,,*29##2
$GPRMC,154258,A,3855.2860,N,09957.2749,W,542.1771,109.260,070510,,*31##2
$GPGSA,A,3,18,27,26,21,15,22,19,24,09,,,,0.0,1.2,0.0*39##0
$PGRME,0.51,M,0.55,M,0.00,M*1A##936
$GPGGA,154259,3855.2364,N,09957.0931,W,1,09,1.20,11483.98,M,,,*24##2
$GPRMC,154259,A,3855.2364,N,09957.0931,W,542.2937,109.260,070510,,*33##2
$GPGSA,A,3,18,27,26,21,15,22,19,24,09,,,,0.0,1.2,0.0*39##0
$PGRME,0.51,M,0.55,M,0.00,M*1A##1096
$GPGGA,154300,3855.1868,N,09956.9113,W,1,09,1.20,11484.20,M,,,*29##2
$GPRMC,154300,A,3855.1868,N,09956.9113,W,542.2354,109.260,070510,,*35##2
$GPGSA,A,3,18,27,26,21,15,22,19,24,09,,,,0.0,1.2,0.0*39##0
$PGRME,0.51,M,0.55,M,0.00,M*1A##1056
$GPGGA,154301,3855.1371,N,09956.7295,W,1,09,1.20,11484.41,M,,,*2F##2
$GPRMC,154301,A,3855.1371,N,09956.7295,W,542.2160,109.260,070510,,*31##2
$GPGSA,A,3,18,27,26,21,15,22,19,24,09,,,,0.0,1.2,0.0*39##0
$PGRME,0.51,M,0.55,M,0.00,M*1A##937
$GPGGA,154302,3855.0875,N,09956.5477,W,1,09,1.20,11484.65,M,,,*2C##2
$GPRMC,154302,A,3855.0875,N,09956.5477,W,542.1965,109.270,070510,,*3B##2
$GPGSA,A,3,18,27,26,21,15,22,19,24,09,,,,0.0,1.2,0.0*39##0
$PGRME,0.51,M,0.55,M,0.00,M*1A##987
$GPGGA,154303,3855.0379,N,09956.3659,W,1,09,1.20,11484.86,M,,,*2F##2
$GPRMC,154303,A,3855.0379,N,09956.3659,W,542.1771,109.270,070510,,*3E##1
$GPGSA,A,3,18,27,26,21,15,22,19,24,09,,,,0.0,1.2,0.0*39##0
$PGRME,0.51,M,0.55,M,0.00,M*1A##1055
$GPGGA,154304,3854.9882,N,09956.1841,W,1,09,1.20,11485.07,M,,,*22##2
$GPRMC,154304,A,3854.9882,N,09956.1841,W,542.1577,109.280,070510,,*30##2
$GPGSA,A,3,18,27,26,21,15,22,19,24,09,,,,0.0,1.2,0.0*39##0
$PGRME,0.51,M,0.55,M,0.00,M*1A##846
$GPGGA,154305,3854.9386,N,09956.0024,W,1,09,1.20,11485.27,M,,,*24##2
$GPRMC,154305,A,3854.9386,N,09956.0024,W,542.1382,109.280,070510,,*38##2
$GPGSA,A,3,18,27,26,21,15,22,19,24,09,,,,0.0,1.2,0.0*39##0
$PGRME,0.51,M,0.55,M,0.00,M*1A##1096
$GPGGA,154306,3854.8889,N,09955.8206,W,1,09,1.20,11485.47,M,,,*2D##2
$GPRMC,154306,A,3854.8889,N,09955.8206,W,542.1188,109.280,070510,,*3F##2
$GPGSA,A,3,18,27,26,21,15,22,19,24,09,,,,0.0,1.2,0.0*39##0
$PGRME,0.51,M,0.55,M,0.00,M*1A##446
$GPGSV,3,1,11,18,59,055,42,27,31,058,39,26,35,043,44,21,48,147,32*71##0
$GPGSV,3,2,11,24,70,154,37,15,05,048,41,22,66,325,37,19,21,303,32*7F##1
$GPGSV,3,3,11,03,22,271,23,09,37,072,42,06,27,261,23*46##609
$GPGGA,154307,3854.8392,N,09955.6389,W,1,09,1.20,11485.67,M,,,*27##2
$GPRMC,154307,A,3854.8392,N,09955.6389,W,542.0994,109.290,070510,,*32##2
$GPGSA,A,3,18,27,26,21,15,22,19,24,09,,,,0.0,1.2,0.0*39##0
$PGRME,0.51,M,0.55,M,0.00,M*1A##936
$GPGGA,154308,3854.7896,N,09955.4571,W,1,09,1.20,11485.89,M,,,*2B##2
$GPRMC,154308,A,3854.7896,N,09955.4571,W,542.0799,109.290,070510,,*3D##1
$GPGSA,A,3,18,27,26,21,15,22,19,24,09,,,,0.0,1.2,0.0*39##1
$PGRME,0.51,M,0.55,M,0.00,M*1A##997
$GPGGA,154309,3854.7399,N,09955.2754,W,1,09,1.20,11486.08,M,,,*27##1
$GPRMC,154309,A,3854.7399,N,09955.2754,W,542.0410,109.280,070510,,*38##2
$GPGSA,A,3,18,27,26,21,15,22,19,24,09,,,,0.0,1.2,0.0*39##0
$PGRME,0.51,M,0.55,M,0.00,M*1A##1046
$GPGGA,154310,3854.6903,N,09955.0937,W,1,09,1.20,11486.27,M,,,*23##2
$GPRMC,154310,A,3854.6903,N,09955.0937,W,542.0216,109.280,070510,,*31##1
$GPGSA,A,3,18,27,26,21,15,22,19,24,09,,,,0.0,1.2,0.0*39##1
$PGRME,0.51,M,0.55,M,0.00,M*1A##946
$GPGGA,154311,3854.6406,N,09954.9120,W,1,09,1.20,11486.45,M,,,*28##2
$GPRMC,154311,A,3854.6406,N,09954.9120,W,541.9633,109.290,070510,,*36##2
$GPGSA,A,3,18,27,26,21,15,22,19,24,09,,,,0.0,1.2,0.0*39##0
$PGRME,0.51,M,0.55,M,0.00,M*1A##997
$GPGGA,154312,3854.5909,N,09954.7304,W,1,09,1.20,11486.65,M,,,*22##2
$GPRMC,154312,A,3854.5909,N,09954.7304,W,541.9050,109.290,070510,,*3D##1
$GPGSA,A,3,18,27,26,21,15,22,19,24,09,,,,0.0,1.2,0.0*39##0
$PGRME,0.50,M,0.55,M,0.00,M*1B##1046
$GPGGA,154313,3854.5413,N,09954.5487,W,1,09,1.20,11486.87,M,,,*27##2
$GPRMC,154313,A,3854.5413,N,09954.5487,W,541.8661,109.290,070510,,*31##2
$GPGSA,A,3,18,27,26,21,15,22,19,24,09,,,,0.0,1.2,0.0*39##0
$PGRME,0.50,M,0.55,M,0.00,M*1B##941
$GPGGA,154314,3854.4916,N,09954.3671,W,1,09,1.20,11487.09,M,,,*23##1
$GPRMC,154314,A,3854.4916,N,09954.3671,W,541.7883,109.290,070510,,*3F##1
$GPGSA,A,3,18,27,26,21,15,22,19,24,09,,,,0.0,1.2,0.0*39##1
$PGRME,0.50,M,0.55,M,0.00,M*1B##999
$GPGGA,154315,3854.4420,N,09954.1855,W,1,09,1.20,11487.37,M,,,*2D##2
$GPRMC,154315,A,3854.4420,N,09954.1855,W,541.7106,109.300,070510,,*30##9
$GPGSA,A,3,18,27,26,21,15,22,19,24,09,,,,0.0,1.2,0.0*39##0
$PGRME,0.50,M,0.55,M,0.00,M*1B##1042
$GPGGA,154316,3854.3923,N,09954.0040,W,1,09,1.20,11487.66,M,,,*2E##2
$GPRMC,154316,A,3854.3923,N,09954.0040,W,541.6523,109.300,070510,,*35##1
$GPGSA,A,3,18,27,26,21,15,22,19,24,09,,,,0.0,1.2,0.0*39##1
$PGRME,0.50,M,0.55,M,0.00,M*1B##846
$GPGGA,154317,3854.3427,N,09953.8224,W,1,09,1.20,11488.02,M,,,*24##2
$GPRMC,154317,A,3854.3427,N,09953.8224,W,541.5745,109.310,070510,,*32##2
$GPGSA,A,3,18,27,26,21,15,22,19,24,09,,,,0.0,1.2,0.0*39##0
$PGRME,0.49,M,0.54,M,0.00,M*12##1096
$GPGGA,154318,3854.2930,N,09953.6409,W,1,09,1.20,11488.38,M,,,*2F##2
$GPRMC,154318,A,3854.2930,N,09953.6409,W,541.5162,109.310,070510,,*33##1
$GPGSA,A,3,18,27,26,21,15,22,19,24,09,,,,0.0,1.2,0.0*39##1
$PGRME,0.49,M,0.54,M,0.00,M*12##1046
$GPGGA,154319,3854.2433,N,09953.4595,W,1,09,1.20,11488.75,M,,,*2F##2
$GPRMC,154319,A,3854.2433,N,09953.4595,W,541.4579,109.320,070510,,*36##2
$GPGSA,A,3,18,27,26,21,15,22,19,24,09,,,,0.0,1.2,0.0*39##0
$PGRME,0.49,M,0.54,M,0.00,M*12##937
$GPGGA,154320,3854.1936,N,09953.2780,W,1,09,1.20,11489.14,M,,,*28##2
$GPRMC,154320,A,3854.1936,N,09953.2780,W,541.3607,109.320,070510,,*3A##1
$GPGSA,A,3,18,27,26,21,15,22,19,24,09,,,,0.0,1.2,0.0*39##1
$PGRME,0.49,M,0.54,M,0.00,M*12##996
$GPGGA,154321,3854.1439,N,09953.0966,W,1,09,1.20,11489.46,M,,,*28##2
$GPRMC,154321,A,3854.1439,N,09953.0966,W,541.3218,109.320,070510,,*37##1
$GPGSA,A,3,18,27,26,21,15,22,19,24,09,,,,0.0,1.2,0.0*39##1
$PGRME,0.49,M,0.55,M,0.00,M*13##445
$GPGSV,3,1,11,18,59,057,43,27,31,058,40,26,35,043,44,21,48,147,35*7B##0
$GPGSV,3,2,11,24,70,154,38,15,05,048,40,22,66,325,39,19,21,303,33*7E##1
$GPGSV,3,3,11,03,22,271,16,09,37,072,43,06,27,261,23*41##609
$GPGGA,154322,3854.0942,N,09952.9152,W,1,09,1.20,11489.77,M,,,*2E##2
$GPRMC,154322,A,3854.0942,N,09952.9152,W,541.2635,109.320,070510,,*39##1
$GPGSA,A,3,18,27,26,21,15,22,19,24,09,,,,0.0,1.2,0.0*39##1
$PGRME,0.49,M,0.55,M,0.00,M*13##937
$GPGGA,154323,3854.0445,N,09952.7339,W,1,09,1.20,11490.04,M,,,*28##2
$GPRMC,154323,A,3854.0445,N,09952.7339,W,541.1857,109.330,070510,,*3B##2
$GPGSA,A,3,18,27,26,21,15,22,19,24,09,,,,0.0,1.2,0.0*39##0
$PGRME,0.49,M,0.55,M,0.00,M*13##1005
$GPGGA,154324,3853.9948,N,09952.5526,W,1,09,1.20,11490.29,M,,,*24##2
$GPRMC,154324,A,3853.9948,N,09952.5526,W,541.1469,109.330,070510,,*39##1
$GPGSA,A,3,18,27,26,21,15,22,19,24,09,,,,0.0,1.2,0.0*39##1
$PGRME,0.49,M,0.56,M,0.00,M*10##1046
$GPGGA,154325,3853.9451,N,09952.3713,W,1,09,1.20,11490.54,M,,,*28##2
$GPRMC,154325,A,3853.9451,N,09952.3713,W,541.0497,109.330,070510,,*3F##1
$GPGSA,A,3,18,27,26,21,15,22,19,24,09,,,,0.0,1.2,0.0*39##1
$PGRME,0.49,M,0.56,M,0.00,M*10##946
$GPGGA,154326,3853.8954,N,09952.1900,W,1,09,1.20,11490.80,M,,,*25##2
$GPRMC,154326,A,3853.8954,N,09952.1900,W,541.0108,109.340,070510,,*3F##2
$GPGSA,A,3,18,27,26,21,15,22,19,24,09,,,,0.0,1.2,0.0*39##0
$PGRME,0.49,M,0.57,M,0.00,M*11##896
$GPGGA,154327,3853.8457,N,09952.0087,W,1,09,1.20,11491.01,M,,,*25##2
$GPRMC,154327,A,3853.8457,N,09952.0087,W,540.9914,109.350,070510,,*3B##2
$GPGSA,A,3,18,27,26,21,15,22,19,24,09,,,,0.0,1.2,0.0*39##0
$PGRME,0.49,M,0.57,M,0.00,M*11##1096
$GPGGA,154328,3853.7959,N,09951.8275,W,1,09,1.20,11491.22,M,,,*23##2
$GPRMC,154328,A,3853.7959,N,09951.8275,W,540.9330,109.360,070510,,*33##2
$GPGSA,A,3,18,27,26,21,15,22,19,24,09,,,,0.0,1.2,0.0*39##0
$PGRME,0.49,M,0.57,M,0.00,M*11##996
$GPGGA,154329,3853.7462,N,09951.6463,W,1,09,1.20,11491.42,M,,,*2E##2
$GPRMC,154329,A,3853.7462,N,09951.6463,W,540.8942,109.370,070510,,*37##2
$GPGSA,A,3,18,27,26,21,15,22,19,24,09,,,,0.0,1.2,0.0*39##0
$PGRME,0.50,M,0.58,M,0.00,M*16##988
$GPGGA,154330,3853.6964,N,09951.4652,W,1,09,1.20,11491.59,M,,,*24##1
$GPRMC,154330,A,3853.6964,N,09951.4652,W,540.8359,109.370,070510,,*37##2
$GPGSA,A,3,18,27,26,21,15,22,19,24,09,,,,0.0,1.2,0.0*39##0
$PGRME,0.50,M,0.58,M,0.00,M*16##1057
$GPGGA,154331,3853.6466,N,09951.2840,W,1,09,1.20,11491.75,M,,,*2F##2
$GPRMC,154331,A,3853.6466,N,09951.2840,W,540.7970,109.380,070510,,*33##2
$GPGSA,A,3,18,27,26,21,15,22,19,24,09,,,,0.0,1.2,0.0*39##0
$PGRME,0.50,M,0.58,M,0.00,M*16##945
$GPGGA,154332,3853.5968,N,09951.1029,W,1,09,1.20,11491.91,M,,,*22##2
$GPRMC,154332,A,3853.5968,N,09951.1029,W,540.7775,109.380,070510,,*3F##1
$GPGSA,A,3,18,27,26,21,15,22,19,24,09,,,,0.0,1.2,0.0*39##0
$PGRME,0.50,M,0.59,M,0.00,M*17##988
$GPGGA,154333,3853.5470,N,09950.9218,W,1,09,1.20,11492.07,M,,,*22##1
$GPRMC,154333,A,3853.5470,N,09950.9218,W,540.7387,109.380,070510,,*3A##1
$GPGSA,A,3,18,27,26,21,15,22,19,24,09,,,,0.0,1.2,0.0*39##1
$PGRME,0.50,M,0.59,M,0.00,M*17##1059
$GPGGA,154334,3853.4972,N,09950.7407,W,1,09,1.20,11492.35,M,,,*2C##1
$GPRMC,154334,A,3853.4972,N,09950.7407,W,540.5832,109.390,070510,,*33##2
$GPGSA,A,3,18,27,26,21,15,22,19,24,09,,,,0.0,1.2,0.0*39##0
$PGRME,0.50,M,0.59,M,0.00,M*17##843
$GPGGA,154335,3853.4474,N,09950.5596,W,1,09,1.20,11492.51,M,,,*2F##2
$GPRMC,154335,A,3853.4474,N,09950.5596,W,540.6415,109.390,070510,,*38##1
$GPGSA,A,3,18,27,26,21,15,22,19,24,09,,,,0.0,1.2,0.0*39##1
$PGRME,0.51,M,0.60,M,0.00,M*1C##1096
$GPGGA,154336,3853.3976,N,09950.3786,W,1,09,2.00,11492.72,M,,,*21##3
$GPRMC,154336,A,3853.3976,N,09950.3786,W,540.5637,109.390,070510,,*37##1
$GPGSA,A,3,18,27,26,21,15,22,19,24,09,,,,0.0,2.0,0.0*38##0
$PGRME,0.53,M,0.61,M,0.00,M*1F##446
$GPGSV,3,1,11,18,59,057,36,27,31,058,40,26,35,043,43,21,48,147,19*70##0
$GPGSV,3,2,11,24,70,154,31,15,05,048,39,22,66,325,39,19,21,303,34*7E##1
$GPGSV,3,3,11,03,22,271,22,09,37,072,29,06,27,261,22*4B##599
$GPGGA,154337,3853.3477,N,09950.1975,W,1,08,2.00,11492.97,M,,,*26##2
$GPRMC,154337,A,3853.3477,N,09950.1975,W,540.5443,109.390,070510,,*3B##1
$GPGSA,A,3,18,27,26,15,22,19,24,09,,,,,0.0,2.0,0.0*3B##1
$PGRME,0.56,M,0.62,M,0.00,M*19##836
$GPGGA,154338,3853.2979,N,09950.0165,W,1,08,2.00,11493.24,M,,,*2A##2
$GPRMC,154338,A,3853.2979,N,09950.0165,W,540.4860,109.400,070510,,*3C##2
$GPGSA,A,3,18,27,26,15,22,19,24,09,,,,,0.0,2.0,0.0*3B##0
$PGRME,0.58,M,0.63,M,0.00,M*16##1098
$GPGGA,154339,3853.2481,N,09949.8355,W,1,08,2.00,11493.54,M,,,*27##2
$GPRMC,154339,A,3853.2481,N,09949.8355,W,540.4471,109.410,070510,,*3B##1
$GPGSA,A,3,18,27,26,15,22,19,24,09,,,,,0.0,2.0,0.0*3B##0
$PGRME,0.60,M,0.64,M,0.00,M*1A##1055
$GPGGA,154340,3853.1983,N,09949.6546,W,1,08,2.00,11493.91,M,,,*26##2
$GPRMC,154340,A,3853.1983,N,09949.6546,W,540.3499,109.390,070510,,*3D##2
$GPGSA,A,3,18,27,26,15,22,19,24,09,,,,,0.0,2.0,0.0*3B##0
$PGRME,0.62,M,0.65,M,0.00,M*19##846
$GPGGA,154341,3853.1485,N,09949.4736,W,1,08,2.00,11494.26,M,,,*20##2
$GPRMC,154341,A,3853.1485,N,09949.4736,W,540.2916,109.380,070510,,*3A##2
$GPGSA,A,3,18,27,26,15,22,19,24,09,,,,,0.0,2.0,0.0*3B##0
$PGRME,0.65,M,0.66,M,0.00,M*1D##996
$GPGGA,154342,3853.0988,N,09949.2927,W,1,08,2.00,11494.64,M,,,*2C##2
$GPRMC,154342,A,3853.0988,N,09949.2927,W,540.2527,109.380,070510,,*3E##1
$GPGSA,A,3,18,27,26,15,22,19,24,09,,,,,0.0,2.0,0.0*3B##0
$PGRME,0.68,M,0.67,M,0.00,M*11##1057
$GPGGA,154343,3853.0488,N,09949.1118,W,1,08,2.00,11494.90,M,,,*2C##2
$GPRMC,154343,A,3853.0488,N,09949.1118,W,540.3693,109.440,070510,,*33##2
$GPGSA,A,3,18,27,26,15,22,19,24,09,,,,,0.0,2.0,0.0*3B##0
$PGRME,0.70,M,0.68,M,0.00,M*17##936
$GPGGA,154344,3852.9989,N,09948.9309,W,1,08,2.00,11495.19,M,,,*24##2
$GPRMC,154344,A,3852.9989,N,09948.9309,W,540.2721,109.430,070510,,*35##2
$GPGSA,A,3,18,27,26,15,22,19,24,09,,,,,0.0,2.0,0.0*3B##0
$PGRME,0.72,M,0.69,M,0.00,M*14##996
$GPGGA,154345,3852.9490,N,09948.7500,W,1,08,2.00,11495.44,M,,,*29##2
$GPRMC,154345,A,3852.9490,N,09948.7500,W,540.2721,109.430,070510,,*30##1
$GPGSA,A,3,18,27,26,15,22,19,24,09,,,,,0.0,2.0,0.0*3B##0
$PGRME,0.76,M,0.70,M,0.00,M*18##1107
$GPGGA,154346,3852.8991,N,09948.5692,W,1,08,2.00,11495.68,M,,,*23##2
$GPRMC,154346,A,3852.8991,N,09948.5692,W,540.1944,109.400,070510,,*39##2
$GPGSA,A,3,18,27,26,15,22,19,24,09,,,,,0.0,2.0,0.0*3B##0
$PGRME,0.78,M,0.71,M,0.00,M*17##886
$GPGGA,154347,3852.8491,N,09948.3883,W,1,08,1.80,11495.85,M,,,*2F##3
$GPRMC,154347,A,3852.8491,N,09948.3883,W,540.2721,109.460,070510,,*35##1
$GPGSA,A,3,18,27,26,15,22,19,24,09,,,,,0.0,1.8,0.0*30##0
$PGRME,0.80,M,0.72,M,0.00,M*13##996
$GPGGA,154348,3852.7991,N,09948.2075,W,1,08,1.80,11496.00,M,,,*2C##2
$GPRMC,154348,A,3852.7991,N,09948.2075,W,540.2527,109.470,070510,,*3D##2
$GPGSA,A,3,18,27,26,15,22,19,24,09,,,,,0.0,1.8,0.0*30##0
$PGRME,0.81,M,0.73,M,0.00,M*13##1056
$GPGGA,154349,3852.7492,N,09948.0267,W,1,08,1.80,11496.23,M,,,*21##2
$GPRMC,154349,A,3852.7492,N,09948.0267,W,540.2333,109.470,070510,,*32##1
$GPGSA,A,3,18,27,26,15,22,19,24,09,,,,,0.0,1.8,0.0*30##0
$PGRME,0.83,M,0.74,M,0.00,M*16##937
$GPGGA,154350,3852.6994,N,09947.8459,W,1,08,1.80,11496.41,M,,,*2B##2
$GPRMC,154350,A,3852.6994,N,09947.8459,W,540.1944,109.460,070510,,*34##2
$GPGSA,A,3,18,27,26,15,22,19,24,09,,,,,0.0,1.8,0.0*30##0
$PGRME,0.84,M,0.74,M,0.00,M*11##996
$GPGGA,154351,3852.6493,N,09947.6651,W,1,08,1.80,11496.50,M,,,*24##2
$GPRMC,154351,A,3852.6493,N,09947.6651,W,540.2138,109.470,070510,,*3A##2
$GPGSA,A,3,18,27,26,15,22,19,24,09,,,,,0.0,1.8,0.0*30##0
$PGRME,0.85,M,0.75,M,0.00,M*11##446
$GPGSV,3,1,11,18,59,057,32,27,31,058,40,26,35,043,41,14,48,226,21*7F##0
$GPGSV,3,2,11,24,70,154,17,15,05,048,38,22,66,327,34,19,21,303,28*79##0
$GPGSV,3,3,11,21,48,147,00,09,37,072,30,06,27,261,20*4B##610
$GPGGA,154352,3852.5993,N,09947.4843,W,1,08,1.80,11496.54,M,,,*22##2
$GPRMC,154352,A,3852.5993,N,09947.4843,W,540.2138,109.460,070510,,*39##1
$GPGSA,A,3,18,27,26,15,22,19,24,09,,,,,0.0,1.8,0.0*30##0
$PGRME,0.86,M,0.76,M,0.00,M*11##937
$GPGGA,154353,3852.5492,N,09947.3035,W,1,08,4.20,11496.57,M,,,*2D##3
$GPRMC,154353,A,3852.5492,N,09947.3035,W,540.3110,109.500,070510,,*36##1
$GPGSA,A,3,18,27,26,15,22,19,24,09,,,,,0.0,4.2,0.0*3F##0
$PGRME,0.88,M,0.77,M,0.00,M*1E##986
$GPGGA,154354,3852.4991,N,09947.1227,W,1,07,4.20,11496.58,M,,,*26##2
$GPRMC,154354,A,3852.4991,N,09947.1227,W,540.2721,109.500,070510,,*38##1
$GPGSA,A,3,18,27,26,15,22,19,09,,,,,,0.0,4.2,0.0*39##0
$PGRME,0.90,M,0.78,M,0.00,M*18##1107
$GPGGA,154355,3852.4490,N,09946.9420,W,1,07,4.20,11496.58,M,,,*23##2
$GPRMC,154355,A,3852.4490,N,09946.9420,W,540.2721,109.490,070510,,*35##1
$GPGSA,A,3,18,27,26,15,22,19,09,,,,,,0.0,4.2,0.0*39##0
$PGRME,0.91,M,0.78,M,0.00,M*19##897
$GPGGA,154356,3852.3987,N,09946.7612,W,1,07,1.80,11496.48,M,,,*2F##3
$GPRMC,154356,A,3852.3987,N,09946.7612,W,540.1166,109.440,070510,,*3C##1
$GPGSA,A,3,18,27,26,15,22,19,09,,,,,,0.0,1.8,0.0*36##0
$PGRME,0.92,M,0.79,M,0.00,M*1B##996
$GPGGA,154357,3852.3489,N,09946.5804,W,1,08,4.20,11496.60,M,,,*2C##3
$GPRMC,154357,A,3852.3489,N,09946.5804,W,540.0194,109.400,070510,,*3D##1
$GPGSA,A,3,18,27,26,15,22,19,24,09,,,,,0.0,4.2,0.0*3F##0
$PGRME,0.95,M,0.80,M,0.00,M*1A##1096
$GPGGA,154358,3852.2986,N,09946.3996,W,1,07,1.80,11496.47,M,,,*29##3
$GPRMC,154358,A,3852.2986,N,09946.3996,W,540.1555,109.430,070510,,*36##1
$GPGSA,A,3,18,27,26,15,22,19,09,,,,,,0.0,1.8,0.0*36##0
$PGRME,0.96,M,0.81,M,0.00,M*18##886
$GPGGA,154359,3852.2486,N,09946.2188,W,1,08,1.80,11496.43,M,,,*28##2
$GPRMC,154359,A,3852.2486,N,09946.2188,W,540.2333,109.460,070510,,*3C##1
$GPGSA,A,3,18,27,26,15,22,19,24,09,,,,,0.0,1.8,0.0*30##1
$PGRME,0.97,M,0.82,M,0.00,M*1A##1098
$GPGGA,154400,3852.1983,N,09946.0381,W,1,08,1.80,11496.30,M,,,*25##2
$GPRMC,154400,A,3852.1983,N,09946.0381,W,540.3110,109.510,070510,,*31##1
$GPGSA,A,3,18,27,26,15,22,19,24,09,,,,,0.0,1.8,0.0*30##0
$PGRME,0.97,M,0.82,M,0.00,M*1A##1055
$GPGGA,154401,3852.1479,N,09945.8573,W,1,08,1.20,11496.04,M,,,*21##3
$GPRMC,154401,A,3852.1479,N,09945.8573,W,540.3888,109.550,070510,,*34##1
$GPGSA,A,3,18,27,26,15,22,19,24,09,,,,,0.0,1.2,0.0*3A##0
$PGRME,0.95,M,0.82,M,0.00,M*18##846
$GPGGA,154402,3852.0980,N,09945.6766,W,1,09,1.20,11496.15,M,,,*21##2
$GPRMC,154402,A,3852.0980,N,09945.6766,W,540.3305,109.570,070510,,*39##2
$GPGSA,A,3,18,27,26,15,22,21,19,24,09,,,,0.0,1.2,0.0*39##0
$PGRME,0.91,M,0.81,M,0.00,M*1F##996
$GPGGA,154403,3852.0483,N,09945.4958,W,1,09,1.20,11496.52,M,,,*2C##2
$GPRMC,154403,A,3852.0483,N,09945.4958,W,540.0194,109.510,070510,,*38##1
$GPGSA,A,3,18,27,26,15,22,21,19,24,09,,,,0.0,1.2,0.0*39##1
$PGRME,0.88,M,0.80,M,0.00,M*16##1056
$GPGGA,154404,3851.9982,N,09945.3153,W,1,09,1.20,11496.65,M,,,*2D##2
$GPRMC,154404,A,3851.9982,N,09945.3153,W,539.8834,109.630,070510,,*39##1
$GPGSA,A,3,18,27,26,15,22,21,19,24,09,,,,0.0,1.2,0.0*39##1
$PGRME,0.85,M,0.80,M,0.00,M*1B##936
$GPGGA,154405,3851.9479,N,09945.1349,W,1,09,1.20,11497.00,M,,,*2C##2
$GPRMC,154405,A,3851.9479,N,09945.1349,W,539.7862,109.750,070510,,*31##1
$GPGSA,A,3,18,27,26,15,22,21,19,24,09,,,,0.0,1.2,0.0*39##1
$PGRME,0.83,M,0.80,M,0.00,M*1D##996
$GPGGA,154406,3851.8971,N,09944.9548,W,1,09,1.20,11497.14,M,,,*20##2
$GPRMC,154406,A,3851.8971,N,09944.9548,W,539.3002,110.000,070510,,*38##1
$GPGSA,A,3,18,27,26,15,22,21,19,24,09,,,,0.0,1.2,0.0*39##1
$PGRME,0.81,M,0.80,M,0.00,M*1F##446
$GPGSV,3,1,11,18,59,057,35,27,31,058,30,26,35,043,41,14,48,226,21*7F##0
$GPGSV,3,2,11,24,70,154,29,15,05,048,38,22,66,327,32,19,21,303,27*7D##0
$GPGSV,3,3,11,21,48,147,25,09,37,072,39,06,27,261,18*4E##610
$GPGGA,154407,3851.8455,N,09944.7753,W,1,09,1.20,11496.92,M,,,*23##2
$GPRMC,154407,A,3851.8455,N,09944.7753,W,538.8920,110.280,070510,,*3D##1
$GPGSA,A,3,18,27,26,15,22,21,19,24,09,,,,0.0,1.2,0.0*39##1
$PGRME,0.79,M,0.79,M,0.00,M*1E##936
$GPGGA,154408,3851.7937,N,09944.5964,W,1,09,1.20,11497.12,M,,,*2B##2
$GPRMC,154408,A,3851.7937,N,09944.5964,W,538.3477,110.570,070510,,*30##1
$GPGSA,A,3,18,27,26,15,22,21,19,24,09,,,,0.0,1.2,0.0*39##1
$PGRME,0.73,M,0.78,M,0.00,M*15##996
$GPGGA,154409,3851.7404,N,09944.4180,W,1,09,1.20,11496.65,M,,,*25##2
$GPRMC,154409,A,3851.7404,N,09944.4180,W,537.8423,110.910,070510,,*30##1
$GPGSA,A,3,18,27,26,15,22,21,19,24,09,,,,0.0,1.2,0.0*39##1
$PGRME,0.70,M,0.78,M,0.00,M*16##1096
$GPGGA,154410,3851.6865,N,09944.2401,W,1,09,1.20,11496.30,M,,,*2D##2
$GPRMC,154410,A,3851.6865,N,09944.2401,W,537.3369,111.250,070510,,*34##1
$GPGSA,A,3,18,27,26,15,22,21,19,24,09,,,,0.0,1.2,0.0*39##1
$PGRME,0.68,M,0.78,M,0.00,M*1F##896
$GPGGA,154411,3851.6317,N,09944.0629,W,1,09,1.20,11495.87,M,,,*27##2
$GPRMC,154411,A,3851.6317,N,09944.0629,W,536.8899,111.620,070510,,*3C##1
$GPGSA,A,3,18,27,26,15,22,21,19,24,09,,,,0.0,1.2,0.0*39##1
$PGRME,0.67,M,0.79,M,0.00,M*11##996
$GPGGA,154412,3851.5761,N,09943.8862,W,1,09,1.20,11495.42,M,,,*25##2
$GPRMC,154412,A,3851.5761,N,09943.8862,W,536.6566,111.930,070510,,*3A##1
$GPGSA,A,3,18,27,26,15,22,21,19,24,09,,,,0.0,1.2,0.0*39##1
$PGRME,0.67,M,0.79,M,0.00,M*11##1056
$GPGGA,154413,3851.5198,N,09943.7101,W,1,09,1.20,11494.98,M,,,*21##2
$GPRMC,154413,A,3851.5198,N,09943.7101,W,535.8791,112.300,070510,,*35##1
$GPGSA,A,3,18,27,26,15,22,21,19,24,09,,,,0.0,1.2,0.0*39##1
$PGRME,0.66,M,0.79,M,0.00,M*10##936
$GPGGA,154414,3851.4629,N,09943.5346,W,1,09,1.20,11494.86,M,,,*26##2
$GPRMC,154414,A,3851.4629,N,09943.5346,W,535.2959,112.570,070510,,*3C##1
$GPGSA,A,3,18,27,26,15,22,21,19,24,09,,,,0.0,1.2,0.0*39##1
$PGRME,0.66,M,0.79,M,0.00,M*10##996
$GPGGA,154415,3851.4056,N,09943.3597,W,1,09,1.20,11495.07,M,,,*2D##2
$GPRMC,154415,A,3851.4056,N,09943.3597,W,534.9071,112.840,070510,,*38##1
$GPGSA,A,3,18,27,26,15,22,21,19,24,09,,,,0.0,1.2,0.0*39##1
$PGRME,0.65,M,0.78,M,0.00,M*12##1146
$GPGGA,154416,3851.3477,N,09943.1851,W,1,09,1.20,11495.27,M,,,*29##2
$GPRMC,154416,A,3851.3477,N,09943.1851,W,534.5961,112.970,070510,,*38##1
$GPGSA,A,3,18,27,26,15,22,21,19,24,09,,,,0.0,1.2,0.0*39##1
$PGRME,0.65,M,0.78,M,0.00,M*12##846
$GPGGA,154417,3851.2896,N,09943.0107,W,1,09,1.20,11495.38,M,,,*2F##2
$GPRMC,154417,A,3851.2896,N,09943.0107,W,534.5184,113.090,070510,,*35##1
$GPGSA,A,3,18,27,26,15,22,21,19,24,09,,,,0.0,1.2,0.0*39##1
$PGRME,0.63,M,0.77,M,0.00,M*1B##996
$GPGGA,154418,3851.2312,N,09942.8363,W,1,09,1.20,11495.38,M,,,*2E##2
$GPRMC,154418,A,3851.2312,N,09942.8363,W,534.4017,113.120,070510,,*34##1
$GPGSA,A,3,18,27,26,15,22,21,19,24,09,,,,0.0,1.2,0.0*39##0
$PGRME,0.62,M,0.77,M,0.00,M*1A##1057
$GPGGA,154419,3851.1731,N,09942.6622,W,1,09,1.20,11496.03,M,,,*2C##2
$GPRMC,154419,A,3851.1731,N,09942.6622,W,534.2657,113.120,070510,,*39##1
$GPGSA,A,3,18,27,26,15,22,21,19,24,09,,,,0.0,1.2,0.0*39##0
$PGRME,0.61,M,0.77,M,0.00,M*19##938
$GPGGA,154420,3851.1150,N,09942.4880,W,1,09,1.20,11496.70,M,,,*27##1
$GPRMC,154420,A,3851.1150,N,09942.4880,W,534.2462,113.110,070510,,*31##2
$GPGSA,A,3,18,27,26,15,22,21,19,24,09,,,,0.0,1.2,0.0*39##0
$PGRME,0.61,M,0.77,M,0.00,M*19##997
$GPGGA,154421,3851.0568,N,09942.3138,W,1,09,1.20,11497.00,M,,,*23##1
$GPRMC,154421,A,3851.0568,N,09942.3138,W,534.2073,113.090,070510,,*3E##1
$GPGSA,A,3,18,27,26,15,22,21,19,24,09,,,,0.0,1.2,0.0*39##1
$PGRME,0.61,M,0.77,M,0.00,M*19##446
$GPGSV,3,1,11,18,59,057,34,27,31,058,38,26,35,043,38,14,48,228,14*70##0
$GPGSV,3,2,11,24,69,154,27,15,05,048,39,22,66,327,30,19,21,303,29*76##0
$GPGSV,3,3,11,21,48,148,27,09,37,070,33,06,26,259,18*41##652
$GPGGA,154422,3850.9986,N,09942.1395,W,1,09,1.20,11497.23,M,,,*22##2
$GPRMC,154422,A,3850.9986,N,09942.1395,W,534.1490,113.080,070510,,*35##1
$GPGSA,A,3,18,27,26,15,22,21,19,24,09,,,,0.0,1.2,0.0*39##0
$PGRME,0.61,M,0.76,M,0.00,M*18##895
$GPGGA,154423,3850.9404,N,09941.9652,W,1,09,1.20,11497.45,M,,,*21##2
$GPRMC,154423,A,3850.9404,N,09941.9652,W,534.1102,113.080,070510,,*38##1
$GPGSA,A,3,18,27,26,15,22,21,19,24,09,,,,0.0,1.2,0.0*39##0
$PGRME,0.61,M,0.76,M,0.00,M*18##997
$GPGGA,154424,3850.8822,N,09941.7910,W,1,09,1.20,11497.66,M,,,*29##2
$GPRMC,154424,A,3850.8822,N,09941.7910,W,534.0518,113.090,070510,,*3E##1
$GPGSA,A,3,18,27,26,15,22,21,19,24,09,,,,0.0,1.2,0.0*39##1
$PGRME,0.61,M,0.76,M,0.00,M*18##1056
$GPGGA,154425,3850.8240,N,09941.6167,W,1,09,1.20,11497.84,M,,,*23##2
$GPRMC,154425,A,3850.8240,N,09941.6167,W,534.0130,113.100,070510,,*3E##2
$GPGSA,A,3,18,27,26,15,22,21,19,24,09,,,,0.0,1.2,0.0*39##0
$PGRME,0.60,M,0.76,M,0.00,M*19##936
$GPGGA,154426,3850.7658,N,09941.4425,W,1,09,1.20,11498.03,M,,,*23##2
$GPRMC,154426,A,3850.7658,N,09941.4425,W,534.0130,113.120,070510,,*3C##1
$GPGSA,A,3,18,27,26,15,22,21,19,24,09,,,,0.0,1.2,0.0*39##0
$PGRME,0.60,M,0.75,M,0.00,M*1A##997
$GPGGA,154427,3850.7075,N,09941.2684,W,1,09,1.20,11498.20,M,,,*25##2
$GPRMC,154427,A,3850.7075,N,09941.2684,W,533.9546,113.130,070510,,*31##1
$GPGSA,A,3,18,27,26,15,22,21,19,24,09,,,,0.0,1.2,0.0*39##1
$PGRME,0.59,M,0.75,M,0.00,M*10##1056
$GPGGA,154428,3850.6492,N,09941.0942,W,1,09,1.20,11498.42,M,,,*25##2
$GPRMC,154428,A,3850.6492,N,09941.0942,W,533.9352,113.170,070510,,*32##1
$GPGSA,A,3,18,27,26,15,22,21,19,24,09,,,,0.0,1.2,0.0*39##1
$PGRME,0.59,M,0.74,M,0.00,M*11##936
$GPGGA,154429,3850.5909,N,09940.9201,W,1,08,1.20,11498.60,M,,,*2D##2
$GPRMC,154429,A,3850.5909,N,09940.9201,W,533.8575,113.190,070510,,*37##1
$GPGSA,A,3,27,26,15,22,21,19,24,09,,,,,0.0,1.2,0.0*30##1
$PGRME,0.58,M,0.73,M,0.00,M*17##996
$GPGGA,154430,3850.5324,N,09940.7461,W,1,09,1.20,11498.66,M,,,*29##2
$GPRMC,154430,A,3850.5324,N,09940.7461,W,533.7991,113.210,070510,,*36##1
$GPGSA,A,3,18,27,26,15,22,21,19,24,09,,,,0.0,1.2,0.0*39##1
$PGRME,0.58,M,0.73,M,0.00,M*17##1056
$GPGGA,154431,3850.4739,N,09940.5721,W,1,09,1.20,11498.67,M,,,*25##2
$GPRMC,154431,A,3850.4739,N,09940.5721,W,533.7408,113.240,070510,,*33##1
$GPGSA,A,3,18,27,26,15,22,21,19,24,09,,,,0.0,1.2,0.0*39##0
$PGRME,0.58,M,0.72,M,0.00,M*16##937
$GPGGA,154432,3850.4154,N,09940.3982,W,1,09,1.20,11498.70,M,,,*2C##4
$GPRMC,154432,A,3850.4154,N,09940.3982,W,533.6631,113.260,070510,,*37##1
$GPGSA,A,3,18,27,26,15,22,21,19,24,09,,,,0.0,1.2,0.0*39##1
$PGRME,0.57,M,0.72,M,0.00,M*19##994
$GPGGA,154433,3850.3568,N,09940.2243,W,1,09,1.20,11498.72,M,,,*24##2
$GPRMC,154433,A,3850.3568,N,09940.2243,W,533.6436,113.290,070510,,*37##1
$GPGSA,A,3,18,27,26,15,22,21,19,24,09,,,,0.0,1.2,0.0*39##0
$PGRME,0.57,M,0.71,M,0.00,M*1A##1057
$GPGGA,154434,3850.2981,N,09940.0505,W,1,09,1.20,11498.60,M,,,*2D##2
$GPRMC,154434,A,3850.2981,N,09940.0505,W,533.5464,113.300,070510,,*31##1
$GPGSA,A,3,18,27,26,15,22,21,19,24,09,,,,0.0,1.2,0.0*39##0
$PGRME,0.57,M,0.70,M,0.00,M*1B##937
$GPGGA,154435,3850.2394,N,09939.8767,W,1,09,1.20,11498.47,M,,,*27##2
$GPRMC,154435,A,3850.2394,N,09939.8767,W,533.5464,113.320,070510,,*3C##1
$GPGSA,A,3,18,27,26,15,22,21,19,24,09,,,,0.0,1.2,0.0*39##0
$PGRME,0.57,M,0.69,M,0.00,M*13##997
$GPGGA,154436,3850.1807,N,09939.7030,W,1,09,1.20,11498.36,M,,,*2A##2
$GPRMC,154436,A,3850.1807,N,09939.7030,W,533.4687,113.340,070510,,*3F##1
$GPGSA,A,3,18,27,26,15,22,21,19,24,09,,,,0.0,1.2,0.0*39##0
$PGRME,0.56,M,0.69,M,0.00,M*12##447
$GPGSV,3,1,11,18,59,057,32,27,31,058,41,26,35,043,42,14,48,228,22*70##0
$GPGSV,3,2,11,24,69,154,29,15,05,048,40,22,66,327,32,19,21,303,29*74##0
$GPGSV,3,3,11,21,48,148,27,09,37,070,39,06,26,259,18*4B##610
$GPGGA,154437,3850.1220,N,09939.5293,W,1,09,1.20,11498.29,M,,,*23##2
$GPRMC,154437,A,3850.1220,N,09939.5293,W,533.4298,113.360,070510,,*30##1
$GPGSA,A,3,18,27,26,15,22,21,19,24,09,,,,0.0,1.2,0.0*39##0
$PGRME,0.56,M,0.68,M,0.00,M*13##937
$GPGGA,154438,3850.0632,N,09939.3556,W,1,09,1.20,11498.24,M,,,*2F##2
$GPRMC,154438,A,3850.0632,N,09939.3556,W,533.3326,113.370,070510,,*33##1
$GPGSA,A,3,18,27,26,15,22,21,19,24,09,,,,0.0,1.2,0.0*39##1
$PGRME,0.56,M,0.67,M,0.00,M*1C##996
$GPGGA,154439,3850.0044,N,09939.1820,W,1,09,1.20,11498.23,M,,,*20##2
$GPRMC,154439,A,3850.0044,N,09939.1820,W,533.2937,113.390,070510,,*3E##1
$GPGSA,A,3,18,27,26,15,22,21,19,24,09,,,,0.0,1.2,0.0*39##0
$PGRME,0.56,M,0.67,M,0.00,M*1C##1057
$GPGGA,154440,3849.9456,N,09939.0084,W,1,09,1.20,11498.27,M,,,*2B##2
$GPRMC,154440,A,3849.9456,N,09939.0084,W,533.2160,113.400,070510,,*35##1
$GPGSA,A,3,18,27,26,15,22,21,19,24,09,,,,0.0,1.2,0.0*39##0
$PGRME,0.56,M,0.66,M,0.00,M*1D##937
$GPGGA,154441,3849.8868,N,09938.8348,W,1,09,1.20,11498.35,M,,,*23##2
$GPRMC,154441,A,3849.8868,N,09938.8348,W,533.1577,113.410,070510,,*3E##1
$GPGSA,A,3,18,27,26,15,22,21,19,24,09,,,,0.0,1.2,0.0*39##0
$PGRME,0.56,M,0.66,M,0.00,M*1D##997
$GPGGA,154442,3849.8280,N,09938.6613,W,1,09,1.20,11498.45,M,,,*2E##2
$GPRMC,154442,A,3849.8280,N,09938.6613,W,533.0799,113.420,070510,,*34##1
$GPGSA,A,3,18,27,26,15,22,21,19,24,09,,,,0.0,1.2,0.0*39##0
$PGRME,0.56,M,0.66,M,0.00,M*1D##1057
$GPGGA,154443,3849.7692,N,09938.4878,W,1,09,1.20,11498.60,M,,,*21##2
$GPRMC,154443,A,3849.7692,N,09938.4878,W,533.0022,113.430,070510,,*3A##1
$GPGSA,A,3,18,27,26,15,22,21,19,24,09,,,,0.0,1.2,0.0*39##0
$PGRME,0.56,M,0.65,M,0.00,M*1E##937
$GPGGA,154444,3849.7103,N,09938.3143,W,1,09,1.20,11498.77,M,,,*29##2
$GPRMC,154444,A,3849.7103,N,09938.3143,W,532.9438,113.430,070510,,*33##1
$GPGSA,A,3,18,27,26,15,22,21,19,24,09,,,,0.0,1.2,0.0*39##0
$PGRME,0.56,M,0.65,M,0.00,M*1E##997
$GPGGA,154445,3849.6515,N,09938.1409,W,1,09,1.20,11498.96,M,,,*2C##2
$GPRMC,154445,A,3849.6515,N,09938.1409,W,532.8467,113.430,070510,,*32##1
$GPGSA,A,3,18,27,26,15,22,21,19,24,09,,,,0.0,1.2,0.0*39##0
$PGRME,0.56,M,0.65,M,0.00,M*1E##1057
$GPGGA,154446,3849.5927,N,09937.9675,W,1,09,1.20,11499.16,M,,,*26##2
$GPRMC,154446,A,3849.5927,N,09937.9675,W,532.8078,113.430,070510,,*3B##1
$GPGSA,A,3,18,27,26,15,22,21,19,24,09,,,,0.0,1.2,0.0*39##0
$PGRME,0.56,M,0.64,M,0.00,M*1F##937
$GPGGA,154447,3849.5339,N,09937.7941,W,1,09,1.20,11499.40,M,,,*27##2
$GPRMC,154447,A,3849.5339,N,09937.7941,W,532.7300,113.430,070510,,*3A##1
$GPGSA,A,3,18,27,26,15,22,21,19,24,09,,,,0.0,1.2,0.0*39##0
$PGRME,0.55,M,0.64,M,0.00,M*1C##998
$GPGGA,154448,3849.4751,N,09937.6207,W,1,09,1.20,11499.65,M,,,*2C##1
$GPRMC,154448,A,3849.4751,N,09937.6207,W,532.7106,113.420,070510,,*33##1
$GPGSA,A,3,18,27,26,15,22,21,19,24,09,,,,0.0,1.2,0.0*39##1
$PGRME,0.55,M,0.64,M,0.00,M*1C##1056
$GPGGA,154449,3849.4163,N,09937.4473,W,1,09,1.20,11499.93,M,,,*24##2
$GPRMC,154449,A,3849.4163,N,09937.4473,W,532.6523,113.410,070510,,*33##1
$GPGSA,A,3,18,27,26,15,22,21,19,24,09,,,,0.0,1.2,0.0*39##0
$PGRME,0.55,M,0.63,M,0.00,M*1B##937
$GPGGA,154450,3849.3576,N,09937.2739,W,1,09,1.20,11500.23,M,,,*2A##2
$GPRMC,154450,A,3849.3576,N,09937.2739,W,532.6134,113.400,070510,,*34##1
$GPGSA,A,3,18,27,26,15,22,21,19,24,09,,,,0.0,1.2,0.0*39##0
$PGRME,0.55,M,0.63,M,0.00,M*1B##997
$GPGGA,154451,3849.2990,N,09937.1005,W,1,09,1.20,11500.52,M,,,*23##2
$GPRMC,154451,A,3849.2990,N,09937.1005,W,532.5551,113.390,070510,,*31##1
$GPGSA,A,3,18,27,26,15,22,21,19,24,09,,,,0.0,1.2,0.0*39##0
$PGRME,0.55,M,0.63,M,0.00,M*1B##457
$GPGSV,3,1,11,18,59,057,33,27,31,057,41,26,34,043,41,14,48,228,22*7C##0
$GPGSV,3,2,11,24,69,154,28,15,04,048,40,22,66,327,31,19,21,303,27*79##0
$GPGSV,3,3,11,21,47,148,28,09,37,070,34,06,26,259,18*46##600
$GPGGA,154452,3849.2403,N,09936.9272,W,1,09,1.20,11500.81,M,,,*22##2
$GPRMC,154452,A,3849.2403,N,09936.9272,W,532.5162,113.380,070510,,*3B##1
$GPGSA,A,3,18,27,26,15,22,21,19,24,09,,,,0.0,1.2,0.0*39##0
$PGRME,0.55,M,0.63,M,0.00,M*1B##937
$GPGGA,154453,3849.1817,N,09936.7538,W,1,09,1.20,11501.10,M,,,*27##2
$GPRMC,154453,A,3849.1817,N,09936.7538,W,532.4579,113.370,070510,,*37##1
$GPGSA,A,3,18,27,26,15,22,21,19,24,09,,,,0.0,1.2,0.0*39##1
$PGRME,0.55,M,0.62,M,0.00,M*1A##996
$GPGGA,154454,3849.1231,N,09936.5804,W,1,09,1.20,11501.41,M,,,*2A##2
$GPRMC,154454,A,3849.1231,N,09936.5804,W,532.3801,113.360,070510,,*3A##1
$GPGSA,A,3,18,27,26,15,22,21,19,24,09,,,,0.0,1.2,0.0*39##0
$PGRME,0.55,M,0.62,M,0.00,M*1A##1057
$GPGGA,154455,3849.0645,N,09936.4071,W,1,09,1.20,11501.69,M,,,*2C##2
$GPRMC,154455,A,3849.0645,N,09936.4071,W,532.3607,113.350,070510,,*3D##3
$GPGSA,A,3,18,27,26,15,22,21,19,24,09,,,,0.0,1.2,0.0*39##0
$PGRME,0.55,M,0.62,M,0.00,M*1A##935
$GPGGA,154456,3849.0060,N,09936.2338,W,1,09,1.20,11501.97,M,,,*27##2
$GPRMC,154456,A,3849.0060,N,09936.2338,W,532.3024,113.340,070510,,*31##1
$GPGSA,A,3,18,27,26,15,22,21,19,24,09,,,,0.0,1.2,0.0*39##0
$PGRME,0.55,M,0.62,M,0.00,M*1A##997
$GPGGA,154457,3848.9474,N,09936.0604,W,1,09,1.20,11502.22,M,,,*2A##2
$GPRMC,154457,A,3848.9474,N,09936.0604,W,532.2829,113.330,070510,,*32##1
$GPGSA,A,3,18,27,26,15,22,21,19,24,09,,,,0.0,1.2,0.0*39##0
$PGRME,0.55,M,0.62,M,0.00,M*1A##1057
$GPGGA,154458,3848.8889,N,09935.8871,W,1,09,1.20,11502.46,M,,,*2F##2
$GPRMC,154458,A,3848.8889,N,09935.8871,W,532.2052,113.320,070510,,*30##1
$GPGSA,A,3,18,27,26,15,22,21,19,24,09,,,,0.0,1.2,0.0*39##0
$PGRME,0.55,M,0.62,M,0.00,M*1A##937
$GPGGA,154459,3848.8305,N,09935.7138,W,1,09,1.20,11502.71,M,,,*2E##2
$GPRMC,154459,A,3848.8305,N,09935.7138,W,532.1469,113.320,070510,,*3A##1
$GPGSA,A,3,18,27,26,15,22,21,19,24,09,,,,0.0,1.2,0.0*39##0
$PGRME,0.55,M,0.62,M,0.00,M*1A##997
$GPGGA,154500,3848.7720,N,09935.5405,W,1,09,1.20,11503.00,M,,,*21##2
$GPRMC,154500,A,3848.7720,N,09935.5405,W,532.1080,113.320,070510,,*31##1
$GPGSA,A,3,18,27,26,15,22,21,19,24,09,,,,0.0,1.2,0.0*39##0
$PGRME,0.55,M,0.61,M,0.00,M*19##1057
$GPGGA,154501,3848.7136,N,09935.3672,W,1,09,1.20,11503.28,M,,,*2F##2
$GPRMC,154501,A,3848.7136,N,09935.3672,W,532.0497,113.310,070510,,*35##1
$GPGSA,A,3,18,27,26,15,22,21,19,24,09,,,,0.0,1.2,0.0*39##0
$PGRME,0.55,M,0.62,M,0.00,M*1A##937
$GPGGA,154502,3848.6552,N,09935.1939,W,1,09,1.20,11503.57,M,,,*21##2
$GPRMC,154502,A,3848.6552,N,09935.1939,W,531.9719,113.310,070510,,*3C##1
$GPGSA,A,3,18,27,26,15,22,21,19,24,09,,,,0.0,1.2,0.0*39##0
$PGRME,0.55,M,0.62,M,0.00,M*1A##997
$GPGGA,154503,3848.5968,N,09935.0206,W,1,09,1.20,11503.89,M,,,*23##2
$GPRMC,154503,A,3848.5968,N,09935.0206,W,531.9136,113.300,070510,,*37##1
$GPGSA,A,3,18,27,26,15,22,21,19,24,09,,,,0.0,1.2,0.0*39##0
$PGRME,0.56,M,0.63,M,0.00,M*18##1057
$GPGGA,154504,3848.5384,N,09934.8474,W,1,09,1.20,11504.20,M,,,*22##2
$GPRMC,154504,A,3848.5384,N,09934.8474,W,531.8747,113.300,070510,,*33##1
$GPGSA,A,3,18,27,26,15,22,21,19,24,09,,,,0.0,1.2,0.0*39##0
$PGRME,0.56,M,0.63,M,0.00,M*18##937
$GPGGA,154505,3848.4800,N,09934.6742,W,1,09,1.20,11504.51,M,,,*2B##2
$GPRMC,154505,A,3848.4800,N,09934.6742,W,531.8359,113.300,070510,,*37##1
$GPGSA,A,3,18,27,26,15,22,21,19,24,09,,,,0.0,1.2,0.0*39##0
$PGRME,0.56,M,0.64,M,0.00,M*1F##997
$GPGGA,154506,3848.4216,N,09934.5010,W,1,09,1.20,11504.81,M,,,*2B##2
$GPRMC,154506,A,3848.4216,N,09934.5010,W,531.7581,113.300,070510,,*36##1
$GPGSA,A,3,18,27,26,15,22,21,19,24,09,,,,0.0,1.2,0.0*39##0
$PGRME,0.56,M,0.65,M,0.00,M*1E##447
$GPGSV,3,1,11,18,59,057,34,27,31,057,40,26,34,043,40,14,48,228,20*79##0
$GPGSV,3,2,11,24,69,154,28,15,04,048,39,22,66,327,30,19,21,303,26*77##0
$GPGSV,3,3,11,21,47,148,28,09,37,070,32,06,26,259,18*40##610
$GPGGA,154507,3848.3633,N,09934.3278,W,1,09,1.20,11505.09,M,,,*25##2
$GPRMC,154507,A,3848.3633,N,09934.3278,W,531.7192,113.290,070510,,*37##1
$GPGSA,A,3,18,27,26,15,22,21,19,24,09,,,,0.0,1.2,0.0*39##1
$PGRME,0.56,M,0.65,M,0.00,M*1E##936
$GPGGA,154508,3848.3049,N,09934.1546,W,1,09,1.20,11505.32,M,,,*21##2
$GPRMC,154508,A,3848.3049,N,09934.1546,W,531.6803,113.290,070510,,*3B##1
$GPGSA,A,3,18,27,26,15,22,21,19,24,09,,,,0.0,1.2,0.0*39##0
$PGRME,0.56,M,0.66,M,0.00,M*1D##997
$GPGGA,154509,3848.2466,N,09933.9815,W,1,09,1.20,11505.47,M,,,*2E##2
$GPRMC,154509,A,3848.2466,N,09933.9815,W,531.6415,113.290,070510,,*3D##1
$GPGSA,A,3,18,27,26,15,22,21,19,24,09,,,,0.0,1.2,0.0*39##0
$PGRME,0.56,M,0.66,M,0.00,M*1D##1057
$GPGGA,154510,3848.1882,N,09933.8083,W,1,09,1.20,11505.56,M,,,*25##2
$GPRMC,154510,A,3848.1882,N,09933.8083,W,531.5832,113.280,070510,,*3D##1
$GPGSA,A,3,18,27,26,15,22,21,19,24,09,,,,0.0,1.2,0.0*39##0
$PGRME,0.56,M,0.66,M,0.00,M*1D##937
$GPGGA,154511,3848.1299,N,09933.6352,W,1,09,1.20,11505.58,M,,,*2B##2
$GPRMC,154511,A,3848.1299,N,09933.6352,W,531.5443,113.280,070510,,*37##1
$GPGSA,A,3,18,27,26,15,22,21,19,24,09,,,,0.0,1.2,0.0*39##0
$PGRME,0.56,M,0.67,M,0.00,M*1C##997
$GPGGA,154512,3848.0716,N,09933.4621,W,1,09,1.20,11505.54,M,,,*24##2
$GPRMC,154512,A,3848.0716,N,09933.4621,W,531.5637,113.280,070510,,*35##1
$GPGSA,A,3,18,27,26,15,22,21,19,24,09,,,,0.0,1.2,0.0*39##0
$PGRME,0.56,M,0.67,M,0.00,M*1C##1057
$GPGGA,154513,3848.0133,N,09933.2889,W,1,09,1.20,11505.46,M,,,*2D##2
$GPRMC,154513,A,3848.0133,N,09933.2889,W,531.4860,113.270,070510,,*3D##1
$GPGSA,A,3,18,27,26,15,22,21,19,24,09,,,,0.0,1.2,0.0*39##0
$PGRME,0.56,M,0.68,M,0.00,M*13##937
$GPGGA,154514,3847.9550,N,09933.1158,W,1,09,1.20,11505.35,M,,,*2F##2
$GPRMC,154514,A,3847.9550,N,09933.1158,W,531.4471,113.280,070510,,*38##1
$GPGSA,A,3,18,27,26,15,22,21,19,24,09,,,,0.0,1.2,0.0*39##0
$PGRME,0.56,M,0.68,M,0.00,M*13##997
$GPGGA,154515,3847.8967,N,09932.9428,W,1,09,1.20,11505.23,M,,,*2B##2
$GPRMC,154515,A,3847.8967,N,09932.9428,W,531.4082,113.280,070510,,*33##1
$GPGSA,A,3,18,27,26,15,22,21,19,24,09,,,,0.0,1.2,0.0*39##0
$PGRME,0.56,M,0.69,M,0.00,M*12##1057
$GPGGA,154516,3847.8384,N,09932.7697,W,1,09,1.20,11505.13,M,,,*24##2
$GPRMC,154516,A,3847.8384,N,09932.7697,W,531.3305,113.270,070510,,*3B##1
$GPGSA,A,3,18,27,26,15,22,21,19,24,09,,,,0.0,1.2,0.0*39##0
$PGRME,0.56,M,0.69,M,0.00,M*12##937
$GPGGA,154517,3847.7801,N,09932.5966,W,1,09,1.20,11505.06,M,,,*2B##2
$GPRMC,154517,A,3847.7801,N,09932.5966,W,531.2527,113.270,070510,,*37##1
$GPGSA,A,3,18,27,26,15,22,21,19,24,09,,,,0.0,1.2,0.0*39##0
$PGRME,0.56,M,0.69,M,0.00,M*12##997
$GPGGA,154518,3847.7219,N,09932.4236,W,1,09,1.20,11505.02,M,,,*2C##2
$GPRMC,154518,A,3847.7219,N,09932.4236,W,531.2138,113.270,070510,,*3E##1
$GPGSA,A,3,18,27,26,15,22,21,19,24,09,,,,0.0,1.2,0.0*39##0
$PGRME,0.56,M,0.70,M,0.00,M*1A##1057
$GPGGA,154519,3847.6636,N,09932.2506,W,1,09,1.20,11505.01,M,,,*24##2
$GPRMC,154519,A,3847.6636,N,09932.2506,W,531.1166,113.270,070510,,*3D##1
$GPGSA,A,3,18,27,26,15,22,21,19,24,09,,,,0.0,1.2,0.0*39##0
$PGRME,0.56,M,0.70,M,0.00,M*1A##937
$GPGGA,154520,3847.6054,N,09932.0776,W,1,09,1.20,11505.04,M,,,*2E##2
$GPRMC,154520,A,3847.6054,N,09932.0776,W,531.0389,113.260,070510,,*31##1
$GPGSA,A,3,18,27,26,15,22,21,19,24,09,,,,0.0,1.2,0.0*39##0
$PGRME,0.56,M,0.70,M,0.00,M*1A##997
$GPGGA,154521,3847.5472,N,09931.9046,W,1,09,1.20,11505.07,M,,,*21##2
$GPRMC,154521,A,3847.5472,N,09931.9046,W,530.9417,113.260,070510,,*35##2
$GPGSA,A,3,18,27,26,15,22,21,19,24,09,,,,0.0,1.2,0.0*39##0
$PGRME,0.56,M,0.70,M,0.00,M*1A##446
$GPGSV,3,1,11,18,59,057,33,27,31,057,40,26,34,043,41,14,48,228,23*7C##1
$GPGSV,3,2,11,24,69,156,28,15,04,049,39,22,66,327,32,19,21,303,27*77##0
$GPGSV,3,3,11,21,47,148,28,09,37,070,33,06,26,259,18*41##609
$GPGGA,154522,3847.4891,N,09931.7317,W,1,09,1.20,11505.13,M,,,*2E##2
$GPRMC,154522,A,3847.4891,N,09931.7317,W,530.8639,113.260,070510,,*30##1
$GPGSA,A,3,18,27,26,15,22,21,19,24,09,,,,0.0,1.2,0.0*39##1
$PGRME,0.56,M,0.70,M,0.00,M*1A##936
$GPGGA,154523,3847.4309,N,09931.5588,W,1,09,1.20,11505.22,M,,,*25##2
$GPRMC,154523,A,3847.4309,N,09931.5588,W,530.7473,113.260,070510,,*3A##1
$GPGSA,A,3,18,27,26,15,22,21,19,24,09,,,,0.0,1.2,0.0*39##1
$PGRME,0.56,M,0.71,M,0.00,M*1B##996
$GPGGA,154524,3847.3728,N,09931.3859,W,1,09,1.20,11505.35,M,,,*23##2
$GPRMC,154524,A,3847.3728,N,09931.3859,W,530.6890,113.260,070510,,*3A##3
$GPGSA,A,3,18,27,26,15,22,21,19,24,09,,,,0.0,1.2,0.0*39##0
$PGRME,0.56,M,0.71,M,0.00,M*1B##1055
$GPGGA,154525,3847.3146,N,09931.2130,W,1,09,1.20,11505.48,M,,,*21##2
$GPRMC,154525,A,3847.3146,N,09931.2130,W,530.5724,113.250,070510,,*32##2
$GPGSA,A,3,18,27,26,15,22,21,19,24,09,,,,0.0,1.2,0.0*39##0
$PGRME,0.56,M,0.71,M,0.00,M*1B##936
$GPGGA,154526,3847.2565,N,09931.0402,W,1,09,1.20,11505.61,M,,,*2B##2
$GPRMC,154526,A,3847.2565,N,09931.0402,W,530.4752,113.250,070510,,*33##1
$GPGSA,A,3,18,27,26,15,22,21,19,24,09,,,,0.0,1.2,0.0*39##0
$PGRME,0.56,M,0.71,M,0.00,M*1B##997
$GPGGA,154527,3847.1984,N,09930.8675,W,1,09,1.20,11505.74,M,,,*25##2
$GPRMC,154527,A,3847.1984,N,09930.8675,W,530.3780,113.250,070510,,*31##3
$GPGSA,A,3,18,27,26,15,22,21,19,24,09,,,,0.0,1.2,0.0*39##0
$PGRME,0.56,M,0.71,M,0.00,M*1B##1055
$GPGGA,154528,3847.1403,N,09930.6947,W,1,09,1.20,11505.88,M,,,*2B##2
$GPRMC,154528,A,3847.1403,N,09930.6947,W,530.2808,113.240,070510,,*33##1
$GPGSA,A,3,18,27,26,15,22,21,19,24,09,,,,0.0,1.2,0.0*39##1
$PGRME,0.56,M,0.71,M,0.00,M*1B##936
$GPGGA,154529,3847.0822,N,09930.5220,W,1,09,1.20,11506.05,M,,,*2B##2
$GPRMC,154529,A,3847.0822,N,09930.5220,W,530.1641,113.240,070510,,*35##3
$GPGSA,A,3,18,27,26,15,22,21,19,24,09,,,,0.0,1.2,0.0*39##0
$PGRME,0.56,M,0.71,M,0.00,M*1B##995
$GPGGA,154530,3847.0242,N,09930.3493,W,1,09,1.20,11506.24,M,,,*24##2
$GPRMC,154530,A,3847.0242,N,09930.3493,W,530.1447,113.240,070510,,*3D##1
$GPGSA,A,3,18,27,26,15,22,21,19,24,09,,,,0.0,1.2,0.0*39##0
$PGRME,0.56,M,0.72,M,0.00,M*18##1057
$GPGGA,154531,3846.9661,N,09930.1766,W,1,09,1.20,11506.44,M,,,*25##2
$GPRMC,154531,A,3846.9661,N,09930.1766,W,529.9892,113.240,070510,,*3E##1
$GPGSA,A,3,18,27,26,15,22,21,19,24,09,,,,0.0,1.2,0.0*39##0
$PGRME,0.56,M,0.72,M,0.00,M*18##937
$GPGGA,154532,3846.9081,N,09930.0040,W,1,09,1.20,11506.70,M,,,*2B##2
$GPRMC,154532,A,3846.9081,N,09930.0040,W,529.8920,113.240,070510,,*3E##1
$GPGSA,A,3,18,27,26,15,22,21,19,24,09,,,,0.0,1.2,0.0*39##0
$PGRME,0.56,M,0.72,M,0.00,M*18##997
$GPGGA,154533,3846.8501,N,09929.8314,W,1,09,1.20,11506.99,M,,,*23##2
$GPRMC,154533,A,3846.8501,N,09929.8314,W,529.8143,113.240,070510,,*3C##1
$GPGSA,A,3,18,27,26,15,22,21,19,24,09,,,,0.0,1.2,0.0*39##0
$PGRME,0.56,M,0.72,M,0.00,M*18##1047
$GPGGA,154534,3846.7921,N,09929.6588,W,1,09,1.20,11507.28,M,,,*23##2
$GPRMC,154534,A,3846.7921,N,09929.6588,W,529.7365,113.240,070510,,*3E##1
$GPGSA,A,3,18,27,26,15,22,21,19,24,09,,,,0.0,1.2,0.0*39##0
$PGRME,0.56,M,0.72,M,0.00,M*18##947
$GPGGA,154535,3846.7341,N,09929.4863,W,1,09,1.20,11507.59,M,,,*22##2
$GPRMC,154535,A,3846.7341,N,09929.4863,W,529.6393,113.240,070510,,*31##1
$GPGSA,A,3,18,27,26,15,22,21,19,24,09,,,,0.0,1.2,0.0*39##0
$PGRME,0.56,M,0.72,M,0.00,M*18##997
$GPGGA,154536,3846.6761,N,09929.3138,W,1,09,1.20,11507.87,M,,,*25##2
$GPRMC,154536,A,3846.6761,N,09929.3138,W,529.5810,113.240,070510,,*36##1
$GPGSA,A,3,18,27,26,15,22,21,19,24,09,,,,0.0,1.2,0.0*39##0
$PGRME,0.56,M,0.72,M,0.00,M*18##447
$GPGSV,3,1,11,18,59,057,32,27,31,057,41,26,34,043,42,14,48,228,23*7F##0
$GPGSV,3,2,11,24,69,156,28,15,04,049,39,22,66,327,32,19,21,303,27*77##1
$GPGSV,3,3,11,21,47,148,28,09,37,070,35,06,26,259,19*46##609
$GPGGA,154537,3846.6181,N,09929.1413,W,1,09,1.20,11508.13,M,,,*20##2
$GPRMC,154537,A,3846.6181,N,09929.1413,W,529.5032,113.240,070510,,*39##1
$GPGSA,A,3,18,27,26,15,22,21,19,24,09,,,,0.0,1.2,0.0*39##0
$PGRME,0.56,M,0.72,M,0.00,M*18##937
$GPGGA,154538,3846.5601,N,09928.9689,W,1,09,1.20,11508.36,M,,,*2C##2
$GPRMC,154538,A,3846.5601,N,09928.9689,W,529.4255,113.230,070510,,*37##1
$GPGSA,A,3,18,27,26,15,22,21,19,24,09,,,,0.0,1.2,0.0*39##0
$PGRME,0.56,M,0.72,M,0.00,M*18##997
$GPGGA,154539,3846.5022,N,09928.7964,W,1,09,1.20,11508.58,M,,,*20##2
$GPRMC,154539,A,3846.5022,N,09928.7964,W,529.3477,113.230,070510,,*32##1
$GPGSA,A,3,18,27,26,15,22,21,19,24,09,,,,0.0,1.2,0.0*39##0
$PGRME,0.56,M,0.72,M,0.00,M*18##1057
$GPGGA,154540,3846.4442,N,09928.6240,W,1,09,1.20,11508.77,M,,,*2C##4
$GPRMC,154540,A,3846.4442,N,09928.6240,W,529.2894,113.230,070510,,*33##1
$GPGSA,A,3,18,27,26,15,22,21,19,24,09,,,,0.0,1.2,0.0*39##0
$PGRME,0.56,M,0.72,M,0.00,M*18##935
$GPGGA,154541,3846.3863,N,09928.4516,W,1,09,1.20,11508.95,M,,,*2F##2
$GPRMC,154541,A,3846.3863,N,09928.4516,W,529.1922,113.230,070510,,*33##1
$GPGSA,A,3,18,27,26,15,22,21,19,24,09,,,,0.0,1.2,0.0*39##0
$PGRME,0.56,M,0.72,M,0.00,M*18##997
$GPGGA,154542,3846.3283,N,09928.2793,W,1,09,1.20,11509.12,M,,,*2F##2
$GPRMC,154542,A,3846.3283,N,09928.2793,W,529.1339,113.230,070510,,*3D##1
$GPGSA,A,3,18,27,26,15,22,21,19,24,09,,,,0.0,1.2,0.0*39##0
$PGRME,0.56,M,0.72,M,0.00,M*18##1057
$GPGGA,154543,3846.2704,N,09928.1070,W,1,09,1.20,11509.25,M,,,*28##2
$GPRMC,154543,A,3846.2704,N,09928.1070,W,529.0562,113.230,070510,,*37##1
$GPGSA,A,3,18,27,26,15,22,21,19,24,09,,,,0.0,1.2,0.0*39##0
$PGRME,0.56,M,0.72,M,0.00,M*18##937
$GPGGA,154544,3846.2124,N,09927.9347,W,1,09,1.20,11509.37,M,,,*28##2
$GPRMC,154544,A,3846.2124,N,09927.9347,W,528.9784,113.240,070510,,*31##1
$GPGSA,A,3,18,27,26,15,22,21,19,24,09,,,,0.0,1.2,0.0*39##1
$PGRME,0.56,M,0.72,M,0.00,M*18##996
$GPGGA,154545,3846.1545,N,09927.7624,W,1,09,1.20,11509.46,M,,,*21##2
$GPRMC,154545,A,3846.1545,N,09927.7624,W,528.9007,113.250,070510,,*33##1
$GPGSA,A,3,18,27,26,15,22,21,19,24,09,,,,0.0,1.2,0.0*39##1
$PGRME,0.56,M,0.72,M,0.00,M*18##1057
$GPGGA,154546,3846.0965,N,09927.5902,W,1,09,1.20,11509.50,M,,,*23##1
$GPRMC,154546,A,3846.0965,N,09927.5902,W,528.8423,113.250,070510,,*35##1
$GPGSA,A,3,18,27,26,15,22,21,19,24,09,,,,0.0,1.2,0.0*39##0
$PGRME,0.56,M,0.73,M,0.00,M*19##937
$GPGGA,154547,3846.0385,N,09927.4180,W,1,08,1.20,11509.52,M,,,*26##2
$GPRMC,154547,A,3846.0385,N,09927.4180,W,528.7840,113.270,070510,,*37##1
$GPGSA,A,3,18,27,26,22,21,19,24,09,,,,,0.0,1.2,0.0*3D##1
$PGRME,0.56,M,0.74,M,0.00,M*1E##996
$GPGGA,154548,3845.9806,N,09927.2459,W,1,08,1.20,11509.51,M,,,*27##2
$GPRMC,154548,A,3845.9806,N,09927.2459,W,528.6868,113.270,070510,,*3E##1
$GPGSA,A,3,18,27,26,22,21,19,24,09,,,,,0.0,1.2,0.0*3D##0
$PGRME,0.56,M,0.76,M,0.00,M*1C##1047
$GPGGA,154549,3845.9225,N,09927.0738,W,1,08,1.20,11509.49,M,,,*22##2
$GPRMC,154549,A,3845.9225,N,09927.0738,W,528.6480,113.280,070510,,*37##1
$GPGSA,A,3,18,27,26,22,21,19,24,09,,,,,0.0,1.2,0.0*3D##1
$PGRME,0.56,M,0.78,M,0.00,M*12##946
$GPGGA,154550,3845.8645,N,09926.9017,W,1,08,1.20,11509.45,M,,,*27##2
$GPRMC,154550,A,3845.8645,N,09926.9017,W,528.5896,113.290,070510,,*37##1
$GPGSA,A,3,18,27,26,22,21,19,24,09,,,,,0.0,1.2,0.0*3D##1
$PGRME,0.56,M,0.79,M,0.00,M*13##996
