# NMEA GPS data followed by ## then the time in ms before next message was sent
$GPRMC,200945,A,3822.4289,N,11042.5186,W,0.1905,180.000,310510,,*37##42
$GPGSA,A,3,31,13,32,16,23,20,04,,,,,,2.8,1.2,2.2*3A##929
$GPGGA,200946,3822.4289,N,11042.5186,W,1,07,1.20,1309.25,M,-18.561,M,,*47##1
$GPRMC,200946,A,3822.4289,N,11042.5186,W,0.1905,180.000,310510,,*34##2
$GPGSA,A,3,31,13,32,16,23,20,04,,,,,,2.8,1.2,2.2*3A##597
$GPGGA,200947,3822.4289,N,11042.5186,W,1,07,1.20,1309.25,M,-18.561,M,,*46##1
$GPRMC,200947,A,3822.4289,N,11042.5186,W,0.1905,180.000,310510,,*35##1
$GPGSA,A,3,31,13,32,16,23,20,04,,,,,,2.8,1.2,2.2*3A##0
$PGRME,0.00,M,0.00,M,10.73,M*2B##1311
$GPGSV,3,1,10,31,16,055,35,23,59,324,40,13,35,306,36,06,05,129,00*78##18
$GPGSV,3,2,10,16,56,091,29,04,07,300,31,20,60,214,33,32,48,172,30*75##0
$GPGSV,3,3,10,03,05,144,17,07,13,247,20*7F##93
$GPGGA,200948,3822.4289,N,11042.5186,W,1,07,1.20,1309.25,M,-18.561,M,,*49##1
$GPRMC,200948,A,3822.4289,N,11042.5186,W,0.1905,180.000,310510,,*3A##1
$GPGSA,A,3,31,13,32,16,23,20,04,,,,,,2.8,1.2,2.2*3A##575
$GPGGA,200949,3822.4289,N,11042.5186,W,1,07,1.20,1309.25,M,-18.561,M,,*48##0
$GPRMC,200949,A,3822.4289,N,11042.5186,W,0.1905,180.000,310510,,*3B##2
$GPGSA,A,3,31,13,32,16,23,20,04,,,,,,2.8,1.2,2.2*3A##0
$PGRME,0.00,M,0.00,M,10.73,M*2B##973
$GPGGA,200950,3822.4289,N,11042.5186,W,1,07,1.20,1309.25,M,-18.561,M,,*40##1
$GPRMC,200950,A,3822.4289,N,11042.5186,W,0.1905,180.000,310510,,*33##1
$GPGSA,A,3,31,13,32,16,23,20,04,,,,,,2.8,1.2,2.2*3A##1446
$GPGGA,200951,3822.4289,N,11042.5186,W,1,07,1.20,1309.25,M,-18.561,M,,*41##1
$GPRMC,200951,A,3822.4289,N,11042.5186,W,0.1905,180.000,310510,,*32##1
$GPGSA,A,3,31,13,32,16,23,20,04,,,,,,2.8,1.2,2.2*3A##579
$GPGGA,200952,3822.4289,N,11042.5186,W,1,07,1.20,1309.25,M,-18.561,M,,*42##1
$GPRMC,200952,A,3822.4289,N,11042.5186,W,0.1905,180.000,310510,,*31##1
$GPGSA,A,3,31,13,32,16,23,20,04,,,,,,2.8,1.2,2.2*3A##970
$GPGGA,200953,3822.4289,N,11042.5186,W,1,07,1.20,1309.25,M,-18.561,M,,*43##0
$GPRMC,200953,A,3822.4289,N,11042.5186,W,0.1905,180.000,310510,,*30##1
$GPGSA,A,3,31,13,32,16,23,20,04,,,,,,2.8,1.2,2.2*3A##1451
$GPGGA,200954,3822.4289,N,11042.5186,W,1,07,1.20,1309.25,M,-18.561,M,,*44##0
$GPRMC,200954,A,3822.4289,N,11042.5186,W,0.1905,180.000,310510,,*37##0
$GPGSA,A,3,31,13,32,16,23,20,04,,,,,,2.8,1.2,2.2*3A##0
$PGRME,0.00,M,0.00,M,10.73,M*2B##576
$GPGGA,200955,3822.4289,N,11042.5186,W,1,07,1.20,1309.25,M,-18.561,M,,*45##0
$GPRMC,200955,A,3822.4289,N,11042.5186,W,0.1905,180.000,310510,,*36##1
$GPGSA,A,3,31,13,32,16,23,20,04,,,,,,2.8,1.2,2.2*3A##970
$GPGGA,200956,3822.4289,N,11042.5186,W,1,07,1.20,1309.25,M,-18.561,M,,*46##1
$GPRMC,200956,A,3822.4289,N,11042.5186,W,0.1905,180.000,310510,,*35##0
$GPGSA,A,3,31,13,32,16,23,20,04,,,,,,2.8,1.2,2.2*3A##0
$PGRME,0.00,M,0.00,M,10.73,M*2B##1448
$GPGGA,200957,3822.4289,N,11042.5186,W,1,07,1.20,1309.25,M,-18.561,M,,*47##0
$GPRMC,200957,A,3822.4289,N,11042.5186,W,0.1905,180.000,310510,,*34##0
$GPGSA,A,3,31,13,32,16,23,20,04,,,,,,2.8,1.2,2.2*3A##580
$GPGGA,200958,3822.4289,N,11042.5186,W,1,07,1.20,1309.25,M,-18.561,M,,*48##0
$GPRMC,200958,A,3822.4289,N,11042.5186,W,0.1905,180.000,310510,,*3B##0
$GPGSA,A,3,31,13,32,16,23,20,04,,,,,,2.8,1.2,2.2*3A##0
$PGRME,0.00,M,0.00,M,10.73,M*2B##972
$GPGGA,200959,3822.4289,N,11042.5186,W,1,07,1.20,1309.25,M,-18.561,M,,*49##0
$GPRMC,200959,A,3822.4289,N,11042.5186,W,0.1905,180.000,310510,,*3A##0
$GPGSA,A,3,31,13,32,16,23,20,04,,,,,,2.8,1.2,2.2*3A##1456
$GPGGA,201000,3822.4289,N,11042.5186,W,1,07,1.20,1309.25,M,-18.561,M,,*4D##0
$GPRMC,201000,A,3822.4289,N,11042.5186,W,0.1905,180.000,310510,,*3E##0
$GPGSA,A,3,31,13,32,16,23,20,04,,,,,,2.8,1.2,2.2*3A##572
$GPGGA,201001,3822.4285,N,11042.5186,W,1,07,1.20,1308.63,M,-18.561,M,,*43##1
$GPRMC,201001,A,3822.4285,N,11042.5186,W,0.1905,180.000,310510,,*33##1
$GPGSA,A,3,31,13,32,16,23,20,04,,,,,,2.8,1.2,2.2*3A##969
$GPGGA,201002,3822.4285,N,11042.5186,W,1,07,1.20,1308.63,M,-18.561,M,,*40##1
$GPRMC,201002,A,3822.4285,N,11042.5186,W,0.1905,180.000,310510,,*30##0
$GPGSA,A,3,31,13,32,16,23,20,04,,,,,,2.8,1.2,2.2*3A##1336
$GPGSV,3,1,10,31,16,055,33,23,59,324,41,13,35,306,36,06,05,129,00*7F##0
$GPGSV,3,2,10,16,56,091,30,04,07,300,30,20,60,214,33,32,48,172,29*74##0
$GPGSV,3,3,10,03,05,144,16,07,13,247,22*7C##112
$GPGGA,201003,3822.4285,N,11042.5186,W,1,07,1.20,1308.63,M,-18.561,M,,*41##0
$GPRMC,201003,A,3822.4285,N,11042.5186,W,0.1905,180.000,310510,,*31##1
$GPGSA,A,3,31,13,32,16,23,20,04,,,,,,2.8,1.2,2.2*3A##582
$GPGGA,201004,3822.4285,N,11042.5186,W,1,07,1.20,1308.63,M,-18.561,M,,*46##0
$GPRMC,201004,A,3822.4285,N,11042.5186,W,0.1905,180.000,310510,,*36##1
$GPGSA,A,3,31,13,32,16,23,20,04,,,,,,2.8,1.2,2.2*3A##967
$GPGGA,201005,3822.4285,N,11042.5186,W,1,07,1.20,1308.63,M,-18.561,M,,*47##1
$GPRMC,201005,A,3822.4285,N,11042.5186,W,0.1905,180.000,310510,,*37##1
$GPGSA,A,3,31,13,32,16,23,20,04,,,,,,2.8,1.2,2.2*3A##1446
$GPGGA,201006,3822.4285,N,11042.5186,W,1,07,1.20,1308.63,M,-18.561,M,,*44##1
$GPRMC,201006,A,3822.4285,N,11042.5186,W,0.1905,180.000,310510,,*34##1
$GPGSA,A,3,31,13,32,16,23,20,04,,,,,,2.8,1.2,2.2*3A##578
$GPGGA,201007,3822.4285,N,11042.5186,W,1,07,1.20,1308.63,M,-18.561,M,,*45##1
$GPRMC,201007,A,3822.4285,N,11042.5186,W,0.1905,180.000,310510,,*35##1
$GPGSA,A,3,31,13,32,16,23,20,04,,,,,,2.8,1.2,2.2*3A##970
$GPGGA,201008,3822.4285,N,11042.5186,W,1,07,1.20,1308.63,M,-18.561,M,,*4A##1
$GPRMC,201008,A,3822.4285,N,11042.5186,W,0.1905,180.000,310510,,*3A##1
$GPGSA,A,3,31,13,32,16,23,20,04,,,,,,2.8,1.2,2.2*3A##0
$PGRME,0.00,M,0.00,M,10.73,M*2B##1447
$GPGGA,201009,3822.4285,N,11042.5186,W,1,07,1.20,1308.63,M,-18.561,M,,*4B##0
$GPRMC,201009,A,3822.4285,N,11042.5186,W,0.1905,180.000,310510,,*3B##1
$GPGSA,A,3,31,13,32,16,23,20,04,,,,,,2.8,1.2,2.2*3A##579
$GPGGA,201010,3822.4285,N,11042.5186,W,1,07,1.20,1308.63,M,-18.561,M,,*43##1
$GPRMC,201010,A,3822.4285,N,11042.5186,W,0.1905,180.000,310510,,*33##1
$GPGSA,A,3,31,13,32,16,23,20,04,,,,,,2.8,1.2,2.2*3A##970
$GPGGA,201011,3822.4285,N,11042.5186,W,1,07,1.20,1308.63,M,-18.561,M,,*42##0
$GPRMC,201011,A,3822.4285,N,11042.5186,W,0.1905,180.000,310510,,*32##1
$GPGSA,A,3,31,13,32,16,23,20,04,,,,,,2.8,1.2,2.2*3A##1446
$GPGGA,201012,3822.4285,N,11042.5186,W,1,07,1.20,1308.63,M,-18.561,M,,*41##1
$GPRMC,201012,A,3822.4285,N,11042.5186,W,0.1905,180.000,310510,,*31##1
$GPGSA,A,3,31,13,32,16,23,20,04,,,,,,2.8,1.2,2.2*3A##1
$PGRME,0.00,M,0.00,M,10.73,M*2B##578
$GPGGA,201013,3822.4285,N,11042.5186,W,1,07,1.20,1308.63,M,-18.561,M,,*40##0
$GPRMC,201013,A,3822.4285,N,11042.5186,W,0.1905,180.000,310510,,*30##1
$GPGSA,A,3,31,13,32,16,23,20,04,,,,,,2.8,1.2,2.2*3A##1
$PGRME,0.00,M,0.00,M,10.73,M*2B##970
$GPGGA,201014,3822.4285,N,11042.5186,W,1,07,1.20,1308.63,M,-18.561,M,,*47##0
$GPRMC,201014,A,3822.4285,N,11042.5186,W,0.1905,180.000,310510,,*37##1
$GPGSA,A,3,31,13,32,16,23,20,04,,,,,,2.8,1.2,2.2*3A##1
$PGRME,0.00,M,0.00,M,10.73,M*2B##1447
$GPGGA,201015,3822.4285,N,11042.5186,W,1,07,1.20,1308.63,M,-18.561,M,,*46##0
$GPRMC,201015,A,3822.4285,N,11042.5186,W,0.1905,180.000,310510,,*36##0
$GPGSA,A,3,31,13,32,16,23,20,04,,,,,,2.8,1.2,2.2*3A##1
$PGRME,0.00,M,0.00,M,10.73,M*2B##578
$GPGGA,201016,3822.4285,N,11042.5186,W,1,07,1.20,1308.63,M,-18.561,M,,*45##0
$GPRMC,201016,A,3822.4285,N,11042.5186,W,0.1905,180.000,310510,,*35##0
$GPGSA,A,3,31,13,32,16,23,20,04,,,,,,2.8,1.2,2.2*3A##0
$PGRME,0.00,M,0.00,M,10.73,M*2B##972
$GPGGA,201017,3822.4285,N,11042.5186,W,1,07,1.20,1308.63,M,-18.561,M,,*44##0
$GPRMC,201017,A,3822.4285,N,11042.5186,W,0.1905,180.000,310510,,*34##0
$GPGSA,A,3,31,13,32,16,23,20,04,,,,,,2.8,1.2,2.2*3A##1336
$GPGSV,3,1,09,31,16,055,33,23,59,324,41,13,35,306,36,16,56,091,30*71##0
$GPGSV,3,2,09,04,07,300,30,20,60,214,33,32,48,172,29,03,05,144,16*73##0
$GPGSV,3,3,09,07,13,247,24*42##112
$GPGGA,201018,3822.4285,N,11042.5186,W,1,07,1.20,1308.63,M,-18.561,M,,*4B##1
$GPRMC,201018,A,3822.4285,N,11042.5186,W,0.1905,180.000,310510,,*3B##1
$GPGSA,A,3,31,13,32,16,23,20,04,,,,,,2.8,1.2,2.2*3A##578
$GPGGA,201019,3822.4285,N,11042.5186,W,1,07,1.20,1308.63,M,-18.561,M,,*4A##0
$GPRMC,201019,A,3822.4285,N,11042.5186,W,0.1905,180.000,310510,,*3A##1
$GPGSA,A,3,31,13,32,16,23,20,04,,,,,,2.8,1.2,2.2*3A##1
$PGRME,0.00,M,0.00,M,10.73,M*2B##970
$GPGGA,201020,3822.4285,N,11042.5186,W,1,07,1.20,1308.63,M,-18.561,M,,*40##0
$GPRMC,201020,A,3822.4285,N,11042.5186,W,0.1905,180.000,310510,,*30##0
$GPGSA,A,3,31,13,32,16,23,20,04,,,,,,2.8,1.2,2.2*3A##1
$PGRME,0.00,M,0.00,M,10.73,M*2B##1447
$GPGGA,201021,3822.4285,N,11042.5186,W,1,07,1.20,1308.63,M,-18.561,M,,*41##0
$GPRMC,201021,A,3822.4285,N,11042.5186,W,0.1905,180.000,310510,,*31##0
$GPGSA,A,3,31,13,32,16,23,20,04,,,,,,2.8,1.2,2.2*3A##0
$PGRME,0.00,M,0.00,M,10.73,M*2B##576
$GPGGA,201022,3822.4285,N,11042.5186,W,1,07,1.20,1308.63,M,-18.561,M,,*42##0
$GPRMC,201022,A,3822.4285,N,11042.5186,W,0.1905,180.000,310510,,*32##0
$GPGSA,A,3,31,13,32,16,23,20,04,,,,,,2.8,1.2,2.2*3A##0
$PGRME,0.00,M,0.00,M,10.73,M*2B##975
$GPGGA,201023,3822.4285,N,11042.5186,W,1,07,1.20,1308.63,M,-18.561,M,,*43##1
$GPRMC,201023,A,3822.4285,N,11042.5186,W,0.1905,180.000,310510,,*33##1
$GPGSA,A,3,31,13,32,16,23,20,04,,,,,,2.8,1.2,2.2*3A##1447
$GPGGA,201024,3822.4285,N,11042.5186,W,1,07,1.20,1308.63,M,-18.561,M,,*44##1
$GPRMC,201024,A,3822.4285,N,11042.5186,W,0.1905,180.000,310510,,*34##1
$GPGSA,A,3,31,13,32,16,23,20,04,,,,,,2.8,1.2,2.2*3A##578
$GPGGA,201025,3822.4285,N,11042.5186,W,1,07,1.20,1308.63,M,-18.561,M,,*45##0
$GPRMC,201025,A,3822.4285,N,11042.5186,W,0.1905,180.000,310510,,*35##2
$GPGSA,A,3,31,13,32,16,23,20,04,,,,,,2.8,1.2,2.2*3A##970
$GPGGA,201026,3822.4285,N,11042.5186,W,1,07,1.20,1308.63,M,-18.561,M,,*46##0
$GPRMC,201026,A,3822.4285,N,11042.5186,W,0.1905,180.000,310510,,*36##0
$GPGSA,A,3,31,13,32,16,23,20,04,,,,,,2.8,1.2,2.2*3A##1
$PGRME,0.00,M,0.00,M,10.73,M*2B##1447
$GPGGA,201027,3822.4285,N,11042.5186,W,1,07,1.20,1308.63,M,-18.561,M,,*47##1
$GPRMC,201027,A,3822.4285,N,11042.5186,W,0.1905,180.000,310510,,*37##1
$GPGSA,A,3,31,13,32,16,23,20,04,,,,,,2.8,1.2,2.2*3A##0
$PGRME,0.00,M,0.00,M,10.73,M*2B##577
$GPGGA,201028,3822.4285,N,11042.5186,W,1,07,1.20,1308.63,M,-18.561,M,,*48##1
$GPRMC,201028,A,3822.4285,N,11042.5186,W,0.1905,180.000,310510,,*38##1
$GPGSA,A,3,31,13,32,16,23,20,04,,,,,,2.8,1.2,2.2*3A##970
$GPGGA,201029,3822.4285,N,11042.5186,W,1,07,1.20,1308.63,M,-18.561,M,,*49##1
$GPRMC,201029,A,3822.4285,N,11042.5186,W,0.1905,180.000,310510,,*39##1
$GPGSA,A,3,31,13,32,16,23,20,04,,,,,,2.8,1.2,2.2*3A##1446
$GPGGA,201030,3822.4285,N,11042.5186,W,1,07,1.20,1308.63,M,-18.561,M,,*41##1
$GPRMC,201030,A,3822.4285,N,11042.5186,W,0.1905,180.000,310510,,*31##1
$GPGSA,A,3,31,13,32,16,23,20,04,,,,,,2.8,1.2,2.2*3A##0
$PGRME,0.00,M,0.00,M,10.73,M*2B##578
$GPGGA,201031,3822.4285,N,11042.5186,W,1,07,1.20,1308.63,M,-18.561,M,,*40##1
$GPRMC,201031,A,3822.4285,N,11042.5186,W,0.1905,180.000,310510,,*30##1
$GPGSA,A,3,31,13,32,16,23,20,04,,,,,,2.8,1.2,2.2*3A##0
$PGRME,0.00,M,0.00,M,10.73,M*2B##971
$GPGGA,201032,3822.4285,N,11042.5186,W,1,07,1.20,1308.63,M,-18.561,M,,*43##0
$GPRMC,201032,A,3822.4285,N,11042.5186,W,0.1905,180.000,310510,,*33##1
$GPGSA,A,3,31,13,32,16,23,20,04,,,,,,2.8,1.2,2.2*3A##1
$PGRME,0.00,M,0.00,M,10.73,M*2B##1334
$GPGSV,3,1,09,31,16,055,33,23,59,324,42,13,35,306,35,16,56,091,30*71##0
$GPGSV,3,2,09,04,07,300,31,20,60,214,34,32,48,172,30,03,05,144,16*7D##0
$GPGSV,3,3,09,07,13,247,25*43##116
$GPGGA,201033,3822.4285,N,11042.5186,W,1,07,1.20,1308.63,M,-18.561,M,,*42##0
$GPRMC,201033,A,3822.4285,N,11042.5186,W,0.1905,180.000,310510,,*32##0
$GPGSA,A,3,31,13,32,16,23,20,04,,,,,,2.8,1.2,2.2*3A##579
$GPGGA,201034,3822.4285,N,11042.5186,W,1,07,1.20,1308.63,M,-18.561,M,,*45##1
$GPRMC,201034,A,3822.4285,N,11042.5186,W,0.1905,180.000,310510,,*35##0
$GPGSA,A,3,31,13,32,16,23,20,04,,,,,,2.8,1.2,2.2*3A##968
$GPGGA,201035,3822.4285,N,11042.5186,W,1,07,1.20,1308.63,M,-18.561,M,,*44##0
$GPRMC,201035,A,3822.4285,N,11042.5186,W,0.1905,180.000,310510,,*34##1
$GPGSA,A,3,31,13,32,16,23,20,04,,,,,,2.8,1.2,2.2*3A##0
$PGRME,0.00,M,0.00,M,10.73,M*2B##1447
$GPGGA,201036,3822.4285,N,11042.5186,W,1,07,1.20,1308.63,M,-18.561,M,,*47##0
$GPRMC,201036,A,3822.4285,N,11042.5186,W,0.1905,180.000,310510,,*37##1
$GPGSA,A,3,31,13,32,16,23,20,04,,,,,,2.8,1.2,2.2*3A##0
$PGRME,0.00,M,0.00,M,10.73,M*2B##579
$GPGGA,201037,3822.4285,N,11042.5186,W,1,07,1.20,1308.63,M,-18.561,M,,*46##0
$GPRMC,201037,A,3822.4285,N,11042.5186,W,0.1905,180.000,310510,,*36##1
$GPGSA,A,3,31,13,32,16,23,20,04,,,,,,2.8,1.2,2.2*3A##0
$PGRME,0.00,M,0.00,M,10.73,M*2B##972
$GPGGA,201038,3822.4285,N,11042.5186,W,1,07,1.20,1308.63,M,-18.561,M,,*49##1
$GPRMC,201038,A,3822.4285,N,11042.5186,W,0.1905,180.000,310510,,*39##1
$GPGSA,A,3,31,13,32,16,23,20,04,,,,,,2.8,1.2,2.2*3A##1444
$GPGGA,201039,3822.4285,N,11042.5186,W,1,07,1.20,1308.63,M,-18.561,M,,*48##1
$GPRMC,201039,A,3822.4285,N,11042.5186,W,0.1905,180.000,310510,,*38##1
$GPGSA,A,3,31,13,32,16,23,20,04,,,,,,2.8,1.2,2.2*3A##579
$GPGGA,201040,3822.4285,N,11042.5186,W,1,07,1.20,1308.63,M,-18.561,M,,*46##0
$GPRMC,201040,A,3822.4285,N,11042.5186,W,0.1905,180.000,310510,,*36##1
$GPGSA,A,3,31,13,32,16,23,20,04,,,,,,2.8,1.2,2.2*3A##971
$GPGGA,201041,3822.4285,N,11042.5186,W,1,07,1.20,1308.63,M,-18.561,M,,*47##0
$GPRMC,201041,A,3822.4285,N,11042.5186,W,0.1905,180.000,310510,,*37##2
$GPGSA,A,3,31,13,32,16,23,20,04,,,,,,2.8,1.2,2.2*3A##1
$PGRME,0.00,M,0.00,M,10.73,M*2B##1449
$GPGGA,201042,3822.4285,N,11042.5186,W,1,07,1.20,1308.63,M,-18.561,M,,*44##0
$GPRMC,201042,A,3822.4285,N,11042.5186,W,0.1905,180.000,310510,,*34##2
$GPGSA,A,3,31,13,32,16,23,20,04,,,,,,2.8,1.2,2.2*3A##574
$GPGGA,201043,3822.4285,N,11042.5186,W,1,07,1.20,1308.63,M,-18.561,M,,*45##0
$GPRMC,201043,A,3822.4285,N,11042.5186,W,0.1905,180.000,310510,,*35##2
$GPGSA,A,3,31,13,32,16,23,20,04,,,,,,2.8,1.2,2.2*3A##970
$GPGGA,201044,3822.4281,N,11042.5186,W,1,07,1.20,1308.01,M,-18.561,M,,*42##3
$GPRMC,201044,A,3822.4281,N,11042.5186,W,0.1905,180.000,310510,,*36##1
$GPGSA,A,3,31,13,32,16,23,20,04,,,,,,2.8,1.2,2.2*3A##0
$PGRME,0.00,M,0.00,M,10.73,M*2B##1443
$GPGGA,201045,3822.4281,N,11042.5186,W,1,07,1.20,1308.01,M,-18.561,M,,*43##1
$GPRMC,201045,A,3822.4281,N,11042.5186,W,0.1905,180.000,310510,,*37##1
$GPGSA,A,3,31,13,32,16,23,20,04,,,,,,2.8,1.2,2.2*3A##0
$PGRME,0.00,M,0.00,M,10.73,M*2B##579
$GPGGA,201046,3822.4281,N,11042.5186,W,1,07,1.20,1308.01,M,-18.561,M,,*40##0
$GPRMC,201046,A,3822.4281,N,11042.5186,W,0.1905,180.000,310510,,*34##1
$GPGSA,A,3,31,13,32,16,23,20,04,,,,,,2.8,1.2,2.2*3A##971
$GPGGA,201047,3822.4281,N,11042.5186,W,1,07,1.20,1308.01,M,-18.561,M,,*41##0
$GPRMC,201047,A,3822.4281,N,11042.5186,W,0.1905,180.000,310510,,*35##1
$GPGSA,A,3,31,13,32,16,23,20,04,,,,,,2.8,1.2,2.2*3A##1334
$GPGSV,3,1,09,31,16,055,33,23,59,324,42,13,35,306,35,16,56,091,31*70##1
$GPGSV,3,2,09,04,07,300,30,20,60,214,35,32,48,172,30,03,05,144,18*73##0
$GPGSV,3,3,09,07,13,247,25*43##112
$GPGGA,201048,3822.4281,N,11042.5186,W,1,07,1.20,1308.01,M,-18.561,M,,*4E##1
$GPRMC,201048,A,3822.4281,N,11042.5186,W,0.1905,180.000,310510,,*3A##0
$GPGSA,A,3,31,13,32,16,23,20,04,,,,,,2.8,1.2,2.2*3A##579
$GPGGA,201049,3822.4281,N,11042.5186,W,1,07,1.20,1308.01,M,-18.561,M,,*4F##0
$GPRMC,201049,A,3822.4281,N,11042.5186,W,0.1905,180.000,310510,,*3B##0
$GPGSA,A,3,31,13,32,16,23,20,04,,,,,,2.8,1.2,2.2*3A##0
$PGRME,0.00,M,0.00,M,10.73,M*2B##972
$GPGGA,201050,3822.4281,N,11042.5186,W,1,07,1.20,1308.01,M,-18.561,M,,*47##0
$GPRMC,201050,A,3822.4281,N,11042.5186,W,0.1905,180.000,310510,,*33##1
$GPGSA,A,3,31,13,32,16,23,20,04,,,,,,2.8,1.2,2.2*3A##1447
$GPGGA,201051,3822.4281,N,11042.5186,W,1,07,1.20,1308.01,M,-18.561,M,,*46##1
$GPRMC,201051,A,3822.4281,N,11042.5186,W,0.1905,180.000,310510,,*32##1
$GPGSA,A,3,31,13,32,16,23,20,04,,,,,,2.8,1.2,2.2*3A##579
$GPGGA,201052,3822.4281,N,11042.5186,W,1,07,1.20,1308.01,M,-18.561,M,,*45##0
$GPRMC,201052,A,3822.4281,N,11042.5186,W,0.1905,180.000,310510,,*31##0
$GPGSA,A,3,31,13,32,16,23,20,04,,,,,,2.8,1.2,2.2*3A##974
$GPGGA,201053,3822.4280,N,11042.5192,W,1,07,1.20,1308.29,M,-18.561,M,,*4A##4
$GPRMC,201053,A,3822.4280,N,11042.5192,W,0.1905,180.000,310510,,*34##1
$GPGSA,A,3,31,13,32,16,23,20,04,,,,,,2.8,1.2,2.2*3A##1451
$GPGGA,201054,3822.4280,N,11042.5192,W,1,07,1.20,1308.29,M,-18.561,M,,*4D##10
$GPRMC,201054,A,3822.4280,N,11042.5192,W,0.1905,180.000,310510,,*33##17
$GPGSA,A,3,31,13,32,16,23,20,04,,,,,,2.8,1.2,2.2*3A##545
$GPGGA,201055,3822.4280,N,11042.5192,W,1,07,1.20,1308.29,M,-18.561,M,,*4C##0
$GPRMC,201055,A,3822.4280,N,11042.5192,W,0.1905,180.000,310510,,*32##1
$GPGSA,A,3,31,13,32,16,23,20,04,,,,,,2.8,1.2,2.2*3A##972
$GPGGA,201056,3822.4280,N,11042.5192,W,1,07,1.20,1308.29,M,-18.561,M,,*4F##0
$GPRMC,201056,A,3822.4280,N,11042.5192,W,0.1905,180.000,310510,,*31##1
$GPGSA,A,3,31,13,32,16,23,20,04,,,,,,2.8,1.2,2.2*3A##0
$PGRME,0.00,M,0.00,M,10.73,M*2B##1446
$GPGGA,201057,3822.4280,N,11042.5192,W,1,07,1.20,1308.29,M,-18.561,M,,*4E##1
$GPRMC,201057,A,3822.4280,N,11042.5192,W,0.1905,180.000,310510,,*30##0
$GPGSA,A,3,31,13,32,16,23,20,04,,,,,,2.8,1.2,2.2*3A##576
$GPGGA,201058,3822.4280,N,11042.5192,W,1,07,1.20,1308.29,M,-18.561,M,,*41##0
$GPRMC,201058,A,3822.4280,N,11042.5192,W,0.1905,180.000,310510,,*3F##0
$GPGSA,A,3,31,13,32,16,23,20,04,,,,,,2.8,1.2,2.2*3A##972
$GPGGA,201059,3822.4280,N,11042.5192,W,1,07,1.20,1308.29,M,-18.561,M,,*40##0
$GPRMC,201059,A,3822.4280,N,11042.5192,W,0.1905,180.000,310510,,*3E##0
$GPGSA,A,3,31,13,32,16,23,20,04,,,,,,2.8,1.2,2.2*3A##1451
$GPGGA,201100,3822.4280,N,11042.5192,W,1,07,1.20,1308.29,M,-18.561,M,,*4D##0
$GPRMC,201100,A,3822.4280,N,11042.5192,W,0.1905,180.000,310510,,*33##1
$GPGSA,A,3,31,13,32,16,23,20,04,,,,,,2.8,1.2,2.2*3A##0
$PGRME,0.00,M,0.00,M,10.73,M*2B##579
$GPGGA,201101,3822.4280,N,11042.5192,W,1,07,1.20,1308.29,M,-18.561,M,,*4C##1
$GPRMC,201101,A,3822.4280,N,11042.5192,W,0.1905,180.000,310510,,*32##0
$GPGSA,A,3,31,13,32,16,23,20,04,,,,,,2.8,1.2,2.2*3A##0
$PGRME,0.00,M,0.00,M,10.73,M*2B##967
$GPGGA,201102,3822.4280,N,11042.5192,W,1,07,1.20,1308.29,M,-18.561,M,,*4F##1
$GPRMC,201102,A,3822.4280,N,11042.5192,W,0.1905,180.000,310510,,*31##0
$GPGSA,A,3,31,13,32,16,23,20,04,,,,,,2.8,1.2,2.2*3A##0
$PGRME,0.00,M,0.00,M,10.73,M*2B##1340
$GPGSV,3,1,10,31,16,055,32,23,59,324,42,13,35,306,35,06,05,129,19*76##0
$GPGSV,3,2,10,16,56,091,31,04,07,300,29,20,60,214,36,32,48,172,30*70##0
$GPGSV,3,3,10,03,05,144,14,07,13,247,27*7B##112
$GPGGA,201103,3822.4280,N,11042.5192,W,1,07,1.20,1308.29,M,-18.561,M,,*4E##0
$GPRMC,201103,A,3822.4280,N,11042.5192,W,0.1905,180.000,310510,,*30##0
$GPGSA,A,3,31,13,32,16,23,20,04,,,,,,2.8,1.2,2.2*3A##579
$GPGGA,201104,3822.4280,N,11042.5192,W,1,07,1.20,1308.29,M,-18.561,M,,*49##0
$GPRMC,201104,A,3822.4280,N,11042.5192,W,0.1905,180.000,310510,,*37##1
$GPGSA,A,3,31,13,32,16,23,20,04,,,,,,2.8,1.2,2.2*3A##0
$PGRME,0.00,M,0.00,M,10.73,M*2B##973
$GPGGA,201105,3822.4280,N,11042.5192,W,1,07,1.20,1308.29,M,-18.561,M,,*48##0
$GPRMC,201105,A,3822.4280,N,11042.5192,W,0.1905,180.000,310510,,*36##1
$GPGSA,A,3,31,13,32,16,23,20,04,,,,,,2.8,1.2,2.2*3A##0
$PGRME,0.00,M,0.00,M,10.73,M*2B##1446
$GPGGA,201106,3822.4280,N,11042.5192,W,1,07,1.20,1308.29,M,-18.561,M,,*4B##0
$GPRMC,201106,A,3822.4280,N,11042.5192,W,0.1905,180.000,310510,,*35##0
$GPGSA,A,3,31,13,32,16,23,20,04,,,,,,2.8,1.2,2.2*3A##0
$PGRME,0.00,M,0.00,M,10.73,M*2B##580
$GPGGA,201107,3822.4280,N,11042.5192,W,1,07,1.20,1308.29,M,-18.561,M,,*4A##0
$GPRMC,201107,A,3822.4280,N,11042.5192,W,0.1905,180.000,310510,,*34##1
$GPGSA,A,3,31,13,32,16,23,20,04,,,,,,2.8,1.2,2.2*3A##0
$PGRME,0.00,M,0.00,M,10.73,M*2B##970
$GPGGA,201108,3822.4280,N,11042.5192,W,1,07,1.20,1308.29,M,-18.561,M,,*45##0
$GPRMC,201108,A,3822.4280,N,11042.5192,W,0.1905,180.000,310510,,*3B##0
$GPGSA,A,3,31,13,32,16,23,20,04,,,,,,2.8,1.2,2.2*3A##1449
$GPGGA,201109,3822.4280,N,11042.5192,W,1,07,1.20,1308.29,M,-18.561,M,,*44##0
$GPRMC,201109,A,3822.4280,N,11042.5192,W,0.1905,180.000,310510,,*3A##0
$GPGSA,A,3,31,13,32,16,23,20,04,,,,,,2.8,1.2,2.2*3A##583
$GPGGA,201110,3822.4280,N,11042.5192,W,1,07,1.20,1308.29,M,-18.561,M,,*4C##1
$GPRMC,201110,A,3822.4280,N,11042.5192,W,0.1905,180.000,310510,,*32##1
$GPGSA,A,3,31,13,32,16,23,20,04,,,,,,2.8,1.2,2.2*3A##0
$PGRME,0.00,M,0.00,M,10.73,M*2B##967
$GPGGA,201111,3822.4280,N,11042.5192,W,1,07,1.20,1308.29,M,-18.561,M,,*4D##0
$GPRMC,201111,A,3822.4280,N,11042.5192,W,0.1905,180.000,310510,,*33##0
$GPGSA,A,3,31,13,32,16,23,20,04,,,,,,2.8,1.2,2.2*3A##0
$PGRME,0.00,M,0.00,M,10.73,M*2B##1448
$GPGGA,201112,3822.4280,N,11042.5192,W,1,07,1.20,1308.29,M,-18.561,M,,*4E##0
$GPRMC,201112,A,3822.4280,N,11042.5192,W,0.1905,180.000,310510,,*30##0
$GPGSA,A,3,31,13,32,16,23,20,04,,,,,,2.8,1.2,2.2*3A##0
$PGRME,0.00,M,0.00,M,10.73,M*2B##579
$GPGGA,201113,3822.4280,N,11042.5192,W,1,07,1.20,1308.29,M,-18.561,M,,*4F##1
$GPRMC,201113,A,3822.4280,N,11042.5192,W,0.1905,180.000,310510,,*31##0
$GPGSA,A,3,31,13,32,16,23,20,04,,,,,,2.8,1.2,2.2*3A##0
$PGRME,0.00,M,0.00,M,10.73,M*2B##972
$GPGGA,201114,3822.4280,N,11042.5192,W,1,07,1.20,1308.29,M,-18.561,M,,*48##0
$GPRMC,201114,A,3822.4280,N,11042.5192,W,0.1905,180.000,310510,,*36##0
$GPGSA,A,3,31,13,32,16,23,20,04,,,,,,2.8,1.2,2.2*3A##0
$PGRME,0.00,M,0.00,M,10.73,M*2B##1448
$GPGGA,201115,3822.4280,N,11042.5192,W,1,07,1.20,1308.29,M,-18.561,M,,*49##0
$GPRMC,201115,A,3822.4280,N,11042.5192,W,0.1905,180.000,310510,,*37##0
$GPGSA,A,3,31,13,32,16,23,20,04,,,,,,2.8,1.2,2.2*3A##581
$GPGGA,201116,3822.4280,N,11042.5192,W,1,07,1.20,1308.29,M,-18.561,M,,*4A##1
$GPRMC,201116,A,3822.4280,N,11042.5192,W,0.1905,180.000,310510,,*34##0
$GPGSA,A,3,31,13,32,16,23,20,04,,,,,,2.8,1.2,2.2*3A##970
$GPGGA,201117,3822.4280,N,11042.5192,W,1,07,1.20,1308.29,M,-18.561,M,,*4B##0
$GPRMC,201117,A,3822.4280,N,11042.5192,W,0.1905,180.000,310510,,*35##0
$GPGSA,A,3,31,13,32,16,23,20,04,,,,,,2.8,1.2,2.2*3A##1335
$GPGSV,3,1,10,31,16,055,31,23,59,324,42,13,35,306,35,06,05,129,20*7F##0
$GPGSV,3,2,10,16,56,091,30,04,07,300,27,20,60,214,36,32,48,172,30*7F##1
$GPGSV,3,3,10,03,05,144,00,07,13,247,28*71##111
$GPGGA,201118,3822.4280,N,11042.5192,W,1,07,1.20,1308.29,M,-18.561,M,,*44##0
$GPRMC,201118,A,3822.4280,N,11042.5192,W,0.1905,180.000,310510,,*3A##1
$GPGSA,A,3,31,13,32,16,23,20,04,,,,,,2.8,1.2,2.2*3A##584
$GPGGA,201119,3822.4280,N,11042.5192,W,1,07,1.20,1308.29,M,-18.561,M,,*45##0
$GPRMC,201119,A,3822.4280,N,11042.5192,W,0.1905,180.000,310510,,*3B##0
$GPGSA,A,3,31,13,32,16,23,20,04,,,,,,2.8,1.2,2.2*3A##964
$GPGGA,201120,3822.4280,N,11042.5192,W,1,07,1.20,1308.29,M,-18.561,M,,*4F##0
$GPRMC,201120,A,3822.4280,N,11042.5192,W,0.1905,180.000,310510,,*31##1
$GPGSA,A,3,31,13,32,16,23,20,04,,,,,,2.8,1.2,2.2*3A##1450
$GPGGA,201121,3822.4280,N,11042.5192,W,1,07,1.20,1308.29,M,-18.561,M,,*4E##1
$GPRMC,201121,A,3822.4280,N,11042.5192,W,0.1905,180.000,310510,,*30##1
$GPGSA,A,3,31,13,32,16,23,20,04,,,,,,2.8,1.2,2.2*3A##0
$PGRME,0.00,M,0.00,M,10.73,M*2B##579
$GPGGA,201122,3822.4280,N,11042.5192,W,1,07,1.20,1308.29,M,-18.561,M,,*4D##0
$GPRMC,201122,A,3822.4280,N,11042.5192,W,0.1905,180.000,310510,,*33##0
$GPGSA,A,3,31,13,32,16,23,20,04,,,,,,2.8,1.2,2.2*3A##0
$PGRME,0.00,M,0.00,M,10.73,M*2B##971
$GPGGA,201123,3822.4280,N,11042.5192,W,1,07,1.20,1308.29,M,-18.561,M,,*4C##0
$GPRMC,201123,A,3822.4280,N,11042.5192,W,0.1905,180.000,310510,,*32##1
$GPGSA,A,3,31,13,32,16,23,20,04,,,,,,2.8,1.2,2.2*3A##0
$PGRME,0.00,M,0.00,M,10.73,M*2B##1448
$GPGGA,201124,3822.4280,N,11042.5192,W,1,07,1.20,1308.29,M,-18.561,M,,*4B##0
$GPRMC,201124,A,3822.4280,N,11042.5192,W,0.1905,180.000,310510,,*35##1
$GPGSA,A,3,31,13,32,16,23,20,04,,,,,,2.8,1.2,2.2*3A##578
$GPGGA,201125,3822.4280,N,11042.5192,W,1,07,1.20,1308.29,M,-18.561,M,,*4A##0
$GPRMC,201125,A,3822.4280,N,11042.5192,W,0.1905,180.000,310510,,*34##1
$GPGSA,A,3,31,13,32,16,23,20,04,,,,,,2.8,1.2,2.2*3A##0
$PGRME,0.00,M,0.00,M,10.73,M*2B##971
$GPGGA,201126,3822.4280,N,11042.5192,W,1,07,1.20,1308.29,M,-18.561,M,,*49##0
$GPRMC,201126,A,3822.4280,N,11042.5192,W,0.1905,180.000,310510,,*37##1
$GPGSA,A,3,31,13,32,16,23,20,04,,,,,,2.8,1.2,2.2*3A##0
$PGRME,0.00,M,0.00,M,10.73,M*2B##1447
$GPGGA,201127,3822.4280,N,11042.5192,W,1,07,1.20,1308.29,M,-18.561,M,,*48##1
$GPRMC,201127,A,3822.4280,N,11042.5192,W,0.1905,180.000,310510,,*36##0
$GPGSA,A,3,31,13,32,16,23,20,04,,,,,,2.8,1.2,2.2*3A##579
$GPGGA,201128,3822.4280,N,11042.5192,W,1,07,1.20,1308.29,M,-18.561,M,,*47##1
$GPRMC,201128,A,3822.4280,N,11042.5192,W,0.1905,180.000,310510,,*39##0
$GPGSA,A,3,31,13,32,16,23,20,04,,,,,,2.8,1.2,2.2*3A##0
$PGRME,0.00,M,0.00,M,10.73,M*2B##972
$GPGGA,201129,3822.4280,N,11042.5192,W,1,07,1.20,1308.29,M,-18.561,M,,*46##0
$GPRMC,201129,A,3822.4280,N,11042.5192,W,0.1905,180.000,310510,,*38##1
$GPGSA,A,3,31,13,32,16,23,20,04,,,,,,2.8,1.2,2.2*3A##1446
$GPGGA,201130,3822.4280,N,11042.5192,W,1,07,1.20,1308.29,M,-18.561,M,,*4E##0
$GPRMC,201130,A,3822.4280,N,11042.5192,W,0.1905,180.000,310510,,*30##1
$GPGSA,A,3,31,13,32,16,23,20,04,,,,,,2.8,1.2,2.2*3A##579
$GPGGA,201131,3822.4280,N,11042.5192,W,1,07,1.20,1308.29,M,-18.561,M,,*4F##1
$GPRMC,201131,A,3822.4280,N,11042.5192,W,0.1905,180.000,310510,,*31##1
$GPGSA,A,3,31,13,32,16,23,20,04,,,,,,2.8,1.2,2.2*3A##970
$GPGGA,201132,3822.4280,N,11042.5192,W,1,07,1.20,1308.29,M,-18.561,M,,*4C##0
$GPRMC,201132,A,3822.4280,N,11042.5192,W,0.1905,180.000,310510,,*32##0
$GPGSA,A,3,31,13,32,16,23,20,04,,,,,,2.8,1.2,2.2*3A##1
$PGRME,0.00,M,0.00,M,10.73,M*2B##1335
$GPGSV,3,1,09,31,16,055,29,23,59,324,42,13,35,306,36,16,56,091,29*71##0
$GPGSV,3,2,09,04,07,300,25,20,60,214,37,32,48,172,30,03,05,144,15*78##0
$GPGSV,3,3,09,07,13,247,28*4E##112
$GPGGA,201133,3822.4280,N,11042.5192,W,1,07,1.20,1308.29,M,-18.561,M,,*4D##1
$GPRMC,201133,A,3822.4280,N,11042.5192,W,0.0000,0.000,310510,,*37##0
$GPGSA,A,3,31,13,32,16,23,20,04,,,,,,2.8,1.2,2.2*3A##580
$GPGGA,201134,3822.4280,N,11042.5192,W,1,08,1.00,1308.29,M,-18.561,M,,*47##0
$GPRMC,201134,A,3822.4280,N,11042.5192,W,0.0000,0.000,310510,,*30##1
$GPGSA,A,3,31,13,32,16,23,07,20,04,,,,,2.8,1.0,2.2*3F##975
$GPGGA,201135,3822.4283,N,11042.5195,W,1,08,1.00,1307.55,M,-18.561,M,,*46##2
$GPRMC,201135,A,3822.4283,N,11042.5195,W,0.0000,0.000,310510,,*35##0
$GPGSA,A,3,31,13,32,16,23,07,20,04,,,,,2.8,1.0,2.2*3F##1442
$GPGGA,201136,3822.4283,N,11042.5195,W,1,08,1.00,1307.55,M,-18.561,M,,*45##0
$GPRMC,201136,A,3822.4283,N,11042.5195,W,0.0000,0.000,310510,,*36##0
$GPGSA,A,3,31,13,32,16,23,07,20,04,,,,,2.8,1.0,2.2*3F##1
$PGRME,0.00,M,0.00,M,10.73,M*2B##578
$GPGGA,201137,3822.4283,N,11042.5195,W,1,08,1.00,1307.55,M,-18.561,M,,*44##0
$GPRMC,201137,A,3822.4283,N,11042.5195,W,0.0000,0.000,310510,,*37##1
$GPGSA,A,3,31,13,32,16,23,07,20,04,,,,,2.8,1.0,2.2*3F##0
$PGRME,0.00,M,0.00,M,10.73,M*2B##976
$GPGGA,201138,3822.4283,N,11042.5195,W,1,08,1.00,1307.55,M,-18.561,M,,*4B##0
$GPRMC,201138,A,3822.4283,N,11042.5195,W,0.0000,0.000,310510,,*38##1
$GPGSA,A,3,31,13,32,16,23,07,20,04,,,,,2.8,1.0,2.2*3F##0
$PGRME,0.00,M,0.00,M,10.73,M*2B##1446
$GPGGA,201139,3822.4283,N,11042.5195,W,1,08,1.00,1307.55,M,-18.561,M,,*4A##0
$GPRMC,201139,A,3822.4283,N,11042.5195,W,0.0000,0.000,310510,,*39##1
$GPGSA,A,3,31,13,32,16,23,07,20,04,,,,,2.8,1.0,2.2*3F##579
$GPGGA,201140,3822.4283,N,11042.5195,W,1,08,1.00,1307.55,M,-18.561,M,,*44##1
$GPRMC,201140,A,3822.4283,N,11042.5195,W,0.0000,0.000,310510,,*37##0
$GPGSA,A,3,31,13,32,16,23,07,20,04,,,,,2.8,1.0,2.2*3F##968
$GPGGA,201141,3822.4283,N,11042.5195,W,1,08,1.00,1307.55,M,-18.561,M,,*45##0
$GPRMC,201141,A,3822.4283,N,11042.5195,W,0.0000,0.000,310510,,*36##0
$GPGSA,A,3,31,13,32,16,23,07,20,04,,,,,2.8,1.0,2.2*3F##0
$PGRME,0.00,M,0.00,M,10.73,M*2B##1451
$GPGGA,201142,3822.4283,N,11042.5195,W,1,08,1.00,1307.55,M,-18.561,M,,*46##0
$GPRMC,201142,A,3822.4283,N,11042.5195,W,0.0000,0.000,310510,,*35##0
$GPGSA,A,3,31,13,32,16,23,07,20,04,,,,,2.8,1.0,2.2*3F##1
$PGRME,0.00,M,0.00,M,10.73,M*2B##576
$GPGGA,201143,3822.4283,N,11042.5195,W,1,08,1.00,1307.55,M,-18.561,M,,*47##0
$GPRMC,201143,A,3822.4283,N,11042.5195,W,0.0000,0.000,310510,,*34##0
$GPGSA,A,3,31,13,32,16,23,07,20,04,,,,,2.8,1.0,2.2*3F##975
$GPGGA,201144,3822.4283,N,11042.5195,W,1,08,1.00,1307.55,M,-18.561,M,,*40##1
$GPRMC,201144,A,3822.4283,N,11042.5195,W,0.0000,0.000,310510,,*33##0
$GPGSA,A,3,31,13,32,16,23,07,20,04,,,,,2.8,1.0,2.2*3F##0
$PGRME,0.00,M,0.00,M,10.73,M*2B##1447
$GPGGA,201145,3822.4283,N,11042.5195,W,1,08,1.00,1307.55,M,-18.561,M,,*41##0
$GPRMC,201145,A,3822.4283,N,11042.5195,W,0.0000,0.000,310510,,*32##1
$GPGSA,A,3,31,13,32,16,23,07,20,04,,,,,2.8,1.0,2.2*3F##579
$GPGGA,201146,3822.4283,N,11042.5195,W,1,08,1.00,1307.55,M,-18.561,M,,*42##0
$GPRMC,201146,A,3822.4283,N,11042.5195,W,0.0000,0.000,310510,,*31##1
$GPGSA,A,3,31,13,32,16,23,07,20,04,,,,,2.8,1.0,2.2*3F##0
$PGRME,0.00,M,0.00,M,10.73,M*2B##972
$GPGGA,201147,3822.4283,N,11042.5195,W,1,08,1.00,1307.55,M,-18.561,M,,*43##0
$GPRMC,201147,A,3822.4283,N,11042.5195,W,0.3253,105.652,310510,,*32##0
$GPGSA,A,3,31,13,32,16,23,07,20,04,,,,,2.8,1.0,2.2*3F##0
$PGRME,0.00,M,0.00,M,10.73,M*2B##1336
$GPGSV,3,1,10,31,15,055,30,23,60,325,42,13,36,307,36,06,06,127,00*78##0
$GPGSV,3,2,10,16,57,090,28,04,07,300,24,20,59,213,37,32,46,172,29*7F##0
$GPGSV,3,3,10,03,05,142,15,07,14,249,28*7A##111
$GPGGA,201148,3822.4283,N,11042.5195,W,1,08,1.00,1307.55,M,-18.561,M,,*4C##0
$GPRMC,201148,A,3822.4283,N,11042.5195,W,0.1652,148.660,310510,,*32##1
$GPGSA,A,3,31,13,32,16,23,07,20,04,,,,,2.8,1.0,2.2*3F##576
$GPGGA,201149,3822.4283,N,11042.5195,W,1,08,1.00,1307.55,M,-18.561,M,,*4D##0
$GPRMC,201149,A,3822.4283,N,11042.5195,W,0.0000,0.000,310510,,*3E##0
$GPGSA,A,3,31,13,32,16,23,07,20,04,,,,,2.8,1.0,2.2*3F##0
$PGRME,0.00,M,0.00,M,10.73,M*2B##972
$GPGGA,201150,3822.4283,N,11042.5195,W,1,08,1.00,1307.55,M,-18.561,M,,*45##0
$GPRMC,201150,A,3822.4283,N,11042.5195,W,0.0000,0.000,310510,,*36##0
$GPGSA,A,3,31,13,32,16,23,07,20,04,,,,,2.8,1.0,2.2*3F##1453
$GPGGA,201151,3822.4283,N,11042.5195,W,1,08,1.00,1307.55,M,-18.561,M,,*44##0
$GPRMC,201151,A,3822.4283,N,11042.5195,W,0.1652,148.660,310510,,*3A##1
$GPGSA,A,3,31,13,32,16,23,07,20,04,,,,,2.8,1.0,2.2*3F##626
$GPGGA,201152,3822.4283,N,11042.5195,W,1,08,1.00,1307.55,M,-18.561,M,,*47##0
$GPRMC,201152,A,3822.4283,N,11042.5195,W,0.1652,148.660,310510,,*39##0
$GPGSA,A,3,31,13,32,16,23,07,20,04,,,,,2.8,1.0,2.2*3F##1
$PGRME,0.00,M,0.00,M,10.73,M*2B##925
$GPGGA,201153,3822.4283,N,11042.5195,W,1,08,1.00,1307.55,M,-18.561,M,,*46##0
$GPRMC,201153,A,3822.4283,N,11042.5195,W,0.0000,0.000,310510,,*35##0
$GPGSA,A,3,31,13,32,16,23,07,20,04,,,,,2.8,1.0,2.2*3F##1442
$GPGGA,201154,3822.4283,N,11042.5195,W,1,08,1.00,1307.55,M,-18.561,M,,*41##1
$GPRMC,201154,A,3822.4283,N,11042.5195,W,0.0000,0.000,310510,,*32##0
$GPGSA,A,3,31,13,32,16,23,07,20,04,,,,,2.8,1.0,2.2*3F##0
$PGRME,0.00,M,0.00,M,10.73,M*2B##579
$GPGGA,201155,3822.4283,N,11042.5195,W,1,08,1.00,1307.55,M,-18.561,M,,*40##0
$GPRMC,201155,A,3822.4283,N,11042.5195,W,0.1652,148.660,310510,,*3E##0
$GPGSA,A,3,31,13,32,16,23,07,20,04,,,,,2.8,1.0,2.2*3F##972
$GPGGA,201156,3822.4284,N,11042.5188,W,1,08,1.00,1307.28,M,-18.561,M,,*42##1
$GPRMC,201156,A,3822.4284,N,11042.5188,W,0.1652,148.660,310510,,*36##0
$GPGSA,A,3,31,13,32,16,23,07,20,04,,,,,2.8,1.0,2.2*3F##0
$PGRME,0.00,M,0.00,M,10.73,M*2B##1450
$GPGGA,201157,3822.4283,N,11042.5195,W,1,08,1.00,1307.55,M,-18.561,M,,*42##1
$GPRMC,201157,A,3822.4283,N,11042.5195,W,0.1652,148.660,310510,,*3C##0
$GPGSA,A,3,31,13,32,16,23,07,20,04,,,,,2.8,1.0,2.2*3F##0
$PGRME,0.00,M,0.00,M,10.73,M*2B##576
$GPGGA,201158,3822.4284,N,11042.5188,W,1,08,1.00,1307.28,M,-18.561,M,,*4C##1
$GPRMC,201158,A,3822.4284,N,11042.5188,W,0.1652,148.660,310510,,*38##0
$GPGSA,A,3,31,13,32,16,23,07,20,04,,,,,2.8,1.0,2.2*3F##972
$GPGGA,201159,3822.4284,N,11042.5188,W,1,08,1.00,1307.28,M,-18.561,M,,*4D##1
$GPRMC,201159,A,3822.4284,N,11042.5188,W,0.1652,148.660,310510,,*39##0
$GPGSA,A,3,31,13,32,16,23,07,20,04,,,,,2.8,1.0,2.2*3F##1449
$GPGGA,201200,3822.4284,N,11042.5188,W,1,08,1.00,1307.28,M,-18.561,M,,*42##1
$GPRMC,201200,A,3822.4284,N,11042.5188,W,0.0000,0.000,310510,,*3B##0
$GPGSA,A,3,31,13,32,16,23,07,20,04,,,,,2.8,1.0,2.2*3F##0
$PGRME,0.00,M,0.00,M,10.73,M*2B##579
$GPGGA,201201,3822.4284,N,11042.5188,W,1,08,1.00,1307.28,M,-18.561,M,,*43##1
$GPRMC,201201,A,3822.4284,N,11042.5188,W,0.1652,148.660,310510,,*37##1
$GPGSA,A,3,31,13,32,16,23,07,20,04,,,,,2.8,1.0,2.2*3F##0
$PGRME,0.00,M,0.00,M,10.73,M*2B##970
$GPGGA,201202,3822.4284,N,11042.5188,W,1,08,1.00,1307.28,M,-18.561,M,,*40##1
$GPRMC,201202,A,3822.4284,N,11042.5188,W,0.1652,148.660,310510,,*34##0
$GPGSA,A,3,31,13,32,16,23,07,20,04,,,,,2.8,1.0,2.2*3F##1
$PGRME,0.00,M,0.00,M,10.73,M*2B##1335
$GPGSV,3,1,10,31,15,055,29,23,60,325,42,13,36,307,36,06,06,127,00*70##0
$GPGSV,3,2,10,16,57,090,29,04,07,300,22,20,59,213,37,32,46,172,28*79##0
$GPGSV,3,3,10,03,05,142,14,07,14,249,29*7A##111
$GPGGA,201203,3822.4284,N,11042.5188,W,1,08,1.00,1307.28,M,-18.561,M,,*41##0
$GPRMC,201203,A,3822.4284,N,11042.5188,W,0.0000,0.000,310510,,*38##2
$GPGSA,A,3,31,13,32,16,23,07,20,04,,,,,2.8,1.0,2.2*3F##578
$GPGGA,201204,3822.4284,N,11042.5188,W,1,08,1.00,1307.28,M,-18.561,M,,*46##1
$GPRMC,201204,A,3822.4284,N,11042.5188,W,0.1652,148.660,310510,,*32##1
$GPGSA,A,3,31,13,32,16,23,07,20,04,,,,,2.8,1.0,2.2*3F##971
$GPGGA,201205,3822.4284,N,11042.5188,W,1,08,1.00,1307.28,M,-18.561,M,,*47##0
$GPRMC,201205,A,3822.4284,N,11042.5188,W,0.0000,0.000,310510,,*3E##1
$GPGSA,A,3,31,13,32,16,23,07,20,04,,,,,2.8,1.0,2.2*3F##1446
$GPGGA,201206,3822.4284,N,11042.5188,W,1,08,1.00,1307.28,M,-18.561,M,,*44##1
$GPRMC,201206,A,3822.4284,N,11042.5188,W,0.0000,0.000,310510,,*3D##0
$GPGSA,A,3,31,13,32,16,23,07,20,04,,,,,2.8,1.0,2.2*3F##580
$GPGGA,201207,3822.4280,N,11042.5188,W,1,08,1.00,1306.66,M,-18.561,M,,*4A##1
$GPRMC,201207,A,3822.4280,N,11042.5188,W,0.0000,0.000,310510,,*38##0
$GPGSA,A,3,31,13,32,16,23,07,20,04,,,,,2.8,1.0,2.2*3F##970
$GPGGA,201208,3822.4280,N,11042.5188,W,1,08,1.00,1306.66,M,-18.561,M,,*45##0
$GPRMC,201208,A,3822.4280,N,11042.5188,W,0.1905,180.000,310510,,*33##2
$GPGSA,A,3,31,13,32,16,23,07,20,04,,,,,2.8,1.0,2.2*3F##1447
$GPGGA,201209,3822.4280,N,11042.5188,W,1,08,1.00,1306.66,M,-18.561,M,,*44##0
$GPRMC,201209,A,3822.4280,N,11042.5188,W,0.1905,180.000,310510,,*32##1
$GPGSA,A,3,31,13,32,16,23,07,20,04,,,,,2.8,1.0,2.2*3F##579
$GPGGA,201210,3822.4280,N,11042.5188,W,1,08,1.00,1306.66,M,-18.561,M,,*4C##0
$GPRMC,201210,A,3822.4280,N,11042.5188,W,0.0000,0.000,310510,,*3E##2
$GPGSA,A,3,31,13,32,16,23,07,20,04,,,,,2.8,1.0,2.2*3F##974
$GPGGA,201211,3822.4280,N,11042.5188,W,1,08,1.00,1306.66,M,-18.561,M,,*4D##0
$GPRMC,201211,A,3822.4280,N,11042.5188,W,0.0000,0.000,310510,,*3F##1
$GPGSA,A,3,31,13,32,16,23,07,20,04,,,,,2.8,1.0,2.2*3F##1443
$GPGGA,201212,3822.4283,N,11042.5191,W,1,08,1.00,1305.92,M,-18.561,M,,*4D##2
$GPRMC,201212,A,3822.4283,N,11042.5191,W,0.0000,0.000,310510,,*37##0
$GPGSA,A,3,31,13,32,16,23,07,20,04,,,,,2.8,1.0,2.2*3F##1
$PGRME,0.00,M,0.00,M,10.73,M*2B##576
$GPGGA,201213,3822.4280,N,11042.5188,W,1,08,1.00,1306.66,M,-18.561,M,,*4F##2
$GPRMC,201213,A,3822.4280,N,11042.5188,W,0.1652,148.660,310510,,*30##2
$GPGSA,A,3,31,13,32,16,23,07,20,04,,,,,2.8,1.0,2.2*3F##972
$GPGGA,201214,3822.4280,N,11042.5188,W,1,08,1.00,1306.66,M,-18.561,M,,*48##0
$GPRMC,201214,A,3822.4280,N,11042.5188,W,0.1652,148.660,310510,,*37##1
$GPGSA,A,3,31,13,32,16,23,07,20,04,,,,,2.8,1.0,2.2*3F##0
$PGRME,0.00,M,0.00,M,10.73,M*2B##1444
$GPGGA,201215,3822.4280,N,11042.5188,W,1,08,1.00,1306.66,M,-18.561,M,,*49##0
$GPRMC,201215,A,3822.4280,N,11042.5188,W,0.0000,0.000,310510,,*3B##2
$GPGSA,A,3,31,13,32,16,23,07,20,04,,,,,2.8,1.0,2.2*3F##578
$GPGGA,201216,3822.4280,N,11042.5188,W,1,08,1.00,1306.66,M,-18.561,M,,*4A##0
$GPRMC,201216,A,3822.4280,N,11042.5188,W,0.0000,0.000,310510,,*38##0
$GPGSA,A,3,31,13,32,16,23,07,20,04,,,,,2.8,1.0,2.2*3F##971
$GPGGA,201217,3822.4280,N,11042.5188,W,1,08,1.00,1306.66,M,-18.561,M,,*4B##1
$GPRMC,201217,A,3822.4280,N,11042.5188,W,0.0000,0.000,310510,,*39##0
$GPGSA,A,3,31,13,32,16,23,07,20,04,,,,,2.8,1.0,2.2*3F##0
$PGRME,0.00,M,0.00,M,10.73,M*2B##1336
$GPGSV,3,1,10,31,15,055,28,23,60,325,42,13,36,307,37,06,06,127,00*70##0
$GPGSV,3,2,10,16,57,090,29,04,07,300,20,20,59,213,36,32,46,172,28*7A##0
$GPGSV,3,3,10,03,05,142,15,07,14,249,29*7B##111
$GPGGA,201218,3822.4280,N,11042.5188,W,1,08,1.00,1306.66,M,-18.561,M,,*44##1
$GPRMC,201218,A,3822.4280,N,11042.5188,W,0.1652,148.660,310510,,*3B##1
$GPGSA,A,3,31,13,32,16,23,07,20,04,,,,,2.8,1.0,2.2*3F##578
$GPGGA,201219,3822.4280,N,11042.5188,W,1,08,1.00,1306.66,M,-18.561,M,,*45##1
$GPRMC,201219,A,3822.4280,N,11042.5188,W,0.1652,148.660,310510,,*3A##0
$GPGSA,A,3,31,13,32,16,23,07,20,04,,,,,2.8,1.0,2.2*3F##0
$PGRME,0.00,M,0.00,M,10.73,M*2B##971
$GPGGA,201220,3822.4280,N,11042.5188,W,1,08,1.00,1306.66,M,-18.561,M,,*4F##1
$GPRMC,201220,A,3822.4280,N,11042.5188,W,0.1652,148.660,310510,,*30##0
$GPGSA,A,3,31,13,32,16,23,07,20,04,,,,,2.8,1.0,2.2*3F##1448
$GPGGA,201221,3822.4280,N,11042.5188,W,1,08,1.00,1306.66,M,-18.561,M,,*4E##0
$GPRMC,201221,A,3822.4280,N,11042.5188,W,0.0000,0.000,310510,,*3C##1
$GPGSA,A,3,31,13,32,16,23,07,20,04,,,,,2.8,1.0,2.2*3F##578
$GPGGA,201222,3822.4280,N,11042.5188,W,1,08,1.00,1306.66,M,-18.561,M,,*4D##1
$GPRMC,201222,A,3822.4280,N,11042.5188,W,0.1652,148.660,310510,,*32##1
$GPGSA,A,3,31,13,32,16,23,07,20,04,,,,,2.8,1.0,2.2*3F##1
$PGRME,0.00,M,0.00,M,10.73,M*2B##973
$GPGGA,201223,3822.4280,N,11042.5188,W,1,08,1.00,1306.66,M,-18.561,M,,*4C##1
$GPRMC,201223,A,3822.4280,N,11042.5188,W,0.1652,148.660,310510,,*33##1
$GPGSA,A,3,31,13,32,16,23,07,20,04,,,,,2.8,1.0,2.2*3F##0
$PGRME,0.00,M,0.00,M,10.73,M*2B##1446
$GPGGA,201224,3822.4280,N,11042.5188,W,1,08,1.00,1306.66,M,-18.561,M,,*4B##0
$GPRMC,201224,A,3822.4280,N,11042.5188,W,0.1652,148.660,310510,,*34##1
$GPGSA,A,3,31,13,32,16,23,07,20,04,,,,,2.8,1.0,2.2*3F##0
$PGRME,0.00,M,0.00,M,10.73,M*2B##576
$GPGGA,201225,3822.4280,N,11042.5188,W,1,08,1.00,1306.66,M,-18.561,M,,*4A##0
$GPRMC,201225,A,3822.4280,N,11042.5188,W,0.1652,148.660,310510,,*35##1
$GPGSA,A,3,31,13,32,16,23,07,20,04,,,,,2.8,1.0,2.2*3F##0
$PGRME,0.00,M,0.00,M,10.73,M*2B##971
$GPGGA,201226,3822.4280,N,11042.5188,W,1,08,1.00,1306.66,M,-18.561,M,,*49##0
$GPRMC,201226,A,3822.4280,N,11042.5188,W,0.1652,148.660,310510,,*36##1
$GPGSA,A,3,31,13,32,16,23,07,20,04,,,,,2.8,1.0,2.2*3F##0
$PGRME,0.00,M,0.00,M,10.73,M*2B##1447
$GPGGA,201227,3822.4280,N,11042.5188,W,1,08,1.00,1306.66,M,-18.561,M,,*48##0
$GPRMC,201227,A,3822.4280,N,11042.5188,W,0.0000,0.000,310510,,*3A##2
$GPGSA,A,3,31,13,32,16,23,07,20,04,,,,,2.8,1.0,2.2*3F##577
$GPGGA,201228,3822.4280,N,11042.5188,W,1,08,1.00,1306.66,M,-18.561,M,,*47##0
$GPRMC,201228,A,3822.4280,N,11042.5188,W,0.1652,148.660,310510,,*38##2
$GPGSA,A,3,31,13,32,16,23,07,20,04,,,,,2.8,1.0,2.2*3F##971
$GPGGA,201229,3822.4280,N,11042.5188,W,1,08,1.00,1306.66,M,-18.561,M,,*46##0
$GPRMC,201229,A,3822.4280,N,11042.5188,W,0.1652,148.660,310510,,*39##1
$GPGSA,A,3,31,13,32,16,23,07,20,04,,,,,2.8,1.0,2.2*3F##1446
$GPGGA,201230,3822.4280,N,11042.5188,W,1,08,1.00,1306.66,M,-18.561,M,,*4E##1
$GPRMC,201230,A,3822.4280,N,11042.5188,W,0.1652,148.660,310510,,*31##1
$GPGSA,A,3,31,13,32,16,23,07,20,04,,,,,2.8,1.0,2.2*3F##578
$GPGGA,201231,3822.4280,N,11042.5188,W,1,08,1.00,1306.66,M,-18.561,M,,*4F##1
$GPRMC,201231,A,3822.4280,N,11042.5188,W,0.1652,148.660,310510,,*30##0
$GPGSA,A,3,31,13,32,16,23,07,20,04,,,,,2.8,1.0,2.2*3F##973
$GPGGA,201232,3822.4280,N,11042.5188,W,1,08,1.00,1306.66,M,-18.561,M,,*4C##0
$GPRMC,201232,A,3822.4280,N,11042.5188,W,0.0000,0.000,310510,,*3E##1
$GPGSA,A,3,31,13,32,16,23,07,20,04,,,,,2.8,1.0,2.2*3F##0
$PGRME,0.00,M,0.00,M,10.73,M*2B##1333
$GPGSV,3,1,10,31,15,055,27,23,60,325,41,13,36,307,37,06,06,127,00*7C##1
$GPGSV,3,2,10,16,57,090,29,04,07,300,19,20,59,213,37,32,46,172,28*71##0
$GPGSV,3,3,10,03,05,142,15,07,14,249,28*7A##112
$GPGGA,201233,3822.4280,N,11042.5188,W,1,08,1.00,1306.66,M,-18.561,M,,*4D##0
$GPRMC,201233,A,3822.4280,N,11042.5188,W,0.0000,0.000,310510,,*3F##1
$GPGSA,A,3,31,13,32,16,23,07,20,04,,,,,2.8,1.0,2.2*3F##578
$GPGGA,201234,3822.4280,N,11042.5188,W,1,08,1.00,1306.66,M,-18.561,M,,*4A##0
$GPRMC,201234,A,3822.4280,N,11042.5188,W,0.0000,0.000,310510,,*38##1
$GPGSA,A,3,31,13,32,16,23,07,20,04,,,,,2.8,1.0,2.2*3F##1
$PGRME,0.00,M,0.00,M,10.73,M*2B##971
$GPGGA,201235,3822.4283,N,11042.5191,W,1,08,1.00,1305.92,M,-18.561,M,,*48##2
$GPRMC,201235,A,3822.4283,N,11042.5191,W,0.0000,0.000,310510,,*32##1
$GPGSA,A,3,31,13,32,16,23,07,20,04,,,,,2.8,1.0,2.2*3F##1445
$GPGGA,201236,3822.4283,N,11042.5191,W,1,08,1.00,1305.92,M,-18.561,M,,*4B##0
$GPRMC,201236,A,3822.4283,N,11042.5191,W,0.0000,0.000,310510,,*31##1
$GPGSA,A,3,31,13,32,16,23,07,20,04,,,,,2.8,1.0,2.2*3F##578
$GPGGA,201237,3822.4283,N,11042.5191,W,1,08,1.00,1305.92,M,-18.561,M,,*4A##1
$GPRMC,201237,A,3822.4283,N,11042.5191,W,0.0000,0.000,310510,,*30##1
$GPGSA,A,3,31,13,32,16,23,07,20,04,,,,,2.8,1.0,2.2*3F##0
$PGRME,0.00,M,0.00,M,10.73,M*2B##975
$GPGGA,201238,3822.4283,N,11042.5191,W,1,08,1.00,1305.92,M,-18.561,M,,*45##0
$GPRMC,201238,A,3822.4283,N,11042.5191,W,0.0000,0.000,310510,,*3F##1
$GPGSA,A,3,31,13,32,16,23,07,20,04,,,,,2.8,1.0,2.2*3F##1443
$GPGGA,201239,3822.4283,N,11042.5191,W,1,08,1.00,1305.92,M,-18.561,M,,*44##1
$GPRMC,201239,A,3822.4283,N,11042.5191,W,0.0000,0.000,310510,,*3E##1
$GPGSA,A,3,31,13,32,16,23,07,20,04,,,,,2.8,1.0,2.2*3F##0
$PGRME,0.00,M,0.00,M,10.73,M*2B##582
$GPGGA,201240,3822.4283,N,11042.5191,W,1,08,1.00,1305.92,M,-18.561,M,,*4A##0
$GPRMC,201240,A,3822.4283,N,11042.5191,W,0.0000,0.000,310510,,*30##1
$GPGSA,A,3,31,13,32,16,23,07,20,04,,,,,2.8,1.0,2.2*3F##970
$GPGGA,201241,3822.4283,N,11042.5191,W,1,08,1.00,1305.92,M,-18.561,M,,*4B##1
$GPRMC,201241,A,3822.4283,N,11042.5191,W,0.0000,0.000,310510,,*31##1
$GPGSA,A,3,31,13,32,16,23,07,20,04,,,,,2.8,1.0,2.2*3F##0
$PGRME,0.00,M,0.00,M,10.73,M*2B##1442
$GPGGA,201242,3822.4283,N,11042.5191,W,1,08,1.00,1305.92,M,-18.561,M,,*48##1
$GPRMC,201242,A,3822.4283,N,11042.5191,W,0.0000,0.000,310510,,*32##0
$GPGSA,A,3,31,13,32,16,23,07,20,04,,,,,2.8,1.0,2.2*3F##580
$GPGGA,201243,3822.4283,N,11042.5191,W,1,08,1.00,1305.92,M,-18.561,M,,*49##0
$GPRMC,201243,A,3822.4283,N,11042.5191,W,0.3253,105.652,310510,,*31##1
$GPGSA,A,3,31,13,32,16,23,07,20,04,,,,,2.8,1.0,2.2*3F##0
$PGRME,0.00,M,0.00,M,10.73,M*2B##974
$GPGGA,201244,3822.4283,N,11042.5191,W,1,08,1.00,1305.92,M,-18.561,M,,*4E##1
$GPRMC,201244,A,3822.4283,N,11042.5191,W,0.3253,105.652,310510,,*36##0
$GPGSA,A,3,31,13,32,16,23,07,20,04,,,,,2.8,1.0,2.2*3F##0
$PGRME,0.00,M,0.00,M,10.73,M*2B##1447
$GPGGA,201245,3822.4283,N,11042.5191,W,1,08,1.00,1305.92,M,-18.561,M,,*4F##0
$GPRMC,201245,A,3822.4283,N,11042.5191,W,0.2404,216.018,310510,,*3B##2
$GPGSA,A,3,31,13,32,16,23,07,20,04,,,,,2.8,1.0,2.2*3F##575
$GPGGA,201246,3822.4283,N,11042.5191,W,1,08,1.00,1305.92,M,-18.561,M,,*4C##0
$GPRMC,201246,A,3822.4283,N,11042.5191,W,0.1652,148.660,310510,,*3B##1
$GPGSA,A,3,31,13,32,16,23,07,20,04,,,,,2.8,1.0,2.2*3F##971
$GPGGA,201247,3822.4283,N,11042.5191,W,1,08,1.00,1305.92,M,-18.561,M,,*4D##0
$GPRMC,201247,A,3822.4283,N,11042.5191,W,0.0000,0.000,310510,,*37##1
$GPGSA,A,3,31,13,32,16,23,07,20,04,,,,,2.8,1.0,2.2*3F##1
$PGRME,0.00,M,0.00,M,10.73,M*2B##1338
$GPGSV,3,1,09,31,15,055,23,23,60,325,41,13,36,307,37,06,06,127,00*70##0
$GPGSV,3,2,09,16,57,090,30,04,07,300,20,20,59,213,37,32,46,172,26*75##0
$GPGSV,3,3,09,07,14,249,29*46##112
$GPGGA,201248,3822.4283,N,11042.5191,W,1,08,1.00,1305.92,M,-18.561,M,,*42##0
$GPRMC,201248,A,3822.4283,N,11042.5191,W,0.0000,0.000,310510,,*38##1
$GPGSA,A,3,31,13,32,16,23,07,20,04,,,,,2.8,1.0,2.2*3F##579
$GPGGA,201249,3822.4283,N,11042.5191,W,1,08,1.00,1305.92,M,-18.561,M,,*43##0
$GPRMC,201249,A,3822.4283,N,11042.5191,W,0.3253,105.652,310510,,*3B##2
$GPGSA,A,3,31,13,32,16,23,07,20,04,,,,,2.8,1.0,2.2*3F##0
$PGRME,0.00,M,0.00,M,10.73,M*2B##973
$GPGGA,201250,3822.4283,N,11042.5191,W,1,08,1.00,1305.92,M,-18.561,M,,*4B##0
$GPRMC,201250,A,3822.4283,N,11042.5191,W,0.2335,256.793,310510,,*3A##2
$GPGSA,A,3,31,13,32,16,23,07,20,04,,,,,2.8,1.0,2.2*3F##0
$PGRME,0.00,M,0.00,M,10.73,M*2B##1443
$GPGGA,201251,3822.4283,N,11042.5191,W,1,08,1.00,1305.92,M,-18.561,M,,*4A##0
$GPRMC,201251,A,3822.4283,N,11042.5191,W,0.2404,216.018,310510,,*3E##2
$GPGSA,A,3,31,13,32,16,23,07,20,04,,,,,2.8,1.0,2.2*3F##574
$GPGGA,201252,3822.4283,N,11042.5191,W,1,08,1.00,1305.92,M,-18.561,M,,*49##0
$GPRMC,201252,A,3822.4283,N,11042.5191,W,0.1652,148.660,310510,,*3E##2
$GPGSA,A,3,31,13,32,16,23,07,20,04,,,,,2.8,1.0,2.2*3F##1
$PGRME,0.00,M,0.00,M,10.73,M*2B##969
$GPGGA,201253,3822.4283,N,11042.5191,W,1,08,1.00,1305.92,M,-18.561,M,,*48##0
$GPRMC,201253,A,3822.4283,N,11042.5191,W,0.2335,76.793,310510,,*09##2
$GPGSA,A,3,31,13,32,16,23,07,20,04,,,,,2.8,1.0,2.2*3F##0
$PGRME,0.00,M,0.00,M,10.73,M*2B##1449
$GPGGA,201254,3822.4279,N,11042.5191,W,1,08,1.00,1305.30,M,-18.561,M,,*42##3
$GPRMC,201254,A,3822.4279,N,11042.5191,W,0.3425,165.473,310510,,*32##2
$GPGSA,A,3,31,13,32,16,23,07,20,04,,,,,2.8,1.0,2.2*3F##0
$PGRME,0.00,M,0.00,M,10.73,M*2B##575
$GPGGA,201255,3822.4279,N,11042.5191,W,1,08,1.00,1305.30,M,-18.561,M,,*43##1
$GPRMC,201255,A,3822.4279,N,11042.5191,W,0.4669,76.793,310510,,*00##1
$GPGSA,A,3,31,13,32,16,23,07,20,04,,,,,2.8,1.0,2.2*3F##0
$PGRME,0.00,M,0.00,M,10.73,M*2B##971
$GPGGA,201256,3822.4279,N,11042.5191,W,1,08,1.00,1305.30,M,-18.561,M,,*40##0
$GPRMC,201256,A,3822.4279,N,11042.5191,W,0.1905,180.000,310510,,*36##2
$GPGSA,A,3,31,13,32,16,23,07,20,04,,,,,2.8,1.0,2.2*3F##1442
$GPGGA,201257,3822.4279,N,11042.5191,W,1,08,1.00,1305.30,M,-18.561,M,,*41##0
$GPRMC,201257,A,3822.4279,N,11042.5191,W,0.4669,76.793,310510,,*02##2
$GPGSA,A,3,31,13,32,16,23,07,20,04,,,,,2.8,1.0,2.2*3F##578
$GPGGA,201258,3822.4280,N,11042.5184,W,1,08,1.00,1305.02,M,-18.561,M,,*4D##2
$GPRMC,201258,A,3822.4280,N,11042.5184,W,0.5854,112.593,310510,,*3F##2
$GPGSA,A,3,31,13,32,16,23,07,20,04,,,,,2.8,1.0,2.2*3F##0
$PGRME,0.00,M,0.00,M,10.73,M*2B##969
$GPGGA,201259,3822.4280,N,11042.5184,W,1,08,1.00,1305.02,M,-18.561,M,,*4C##0
$GPRMC,201259,A,3822.4280,N,11042.5184,W,0.2335,76.793,310510,,*04##0
$GPGSA,A,3,31,13,32,16,23,07,20,04,,,,,2.8,1.0,2.2*3F##1
$PGRME,0.00,M,0.00,M,10.73,M*2B##1450
$GPGGA,201300,3822.4280,N,11042.5184,W,1,08,1.00,1305.02,M,-18.561,M,,*41##0
$GPRMC,201300,A,3822.4280,N,11042.5184,W,0.0000,0.000,310510,,*32##1
$GPGSA,A,3,31,13,32,16,23,07,20,04,,,,,2.8,1.0,2.2*3F##582
$GPGGA,201301,3822.4280,N,11042.5184,W,1,08,1.00,1305.02,M,-18.561,M,,*40##0
$GPRMC,201301,A,3822.4280,N,11042.5184,W,0.2335,76.793,310510,,*08##2
$GPGSA,A,3,31,13,32,16,23,07,20,04,,,,,2.8,1.0,2.2*3F##963
$GPGGA,201302,3822.4279,N,11042.5191,W,1,08,1.00,1305.30,M,-18.561,M,,*40##2
$GPRMC,201302,A,3822.4279,N,11042.5191,W,0.1905,180.000,310510,,*36##1
$GPGSA,A,3,31,13,32,16,23,07,20,04,,,,,2.8,1.0,2.2*3F##1337
$GPGSV,3,1,09,31,15,055,25,23,60,325,40,13,36,307,37,03,05,142,00*72##0
$GPGSV,3,2,09,16,57,090,29,04,07,300,21,20,59,213,37,32,46,172,18*71##0
$GPGSV,3,3,09,07,14,249,28*47##112
$GPGGA,201303,3822.4279,N,11042.5191,W,1,08,1.00,1305.30,M,-18.561,M,,*41##0
$GPRMC,201303,A,3822.4279,N,11042.5191,W,0.0000,0.000,310510,,*33##2
$GPGSA,A,3,31,13,32,16,23,07,20,04,,,,,2.8,1.0,2.2*3F##577
$GPGGA,201304,3822.4279,N,11042.5191,W,1,08,1.00,1305.30,M,-18.561,M,,*46##0
$GPRMC,201304,A,3822.4279,N,11042.5191,W,0.0000,0.000,310510,,*34##1
$GPGSA,A,3,31,13,32,16,23,07,20,04,,,,,2.8,1.0,2.2*3F##968
$GPGGA,201305,3822.4279,N,11042.5191,W,1,08,1.00,1305.30,M,-18.561,M,,*47##0
$GPRMC,201305,A,3822.4279,N,11042.5191,W,0.0000,0.000,310510,,*35##1
$GPGSA,A,3,31,13,32,16,23,07,20,04,,,,,2.8,1.0,2.2*3F##0
$PGRME,0.00,M,0.00,M,10.73,M*2B##1636
$GPGGA,201306,3822.4279,N,11042.5191,W,1,08,1.00,1305.30,M,-18.561,M,,*44##0
$GPRMC,201306,A,3822.4279,N,11042.5191,W,0.0000,0.000,310510,,*36##1
$GPGSA,A,3,31,13,32,16,23,07,20,04,,,,,2.8,1.0,2.2*3F##0
$PGRME,0.00,M,0.00,M,10.73,M*2B##389
$GPGGA,201307,3822.4276,N,11042.5188,W,1,08,1.00,1306.04,M,-18.561,M,,*46##1
$GPRMC,201307,A,3822.4276,N,11042.5188,W,0.0000,0.000,310510,,*30##0
$GPGSA,A,3,31,13,32,16,23,07,20,04,,,,,2.8,1.0,2.2*3F##972
$GPGGA,201308,3822.4276,N,11042.5188,W,1,08,1.00,1306.04,M,-18.561,M,,*49##0
$GPRMC,201308,A,3822.4276,N,11042.5188,W,0.0000,0.000,310510,,*3F##1
$GPGSA,A,3,31,13,32,16,23,07,20,04,,,,,2.8,1.0,2.2*3F##0
$PGRME,0.00,M,0.00,M,10.73,M*2B##1447
$GPGGA,201309,3822.4276,N,11042.5188,W,1,08,1.00,1306.04,M,-18.561,M,,*48##0
$GPRMC,201309,A,3822.4276,N,11042.5188,W,0.1652,148.660,310510,,*33##1
$GPGSA,A,3,31,13,32,16,23,07,20,04,,,,,2.8,1.0,2.2*3F##1
$PGRME,0.00,M,0.00,M,10.73,M*2B##577
$GPGGA,201310,3822.4276,N,11042.5188,W,1,08,1.00,1306.04,M,-18.561,M,,*40##1
$GPRMC,201310,A,3822.4276,N,11042.5188,W,0.1652,148.660,310510,,*3B##0
$GPGSA,A,3,31,13,32,16,23,07,20,04,,,,,2.8,1.0,2.2*3F##976
$GPGGA,201311,3822.4276,N,11042.5188,W,1,08,1.00,1306.04,M,-18.561,M,,*41##0
$GPRMC,201311,A,3822.4276,N,11042.5188,W,0.0000,0.000,310510,,*37##1
$GPGSA,A,3,31,13,32,16,23,07,20,04,,,,,2.8,1.0,2.2*3F##1443
$GPGGA,201312,3822.4276,N,11042.5188,W,1,08,1.00,1306.04,M,-18.561,M,,*42##0
$GPRMC,201312,A,3822.4276,N,11042.5188,W,0.0000,0.000,310510,,*34##1
$GPGSA,A,3,31,13,32,16,23,07,20,04,,,,,2.8,1.0,2.2*3F##579
$GPGGA,201313,3822.4274,N,11042.5195,W,1,08,1.00,1306.31,M,-18.561,M,,*4B##2
$GPRMC,201313,A,3822.4274,N,11042.5195,W,0.0000,0.000,310510,,*3B##1
$GPGSA,A,3,31,13,32,16,23,07,20,04,,,,,2.8,1.0,2.2*3F##972
$GPGGA,201314,3822.4279,N,11042.5195,W,1,08,1.00,1306.93,M,-18.561,M,,*49##2
$GPRMC,201314,A,3822.4279,N,11042.5195,W,0.0000,0.000,310510,,*31##1
$GPGSA,A,3,31,13,32,16,23,07,20,04,,,,,2.8,1.0,2.2*3F##1442
$GPGGA,201315,3822.4279,N,11042.5195,W,1,08,1.00,1306.93,M,-18.561,M,,*48##0
$GPRMC,201315,A,3822.4279,N,11042.5195,W,0.5029,160.021,310510,,*3A##4
$GPGSA,A,3,31,13,32,16,23,07,20,04,,,,,2.8,1.0,2.2*3F##575
$GPGGA,201316,3822.4279,N,11042.5195,W,1,08,1.00,1306.93,M,-18.561,M,,*4B##1
$GPRMC,201316,A,3822.4279,N,11042.5195,W,0.1652,148.660,310510,,*3E##2
$GPGSA,A,3,31,13,32,16,23,07,20,04,,,,,2.8,1.0,2.2*3F##970
$GPGGA,201317,3822.4279,N,11042.5195,W,1,08,1.00,1306.93,M,-18.561,M,,*4A##0
$GPRMC,201317,A,3822.4279,N,11042.5195,W,0.5029,160.021,310510,,*38##1
$GPGSA,A,3,31,13,32,16,23,07,20,04,,,,,2.8,1.0,2.2*3F##1
$PGRME,0.00,M,0.00,M,10.73,M*2B##1337
$GPGSV,3,1,09,31,15,055,29,23,60,325,40,13,36,307,37,16,57,090,29*78##0
$GPGSV,3,2,09,04,07,300,21,20,59,213,37,32,46,172,19,06,06,127,20*71##1
$GPGSV,3,3,09,07,14,249,29*46##111
$GPGGA,201318,3822.4279,N,11042.5195,W,1,08,1.00,1306.93,M,-18.561,M,,*45##0
$GPRMC,201318,A,3822.4279,N,11042.5195,W,0.1652,148.660,310510,,*30##2
$GPGSA,A,3,31,13,32,16,23,07,20,04,,,,,2.8,1.0,2.2*3F##579
$GPGGA,201319,3822.4283,N,11042.5195,W,1,08,1.00,1307.55,M,-18.561,M,,*4A##2
$GPRMC,201319,A,3822.4283,N,11042.5195,W,0.0000,0.000,310510,,*39##9
$GPGSA,A,3,31,13,32,16,23,07,20,04,,,,,2.8,1.0,2.2*3F##0
$PGRME,0.00,M,0.00,M,10.73,M*2B##964
$GPGGA,201320,3822.4283,N,11042.5195,W,1,08,1.00,1307.55,M,-18.561,M,,*40##0
$GPRMC,201320,A,3822.4283,N,11042.5195,W,0.0000,0.000,310510,,*33##1
$GPGSA,A,3,31,13,32,16,23,07,20,04,,,,,2.8,1.0,2.2*3F##0
$PGRME,0.00,M,0.00,M,10.73,M*2B##1440
$GPGGA,201321,3822.4283,N,11042.5195,W,1,08,1.00,1307.55,M,-18.561,M,,*41##0
$GPRMC,201321,A,3822.4283,N,11042.5195,W,0.0000,0.000,310510,,*32##1
$GPGSA,A,3,31,13,32,16,23,07,20,04,,,,,2.8,1.0,2.2*3F##0
$PGRME,0.00,M,0.00,M,10.73,M*2B##579
$GPGGA,201322,3822.4283,N,11042.5195,W,1,08,1.00,1307.55,M,-18.561,M,,*42##0
$GPRMC,201322,A,3822.4283,N,11042.5195,W,0.3425,165.473,310510,,*33##2
$GPGSA,A,3,31,13,32,16,23,07,20,04,,,,,2.8,1.0,2.2*3F##0
$PGRME,0.00,M,0.00,M,10.73,M*2B##969
$GPGGA,201323,3822.4283,N,11042.5195,W,1,08,1.00,1307.55,M,-18.561,M,,*43##0
$GPRMC,201323,A,3822.4283,N,11042.5195,W,0.0000,0.000,310510,,*30##1
$GPGSA,A,3,31,13,32,16,23,07,20,04,,,,,2.8,1.0,2.2*3F##1447
$GPGGA,201324,3822.4283,N,11042.5195,W,1,08,1.00,1307.55,M,-18.561,M,,*44##1
$GPRMC,201324,A,3822.4283,N,11042.5195,W,0.1905,0.000,310510,,*3A##1
$GPGSA,A,3,31,13,32,16,23,07,20,04,,,,,2.8,1.0,2.2*3F##582
$GPGGA,201325,3822.4287,N,11042.5195,W,1,08,1.00,1308.17,M,-18.561,M,,*48##2
$GPRMC,201325,A,3822.4287,N,11042.5195,W,0.1905,0.000,310510,,*3F##1
$GPGSA,A,3,31,13,32,16,23,07,20,04,,,,,2.8,1.0,2.2*3F##0
$PGRME,0.00,M,0.00,M,10.73,M*2B##966
$GPGGA,201326,3822.4286,N,11042.5201,W,1,08,1.00,1308.45,M,-18.561,M,,*43##2
$GPRMC,201326,A,3822.4286,N,11042.5201,W,0.3425,165.473,310510,,*3C##1
$GPGSA,A,3,31,13,32,16,23,07,20,04,,,,,2.8,1.0,2.2*3F##1449
$GPGGA,201327,3822.4286,N,11042.5201,W,1,08,1.00,1308.45,M,-18.561,M,,*42##0
$GPRMC,201327,A,3822.4286,N,11042.5201,W,0.1905,0.000,310510,,*32##2
$GPGSA,A,3,31,13,32,16,23,07,20,04,,,,,2.8,1.0,2.2*3F##574
$GPGGA,201328,3822.4286,N,11042.5201,W,1,08,1.00,1308.45,M,-18.561,M,,*4D##1
$GPRMC,201328,A,3822.4286,N,11042.5201,W,0.0000,0.000,310510,,*30##1
$GPGSA,A,3,31,13,32,16,23,07,20,04,,,,,2.8,1.0,2.2*3F##969
$GPGGA,201329,3822.4286,N,11042.5201,W,1,08,1.00,1308.45,M,-18.561,M,,*4C##1
$GPRMC,201329,A,3822.4286,N,11042.5201,W,0.1905,0.000,310510,,*3C##1
$GPGSA,A,3,31,13,32,16,23,07,20,04,,,,,2.8,1.0,2.2*3F##1456
$GPGGA,201330,3822.4286,N,11042.5201,W,1,08,1.00,1308.45,M,-18.561,M,,*44##0
$GPRMC,201330,A,3822.4286,N,11042.5201,W,0.1652,148.660,310510,,*34##1
$GPGSA,A,3,31,13,32,16,23,07,20,04,,,,,2.8,1.0,2.2*3F##1
$PGRME,0.00,M,0.00,M,10.73,M*2B##572
$GPGGA,201331,3822.4286,N,11042.5201,W,1,08,1.00,1308.45,M,-18.561,M,,*45##1
$GPRMC,201331,A,3822.4286,N,11042.5201,W,0.1652,148.660,310510,,*35##0
$GPGSA,A,3,31,13,32,16,23,07,20,04,,,,,2.8,1.0,2.2*3F##1
$PGRME,0.00,M,0.00,M,10.73,M*2B##969
$GPGGA,201332,3822.4287,N,11042.5195,W,1,08,1.00,1308.17,M,-18.561,M,,*4E##3
$GPRMC,201332,A,3822.4287,N,11042.5195,W,0.1905,0.000,310510,,*39##1
$GPGSA,A,3,31,13,32,16,23,07,20,04,,,,,2.8,1.0,2.2*3F##1
$PGRME,0.00,M,0.00,M,10.73,M*2B##1333
$GPGSV,3,1,09,31,15,055,29,23,60,325,39,13,36,307,37,03,05,142,15*74##0
$GPGSV,3,2,09,16,57,090,24,04,07,300,19,20,59,213,37,32,46,172,20*7C##1
$GPGSV,3,3,09,07,14,249,28*47##111
$GPGGA,201333,3822.4291,N,11042.5195,W,1,08,1.00,1308.80,M,-18.561,M,,*46##3
$GPRMC,201333,A,3822.4291,N,11042.5195,W,0.1652,148.660,310510,,*3F##1
$GPGSA,A,3,31,13,32,16,23,07,20,04,,,,,2.8,1.0,2.2*3F##575
$GPGGA,201334,3822.4291,N,11042.5195,W,1,08,1.00,1308.80,M,-18.561,M,,*41##1
$GPRMC,201334,A,3822.4291,N,11042.5195,W,0.0000,0.000,310510,,*35##1
$GPGSA,A,3,31,13,32,16,23,07,20,04,,,,,2.8,1.0,2.2*3F##966
$GPGGA,201335,3822.4291,N,11042.5195,W,1,08,1.00,1308.80,M,-18.561,M,,*40##1
$GPRMC,201335,A,3822.4291,N,11042.5195,W,0.1652,148.660,310510,,*39##2
$GPGSA,A,3,31,13,32,16,23,07,20,04,,,,,2.8,1.0,2.2*3F##1
$PGRME,0.00,M,0.00,M,10.73,M*2B##1449
$GPGGA,201336,3822.4291,N,11042.5195,W,1,08,1.00,1308.80,M,-18.561,M,,*43##0
$GPRMC,201336,A,3822.4291,N,11042.5195,W,0.1905,0.000,310510,,*3A##2
$GPGSA,A,3,31,13,32,16,23,07,20,04,,,,,2.8,1.0,2.2*3F##574
$GPGGA,201337,3822.4288,N,11042.5192,W,1,08,1.00,1309.53,M,-18.561,M,,*42##2
$GPRMC,201337,A,3822.4288,N,11042.5192,W,0.0000,0.000,310510,,*39##2
$GPGSA,A,3,31,13,32,16,23,07,20,04,,,,,2.8,1.0,2.2*3F##968
$GPGGA,201338,3822.4288,N,11042.5192,W,1,08,1.00,1309.53,M,-18.561,M,,*4D##0
$GPRMC,201338,A,3822.4288,N,11042.5192,W,0.0000,0.000,310510,,*36##1
$GPGSA,A,3,31,13,32,16,23,07,20,04,,,,,2.8,1.0,2.2*3F##1450
$GPGGA,201339,3822.4288,N,11042.5192,W,1,08,1.00,1309.53,M,-18.561,M,,*4C##1
$GPRMC,201339,A,3822.4288,N,11042.5192,W,0.0000,0.000,310510,,*37##1
$GPGSA,A,3,31,13,32,16,23,07,20,04,,,,,2.8,1.0,2.2*3F##578
$GPGGA,201340,3822.4288,N,11042.5192,W,1,08,1.00,1309.53,M,-18.561,M,,*42##1
$GPRMC,201340,A,3822.4288,N,11042.5192,W,0.1905,0.000,310510,,*34##2
$GPGSA,A,3,31,13,32,16,23,07,20,04,,,,,2.8,1.0,2.2*3F##0
$PGRME,0.00,M,0.00,M,10.73,M*2B##965
$GPGGA,201341,3822.4288,N,11042.5192,W,1,08,1.00,1309.53,M,-18.561,M,,*43##1
$GPRMC,201341,A,3822.4288,N,11042.5192,W,0.0000,0.000,310510,,*38##1
$GPGSA,A,3,31,13,32,16,23,07,20,04,,,,,2.8,1.0,2.2*3F##1
$PGRME,0.00,M,0.00,M,10.73,M*2B##1453
$GPGGA,201342,3822.4288,N,11042.5192,W,1,08,1.00,1309.53,M,-18.561,M,,*40##0
$GPRMC,201342,A,3822.4288,N,11042.5192,W,0.3425,165.473,310510,,*39##2
$GPGSA,A,3,31,13,32,16,23,07,20,04,,,,,2.8,1.0,2.2*3F##0
$PGRME,0.00,M,0.00,M,10.73,M*2B##578
$GPGGA,201343,3822.4288,N,11042.5192,W,1,08,1.00,1309.53,M,-18.561,M,,*41##0
$GPRMC,201343,A,3822.4288,N,11042.5192,W,0.3425,165.473,310510,,*38##6
$GPGSA,A,3,31,13,32,16,23,07,20,04,,,,,2.8,1.0,2.2*3F##958
$GPGGA,201344,3822.4285,N,11042.5190,W,1,08,1.00,1310.26,M,-18.561,M,,*43##2
$GPRMC,201344,A,3822.4285,N,11042.5190,W,0.1652,148.660,310510,,*3F##1
$GPGSA,A,3,31,13,32,16,23,07,20,04,,,,,2.8,1.0,2.2*3F##1450
$GPGGA,201345,3822.4285,N,11042.5190,W,1,08,1.00,1310.26,M,-18.561,M,,*42##1
$GPRMC,201345,A,3822.4285,N,11042.5190,W,0.1652,148.660,310510,,*3E##0
$GPGSA,A,3,31,13,32,16,23,07,20,04,,,,,2.8,1.0,2.2*3F##575
$GPGGA,201346,3822.4285,N,11042.5190,W,1,08,1.00,1310.26,M,-18.561,M,,*41##0
$GPRMC,201346,A,3822.4285,N,11042.5190,W,0.1652,148.660,310510,,*3D##1
$GPGSA,A,3,31,13,32,16,23,07,20,04,,,,,2.8,1.0,2.2*3F##0
$PGRME,0.00,M,0.00,M,10.73,M*2B##971
$GPGGA,201347,3822.4285,N,11042.5190,W,1,08,1.00,1310.26,M,-18.561,M,,*40##0
$GPRMC,201347,A,3822.4285,N,11042.5190,W,0.1652,148.660,310510,,*3C##1
$GPGSA,A,3,31,13,32,16,23,07,20,04,,,,,2.8,1.0,2.2*3F##0
$PGRME,0.00,M,0.00,M,10.73,M*2B##1338
$GPGSV,3,1,10,31,15,055,30,23,60,325,39,13,36,307,38,03,05,142,18*76##1
$GPGSV,3,2,10,16,57,090,26,04,07,300,18,20,59,213,37,32,46,172,21*76##0
$GPGSV,3,3,10,06,06,127,00,07,14,249,27*74##111
$GPGGA,201348,3822.4285,N,11042.5190,W,1,08,1.00,1310.26,M,-18.561,M,,*4F##0
$GPRMC,201348,A,3822.4285,N,11042.5190,W,0.3425,165.473,310510,,*3C##2
$GPGSA,A,3,31,13,32,16,23,07,20,04,,,,,2.8,1.0,2.2*3F##578
$GPGGA,201349,3822.4285,N,11042.5190,W,1,08,1.00,1310.26,M,-18.561,M,,*4E##1
$GPRMC,201349,A,3822.4285,N,11042.5190,W,0.1905,0.000,310510,,*32##1
$GPGSA,A,3,31,13,32,16,23,07,20,04,,,,,2.8,1.0,2.2*3F##1
$PGRME,0.00,M,0.00,M,10.73,M*2B##970
$GPGGA,201350,3822.4285,N,11042.5190,W,1,08,1.00,1310.26,M,-18.561,M,,*46##0
$GPRMC,201350,A,3822.4285,N,11042.5190,W,0.0000,0.000,310510,,*37##1
$GPGSA,A,3,31,13,32,16,23,07,20,04,,,,,2.8,1.0,2.2*3F##1
$PGRME,0.00,M,0.00,M,10.73,M*2B##1445
$GPGGA,201351,3822.4285,N,11042.5190,W,1,08,1.00,1310.26,M,-18.561,M,,*47##1
$GPRMC,201351,A,3822.4285,N,11042.5190,W,0.1652,148.660,310510,,*3B##1
$GPGSA,A,3,31,13,32,16,23,07,20,04,,,,,2.8,1.0,2.2*3F##1
$PGRME,0.00,M,0.00,M,10.73,M*2B##578
$GPGGA,201352,3822.4285,N,11042.5190,W,1,08,1.00,1310.26,M,-18.561,M,,*44##0
$GPRMC,201352,A,3822.4285,N,11042.5190,W,0.3425,165.473,310510,,*37##1
$GPGSA,A,3,31,13,32,16,23,07,20,04,,,,,2.8,1.0,2.2*3F##968
$GPGGA,201353,3822.4285,N,11042.5190,W,1,08,1.00,1310.26,M,-18.561,M,,*45##0
$GPRMC,201353,A,3822.4285,N,11042.5190,W,0.3425,165.473,310510,,*36##1
$GPGSA,A,3,31,13,32,16,23,07,20,04,,,,,2.8,1.0,2.2*3F##1450
$GPGGA,201354,3822.4285,N,11042.5190,W,1,08,1.00,1310.26,M,-18.561,M,,*42##0
$GPRMC,201354,A,3822.4285,N,11042.5190,W,0.3425,165.473,310510,,*31##1
$GPGSA,A,3,31,13,32,16,23,07,20,04,,,,,2.8,1.0,2.2*3F##579
$GPGGA,201355,3822.4285,N,11042.5190,W,1,08,1.00,1310.26,M,-18.561,M,,*43##1
$GPRMC,201355,A,3822.4285,N,11042.5190,W,0.3425,165.473,310510,,*30##1
$GPGSA,A,3,31,13,32,16,23,07,20,04,,,,,2.8,1.0,2.2*3F##970
$GPGGA,201356,3822.4285,N,11042.5190,W,1,08,1.00,1310.26,M,-18.561,M,,*40##0
$GPRMC,201356,A,3822.4285,N,11042.5190,W,0.4189,131.617,310510,,*36##2
$GPGSA,A,3,31,13,32,16,23,07,20,04,,,,,2.8,1.0,2.2*3F##1446
$GPGGA,201357,3822.4285,N,11042.5190,W,1,08,1.00,1310.26,M,-18.561,M,,*41##1
$GPRMC,201357,A,3822.4285,N,11042.5190,W,0.4189,131.617,310510,,*37##0
$GPGSA,A,3,31,13,32,16,23,07,20,04,,,,,2.8,1.0,2.2*3F##626
$GPGGA,201358,3822.4281,N,11042.5190,W,1,08,1.00,1309.64,M,-18.561,M,,*44##3
$GPRMC,201358,A,3822.4281,N,11042.5190,W,0.7788,190.457,310510,,*35##2
$GPGSA,A,3,31,13,32,16,23,07,20,04,,,,,2.8,1.0,2.2*3F##920
$GPGGA,201359,3822.4281,N,11042.5190,W,1,08,1.00,1309.64,M,-18.561,M,,*45##0
$GPRMC,201359,A,3822.4281,N,11042.5190,W,0.0000,0.000,310510,,*3A##2
$GPGSA,A,3,31,13,32,16,23,07,20,04,,,,,2.8,1.0,2.2*3F##0
$PGRME,0.00,M,0.00,M,10.73,M*2B##1446
$GPGGA,201400,3822.4281,N,11042.5190,W,1,08,1.00,1309.64,M,-18.561,M,,*4E##0
$GPRMC,201400,A,3822.4281,N,11042.5190,W,0.4669,76.793,310510,,*00##1
$GPGSA,A,3,31,13,32,16,23,07,20,04,,,,,2.8,1.0,2.2*3F##1
$PGRME,0.00,M,0.00,M,10.73,M*2B##578
$GPGGA,201401,3822.4281,N,11042.5190,W,1,08,1.00,1309.64,M,-18.561,M,,*4F##0
$GPRMC,201401,A,3822.4281,N,11042.5190,W,0.2335,76.793,310510,,*0B##1
$GPGSA,A,3,31,13,32,16,23,07,20,04,,,,,2.8,1.0,2.2*3F##1
