# NMEA GPS data followed by ## then the time in ms before next message was sent
$GPRMC,184921,A,3824.3987,N,11047.4986,W,0.1904,0.000,030610,,*38##10
$GPGSA,A,3,32,31,14,16,13,20,23,11,,,,,1.7,1.0,1.2*36##921
$GPGGA,184922,3824.3987,N,11047.4986,W,1,08,1.00,1365.70,M,-18.568,M,,*4C##0
$GPRMC,184922,A,3824.3987,N,11047.4986,W,0.0000,0.000,030610,,*37##1
$GPGSA,A,3,32,31,14,16,13,20,23,11,,,,,1.7,1.0,1.2*36##1
$PGRME,0.00,M,0.00,M,6.43,M*1F##1330
$GPGSV,2,1,08,32,81,187,37,31,41,045,36,14,07,088,38,16,39,138,41*78##0
$GPGSV,2,2,08,13,13,283,35,20,64,291,24,23,35,295,33,11,12,229,35*77##113
$GPGGA,184923,3824.3987,N,11047.4986,W,1,08,1.00,1365.70,M,-18.568,M,,*4D##0
$GPRMC,184923,A,3824.3987,N,11047.4986,W,0.0000,0.000,030610,,*36##1
$GPGSA,A,3,32,31,14,16,13,20,23,11,,,,,1.7,1.0,1.2*36##575
$GPGGA,184924,3824.3987,N,11047.4986,W,1,08,1.00,1365.70,M,-18.568,M,,*4A##0
$GPRMC,184924,A,3824.3987,N,11047.4986,W,0.0000,0.000,030610,,*31##1
$GPGSA,A,3,32,31,14,16,13,20,23,11,,,,,1.7,1.0,1.2*36##0
$PGRME,0.00,M,0.00,M,6.43,M*1F##970
$GPGGA,184925,3824.3987,N,11047.4986,W,1,08,1.00,1365.70,M,-18.568,M,,*4B##0
$GPRMC,184925,A,3824.3987,N,11047.4986,W,0.0000,0.000,030610,,*30##0
$GPGSA,A,3,32,31,14,16,13,20,23,11,,,,,1.7,1.0,1.2*36##0
$PGRME,0.00,M,0.00,M,6.43,M*1F##1452
$GPGGA,184926,3824.3987,N,11047.4986,W,1,08,1.00,1365.70,M,-18.568,M,,*48##0
$GPRMC,184926,A,3824.3987,N,11047.4986,W,0.0000,0.000,030610,,*33##1
$GPGSA,A,3,32,31,14,16,13,20,23,11,,,,,1.7,1.0,1.2*36##578
$GPGGA,184927,3824.3987,N,11047.4986,W,1,08,1.00,1365.70,M,-18.568,M,,*49##0
$GPRMC,184927,A,3824.3987,N,11047.4986,W,0.0000,0.000,030610,,*32##1
$GPGSA,A,3,32,31,14,16,13,20,23,11,,,,,1.7,1.0,1.2*36##971
$GPGGA,184928,3824.3987,N,11047.4986,W,1,08,1.00,1365.70,M,-18.568,M,,*46##0
$GPRMC,184928,A,3824.3987,N,11047.4986,W,0.0000,0.000,030610,,*3D##1
$GPGSA,A,3,32,31,14,16,13,20,23,11,,,,,1.7,1.0,1.2*36##1447
$GPGGA,184929,3824.3988,N,11047.4979,W,1,08,1.00,1365.42,M,-18.568,M,,*49##2
$GPRMC,184929,A,3824.3988,N,11047.4979,W,0.0000,0.000,030610,,*33##1
$GPGSA,A,3,32,31,14,16,13,20,23,11,,,,,1.7,1.0,1.2*36##0
$PGRME,0.00,M,0.00,M,6.43,M*1F##577
$GPGGA,184930,3824.3987,N,11047.4986,W,1,08,1.00,1365.70,M,-18.568,M,,*4F##2
$GPRMC,184930,A,3824.3987,N,11047.4986,W,0.0000,0.000,030610,,*34##1
$GPGSA,A,3,32,31,14,16,13,20,23,11,,,,,1.7,1.0,1.2*36##1
$PGRME,0.00,M,0.00,M,6.43,M*1F##964
$GPGGA,184931,3824.3988,N,11047.4979,W,1,08,1.00,1365.42,M,-18.568,M,,*40##2
$GPRMC,184931,A,3824.3988,N,11047.4979,W,0.0000,0.000,030610,,*3A##1
$GPGSA,A,3,32,31,14,16,13,20,23,11,,,,,1.7,1.0,1.2*36##0
$PGRME,0.00,M,0.00,M,6.43,M*1F##1449
$GPGGA,184932,3824.3984,N,11047.4979,W,1,08,1.00,1364.80,M,-18.568,M,,*40##2
$GPRMC,184932,A,3824.3984,N,11047.4979,W,0.0000,0.000,030610,,*35##1
$GPGSA,A,3,32,31,14,16,13,20,23,11,,,,,1.7,1.0,1.2*36##577
$GPGGA,184933,3824.3987,N,11047.4982,W,1,08,1.00,1364.07,M,-18.568,M,,*49##2
$GPRMC,184933,A,3824.3987,N,11047.4982,W,0.0000,0.000,030610,,*33##1
$GPGSA,A,3,32,31,14,16,13,20,23,11,,,,,1.7,1.0,1.2*36##970
$GPGGA,184934,3824.3987,N,11047.4982,W,1,08,1.00,1364.07,M,-18.568,M,,*4E##0
$GPRMC,184934,A,3824.3987,N,11047.4982,W,0.0000,0.000,030610,,*34##0
$GPGSA,A,3,32,31,14,16,13,20,23,11,,,,,1.7,1.0,1.2*36##1447
$GPGGA,184935,3824.3987,N,11047.4982,W,1,08,1.00,1364.07,M,-18.568,M,,*4F##1
$GPRMC,184935,A,3824.3987,N,11047.4982,W,0.0000,0.000,030610,,*35##0
$GPGSA,A,3,32,31,14,16,13,20,23,11,,,,,1.7,1.0,1.2*36##579
$GPGGA,184936,3824.3987,N,11047.4982,W,1,08,1.00,1364.07,M,-18.568,M,,*4C##1
$GPRMC,184936,A,3824.3987,N,11047.4982,W,0.0000,0.000,030610,,*36##0
$GPGSA,A,3,32,31,14,16,13,20,23,11,,,,,1.7,1.0,1.2*36##0
$PGRME,0.00,M,0.00,M,6.43,M*1F##971
$GPGGA,184937,3824.3987,N,11047.4982,W,1,08,1.00,1364.07,M,-18.568,M,,*4D##0
$GPRMC,184937,A,3824.3987,N,11047.4982,W,0.0000,0.000,030610,,*37##1
$GPGSA,A,3,32,31,14,16,13,20,23,11,,,,,1.7,1.0,1.2*36##1335
$GPGSV,3,1,09,32,81,187,38,31,41,045,37,14,07,088,38,16,39,138,40*77##0
$GPGSV,3,2,09,13,13,283,35,20,64,291,25,04,02,325,00,23,35,295,33*78##1
$GPGSV,3,3,09,11,12,229,35*4C##112
$GPGGA,184938,3824.3987,N,11047.4982,W,1,08,1.00,1364.07,M,-18.568,M,,*42##0
$GPRMC,184938,A,3824.3987,N,11047.4982,W,0.0000,0.000,030610,,*38##1
$GPGSA,A,3,32,31,14,16,13,20,23,11,,,,,1.7,1.0,1.2*36##578
$GPGGA,184939,3824.3987,N,11047.4982,W,1,08,1.00,1364.07,M,-18.568,M,,*43##0
$GPRMC,184939,A,3824.3987,N,11047.4982,W,0.0000,0.000,030610,,*39##1
$GPGSA,A,3,32,31,14,16,13,20,23,11,,,,,1.7,1.0,1.2*36##0
$PGRME,0.00,M,0.00,M,6.43,M*1F##987
$GPGGA,184940,3824.3987,N,11047.4982,W,1,08,1.00,1364.07,M,-18.568,M,,*4D##0
$GPRMC,184940,A,3824.3987,N,11047.4982,W,0.0000,0.000,030610,,*37##1
$GPGSA,A,3,32,31,14,16,13,20,23,11,,,,,1.7,1.0,1.2*36##0
$PGRME,0.00,M,0.00,M,6.43,M*1F##1432
$GPGGA,184941,3824.3987,N,11047.4982,W,1,08,1.00,1364.07,M,-18.568,M,,*4C##0
$GPRMC,184941,A,3824.3987,N,11047.4982,W,0.0000,0.000,030610,,*36##1
$GPGSA,A,3,32,31,14,16,13,20,23,11,,,,,1.7,1.0,1.2*36##0
$PGRME,0.00,M,0.00,M,6.43,M*1F##578
$GPGGA,184942,3824.3987,N,11047.4982,W,1,08,1.00,1364.07,M,-18.568,M,,*4F##0
$GPRMC,184942,A,3824.3987,N,11047.4982,W,0.0000,0.000,030610,,*35##1
$GPGSA,A,3,32,31,14,16,13,20,23,11,,,,,1.7,1.0,1.2*36##0
$PGRME,0.00,M,0.00,M,6.43,M*1F##972
$GPGGA,184943,3824.3987,N,11047.4982,W,1,08,1.00,1364.07,M,-18.568,M,,*4E##0
$GPRMC,184943,A,3824.3987,N,11047.4982,W,0.0000,0.000,030610,,*34##1
$GPGSA,A,3,32,31,14,16,13,20,23,11,,,,,1.7,1.0,1.2*36##0
$PGRME,0.00,M,0.00,M,6.43,M*1F##1446
$GPGGA,184944,3824.3987,N,11047.4982,W,1,08,1.00,1364.07,M,-18.568,M,,*49##0
$GPRMC,184944,A,3824.3987,N,11047.4982,W,0.0000,0.000,030610,,*33##1
$GPGSA,A,3,32,31,14,16,13,20,23,11,,,,,1.7,1.0,1.2*36##579
$GPGGA,184945,3824.3987,N,11047.4982,W,1,08,1.00,1364.07,M,-18.568,M,,*48##0
$GPRMC,184945,A,3824.3987,N,11047.4982,W,0.0000,0.000,030610,,*32##1
$GPGSA,A,3,32,31,14,16,13,20,23,11,,,,,1.7,1.0,1.2*36##991
$GPGGA,184946,3824.3987,N,11047.4982,W,1,08,1.00,1364.07,M,-18.568,M,,*4B##0
$GPRMC,184946,A,3824.3987,N,11047.4982,W,0.0000,0.000,030610,,*31##1
$GPGSA,A,3,32,31,14,16,13,20,23,11,,,,,1.7,1.0,1.2*36##1427
$GPGGA,184947,3824.3987,N,11047.4982,W,1,08,1.00,1364.07,M,-18.568,M,,*4A##0
$GPRMC,184947,A,3824.3987,N,11047.4982,W,0.0000,0.000,030610,,*30##1
$GPGSA,A,3,32,31,14,16,13,20,23,11,,,,,1.7,1.0,1.2*36##0
$PGRME,0.00,M,0.00,M,6.43,M*1F##579
$GPGGA,184948,3824.3992,N,11047.4982,W,1,08,1.00,1364.69,M,-18.568,M,,*49##2
$GPRMC,184948,A,3824.3992,N,11047.4982,W,0.1904,0.000,030610,,*37##1
$GPGSA,A,3,32,31,14,16,13,20,23,11,,,,,1.7,1.0,1.2*36##0
$PGRME,0.00,M,0.00,M,6.43,M*1F##970
$GPGGA,184949,3824.3992,N,11047.4982,W,1,08,1.00,1364.69,M,-18.568,M,,*48##0
$GPRMC,184949,A,3824.3992,N,11047.4982,W,0.0000,0.000,030610,,*3A##1
$GPGSA,A,3,32,31,14,16,13,20,23,11,,,,,1.7,1.0,1.2*36##0
$PGRME,0.00,M,0.00,M,6.43,M*1F##1447
$GPGGA,184950,3824.3990,N,11047.4988,W,1,08,1.00,1364.97,M,-18.568,M,,*49##1
$GPRMC,184950,A,3824.3990,N,11047.4988,W,0.0000,0.000,030610,,*3A##1
$GPGSA,A,3,32,31,14,16,13,20,23,11,,,,,1.7,1.0,1.2*36##0
$PGRME,0.00,M,0.00,M,6.43,M*1F##578
$GPGGA,184951,3824.3990,N,11047.4988,W,1,08,1.00,1364.97,M,-18.568,M,,*48##0
$GPRMC,184951,A,3824.3990,N,11047.4988,W,0.1654,148.567,030610,,*34##1
$GPGSA,A,3,32,31,14,16,13,20,23,11,,,,,1.7,1.0,1.2*36##0
$PGRME,0.00,M,0.00,M,6.43,M*1F##1038
$GPGGA,184952,3824.3990,N,11047.4988,W,1,08,1.00,1364.97,M,-18.568,M,,*4B##0
$GPRMC,184952,A,3824.3990,N,11047.4988,W,0.0000,0.000,030610,,*38##1
$GPGSA,A,3,32,31,14,16,13,20,23,11,,,,,1.7,1.0,1.2*36##1268
$GPGSV,2,1,08,32,81,186,37,31,41,045,37,14,07,088,35,16,39,138,39*7A##0
$GPGSV,2,2,08,13,13,285,32,20,64,291,24,23,36,295,28,11,12,229,34*7E##111
$GPGGA,184953,3824.3990,N,11047.4988,W,1,08,1.00,1364.97,M,-18.568,M,,*4A##0
$GPRMC,184953,A,3824.3990,N,11047.4988,W,0.0000,0.000,030610,,*39##1
$GPGSA,A,3,32,31,14,16,13,20,23,11,,,,,1.7,1.0,1.2*36##580
$GPGGA,184954,3824.3990,N,11047.4988,W,1,08,1.00,1364.97,M,-18.568,M,,*4D##0
$GPRMC,184954,A,3824.3990,N,11047.4988,W,0.0000,0.000,030610,,*3E##0
$GPGSA,A,3,32,31,14,16,13,20,23,11,,,,,1.7,1.0,1.2*36##976
$GPGGA,184955,3824.3990,N,11047.4988,W,1,08,1.00,1364.97,M,-18.568,M,,*4C##0
$GPRMC,184955,A,3824.3990,N,11047.4988,W,0.0000,0.000,030610,,*3F##0
$GPGSA,A,3,32,31,14,16,13,20,23,11,,,,,1.7,1.0,1.2*36##1443
$GPGGA,184956,3824.3990,N,11047.4988,W,1,08,1.00,1364.97,M,-18.568,M,,*4F##0
$GPRMC,184956,A,3824.3990,N,11047.4988,W,0.0000,0.000,030610,,*3C##1
$GPGSA,A,3,32,31,14,16,13,20,23,11,,,,,1.7,1.0,1.2*36##0
$PGRME,0.00,M,0.00,M,6.43,M*1F##579
$GPGGA,184957,3824.3990,N,11047.4988,W,1,08,1.00,1364.97,M,-18.568,M,,*4E##1
$GPRMC,184957,A,3824.3990,N,11047.4988,W,0.3254,105.605,030610,,*3A##0
$GPGSA,A,3,32,31,14,16,13,20,23,11,,,,,1.7,1.0,1.2*36##972
$GPGGA,184958,3824.3993,N,11047.4995,W,1,08,1.00,1365.87,M,-18.568,M,,*4E##1
$GPRMC,184958,A,3824.3993,N,11047.4995,W,0.0000,0.000,030610,,*3D##1
$GPGSA,A,3,32,31,14,16,13,20,23,11,,,,,1.7,1.0,1.2*36##1446
$GPGGA,184959,3824.3993,N,11047.4995,W,1,07,1.00,1365.87,M,-18.568,M,,*40##0
$GPRMC,184959,A,3824.3993,N,11047.4995,W,0.1904,0.000,030610,,*30##1
$GPGSA,A,3,32,31,14,16,13,23,11,,,,,,1.7,1.0,1.2*34##0
$PGRME,0.00,M,0.00,M,6.43,M*1F##578
$GPGGA,185000,3824.3997,N,11047.4997,W,1,08,1.00,1365.14,M,-18.568,M,,*47##2
$GPRMC,185000,A,3824.3997,N,11047.4997,W,0.0000,0.000,030610,,*3E##1
$GPGSA,A,3,32,31,14,16,13,20,23,11,,,,,1.7,1.0,1.2*36##970
$GPGGA,185001,3824.3997,N,11047.4997,W,1,08,1.00,1365.14,M,-18.568,M,,*46##0
$GPRMC,185001,A,3824.3997,N,11047.4997,W,0.0000,0.000,030610,,*3F##1
$GPGSA,A,3,32,31,14,16,13,20,23,11,,,,,1.7,1.0,1.2*36##1446
$GPGGA,185002,3824.3997,N,11047.4997,W,1,08,1.00,1365.14,M,-18.568,M,,*45##0
$GPRMC,185002,A,3824.3997,N,11047.4997,W,0.0000,0.000,030610,,*3C##1
$GPGSA,A,3,32,31,14,16,13,20,23,11,,,,,1.7,1.0,1.2*36##580
$GPGGA,185003,3824.3997,N,11047.4997,W,1,08,1.00,1365.14,M,-18.568,M,,*44##0
$GPRMC,185003,A,3824.3997,N,11047.4997,W,0.0000,0.000,030610,,*3D##0
$GPGSA,A,3,32,31,14,16,13,20,23,11,,,,,1.7,1.0,1.2*36##1
$PGRME,0.00,M,0.00,M,6.43,M*1F##974
$GPGGA,185004,3824.3997,N,11047.4997,W,1,08,1.00,1365.14,M,-18.568,M,,*43##0
$GPRMC,185004,A,3824.3997,N,11047.4997,W,0.0000,0.000,030610,,*3A##1
$GPGSA,A,3,32,31,14,16,13,20,23,11,,,,,1.7,1.0,1.2*36##1444
$GPGGA,185005,3824.3997,N,11047.4997,W,1,08,1.00,1365.14,M,-18.568,M,,*42##0
$GPRMC,185005,A,3824.3997,N,11047.4997,W,0.0000,0.000,030610,,*3B##1
$GPGSA,A,3,32,31,14,16,13,20,23,11,,,,,1.7,1.0,1.2*36##0
$PGRME,0.00,M,0.00,M,6.43,M*1F##578
$GPGGA,185006,3824.3997,N,11047.4997,W,1,08,1.00,1365.14,M,-18.568,M,,*41##1
$GPRMC,185006,A,3824.3997,N,11047.4997,W,0.0000,0.000,030610,,*38##0
$GPGSA,A,3,32,31,14,16,13,20,23,11,,,,,1.7,1.0,1.2*36##0
$PGRME,0.00,M,0.00,M,6.43,M*1F##975
$GPGGA,185007,3824.3997,N,11047.4997,W,1,08,1.00,1365.14,M,-18.568,M,,*40##1
$GPRMC,185007,A,3824.3997,N,11047.4997,W,0.0000,0.000,030610,,*39##0
$GPGSA,A,3,32,31,14,16,13,20,23,11,,,,,1.7,1.0,1.2*36##1335
$GPGSV,2,1,08,32,81,186,36,31,41,045,41,14,07,088,36,16,39,138,36*76##1
$GPGSV,2,2,08,13,13,285,32,20,64,291,17,23,36,295,29,11,12,229,32*79##111
$GPGGA,185008,3824.3999,N,11047.5006,W,1,08,1.00,1364.68,M,-18.568,M,,*4B##1
$GPRMC,185008,A,3824.3999,N,11047.5006,W,0.0000,0.000,030610,,*38##0
$GPGSA,A,3,32,31,14,16,13,20,23,11,,,,,1.7,1.0,1.2*36##579
$GPGGA,185009,3824.3999,N,11047.5006,W,1,08,1.00,1364.68,M,-18.568,M,,*4A##0
$GPRMC,185009,A,3824.3999,N,11047.5006,W,0.0000,0.000,030610,,*39##1
$GPGSA,A,3,32,31,14,16,13,20,23,11,,,,,1.7,1.0,1.2*36##972
$GPGGA,185010,3824.3999,N,11047.5006,W,1,08,1.00,1364.68,M,-18.568,M,,*42##0
$GPRMC,185010,A,3824.3999,N,11047.5006,W,0.0000,0.000,030610,,*31##1
$GPGSA,A,3,32,31,14,16,13,20,23,11,,,,,1.7,1.0,1.2*36##1443
$GPGGA,185011,3824.3997,N,11047.4997,W,1,08,1.00,1365.14,M,-18.568,M,,*47##2
$GPRMC,185011,A,3824.3997,N,11047.4997,W,0.0000,0.000,030610,,*3E##1
$GPGSA,A,3,32,31,14,16,13,20,23,11,,,,,1.7,1.0,1.2*36##576
$GPGGA,185012,3824.3997,N,11047.4997,W,1,08,1.00,1365.14,M,-18.568,M,,*44##1
$GPRMC,185012,A,3824.3997,N,11047.4997,W,0.0000,0.000,030610,,*3D##0
$GPGSA,A,3,32,31,14,16,13,20,23,11,,,,,1.7,1.0,1.2*36##971
$GPGGA,185013,3824.3995,N,11047.5003,W,1,07,1.00,1365.41,M,-18.568,M,,*4D##2
$GPRMC,185013,A,3824.3995,N,11047.5003,W,0.3254,105.605,030610,,*3C##2
$GPGSA,A,3,32,31,14,16,13,23,11,,,,,,1.7,1.0,1.2*34##1448
$GPGGA,185014,3824.3995,N,11047.5003,W,1,07,1.00,1365.41,M,-18.568,M,,*4A##1
$GPRMC,185014,A,3824.3995,N,11047.5003,W,0.0000,0.000,030610,,*3C##1
$GPGSA,A,3,32,31,14,16,13,23,11,,,,,,1.7,1.0,1.2*34##0
$PGRME,0.00,M,0.00,M,6.43,M*1F##574
$GPGGA,185015,3824.3995,N,11047.5003,W,1,07,1.00,1365.41,M,-18.568,M,,*4B##0
$GPRMC,185015,A,3824.3995,N,11047.5003,W,0.1654,148.567,030610,,*32##2
$GPGSA,A,3,32,31,14,16,13,23,11,,,,,,1.7,1.0,1.2*34##986
$GPGGA,185016,3824.3995,N,11047.5003,W,1,07,1.00,1365.41,M,-18.568,M,,*48##1
$GPRMC,185016,A,3824.3995,N,11047.5003,W,0.0000,0.000,030610,,*3E##1
$GPGSA,A,3,32,31,14,16,13,23,11,,,,,,1.7,1.0,1.2*34##0
$PGRME,0.00,M,0.00,M,6.43,M*1F##1431
$GPGGA,185017,3824.3995,N,11047.5003,W,1,08,1.00,1365.41,M,-18.568,M,,*46##0
$GPRMC,185017,A,3824.3995,N,11047.5003,W,0.1654,148.567,030610,,*30##1
$GPGSA,A,3,32,31,14,16,13,20,23,11,,,,,1.7,1.0,1.2*36##579
$GPGGA,185018,3824.3996,N,11047.5001,W,1,08,1.00,1366.77,M,-18.568,M,,*4E##2
$GPRMC,185018,A,3824.3996,N,11047.5001,W,0.1654,148.567,030610,,*3E##0
$GPGSA,A,3,32,31,14,16,13,20,23,11,,,,,1.7,1.0,1.2*36##969
$GPGGA,185019,3824.3996,N,11047.5001,W,1,08,1.00,1366.77,M,-18.568,M,,*4F##1
$GPRMC,185019,A,3824.3996,N,11047.5001,W,0.0993,60.255,030610,,*07##1
$GPGSA,A,3,32,31,14,16,13,20,23,11,,,,,1.7,1.0,1.2*36##0
$PGRME,0.00,M,0.00,M,6.43,M*1F##1446
$GPGGA,185020,3824.3996,N,11047.5001,W,1,08,1.00,1366.77,M,-18.568,M,,*45##0
$GPRMC,185020,A,3824.3996,N,11047.5001,W,0.0993,60.255,030610,,*0D##1
$GPGSA,A,3,32,31,14,16,13,20,23,11,,,,,1.7,1.0,1.2*36##0
$PGRME,0.00,M,0.00,M,6.43,M*1F##579
$GPGGA,185021,3824.3996,N,11047.5001,W,1,08,1.00,1366.77,M,-18.568,M,,*44##0
$GPRMC,185021,A,3824.3996,N,11047.5001,W,0.0993,60.255,030610,,*0C##1
$GPGSA,A,3,32,31,14,16,13,20,23,11,,,,,1.7,1.0,1.2*36##971
$GPGGA,185022,3824.3993,N,11047.4999,W,1,08,1.00,1367.50,M,-18.568,M,,*4F##2
$GPRMC,185022,A,3824.3993,N,11047.4999,W,0.0993,60.255,030610,,*03##0
$GPGSA,A,3,32,31,14,16,13,20,23,11,,,,,1.7,1.0,1.2*36##1
$PGRME,0.00,M,0.00,M,6.43,M*1F##1334
$GPGSV,2,1,08,32,81,186,37,31,41,045,40,14,06,088,37,16,39,136,38*76##0
$GPGSV,2,2,08,13,13,285,31,20,64,289,22,23,36,297,32,11,12,229,31*7E##112
$GPGGA,185023,3824.3993,N,11047.4999,W,1,08,1.00,1367.50,M,-18.568,M,,*4E##0
$GPRMC,185023,A,3824.3993,N,11047.4999,W,0.1654,148.567,030610,,*3A##0
$GPGSA,A,3,32,31,14,16,13,20,23,11,,,,,1.7,1.0,1.2*36##580
$GPGGA,185024,3824.3993,N,11047.4999,W,1,08,1.00,1367.50,M,-18.568,M,,*49##0
$GPRMC,185024,A,3824.3993,N,11047.4999,W,0.0993,60.255,030610,,*05##0
$GPGSA,A,3,32,31,14,16,13,20,23,11,,,,,1.7,1.0,1.2*36##972
$GPGGA,185025,3824.3993,N,11047.4999,W,1,08,1.00,1367.50,M,-18.568,M,,*48##0
$GPRMC,185025,A,3824.3993,N,11047.4999,W,0.1904,0.000,030610,,*3F##0
$GPGSA,A,3,32,31,14,16,13,20,23,11,,,,,1.7,1.0,1.2*36##0
$PGRME,0.00,M,0.00,M,6.43,M*1F##1451
$GPGGA,185026,3824.3994,N,11047.4996,W,1,08,1.00,1368.85,M,-18.568,M,,*44##2
$GPRMC,185026,A,3824.3994,N,11047.4996,W,0.0993,60.255,030610,,*0F##1
$GPGSA,A,3,32,31,14,16,13,20,23,11,,,,,1.7,1.0,1.2*36##578
$GPGGA,185027,3824.3994,N,11047.4996,W,1,08,1.00,1368.85,M,-18.568,M,,*45##0
$GPRMC,185027,A,3824.3994,N,11047.4996,W,0.1654,148.567,030610,,*36##0
$GPGSA,A,3,32,31,14,16,13,20,23,11,,,,,1.7,1.0,1.2*36##967
$GPGGA,185028,3824.3994,N,11047.4996,W,1,08,1.00,1368.85,M,-18.568,M,,*4A##1
$GPRMC,185028,A,3824.3994,N,11047.4996,W,0.0000,0.000,030610,,*36##0
$GPGSA,A,3,32,31,14,16,13,20,23,11,,,,,1.7,1.0,1.2*36##1448
$GPGGA,185029,3824.3990,N,11047.4996,W,1,08,1.00,1368.23,M,-18.568,M,,*43##0
$GPRMC,185029,A,3824.3990,N,11047.4996,W,0.0000,0.000,030610,,*33##1
$GPGSA,A,3,32,31,14,16,13,20,23,11,,,,,1.7,1.0,1.2*36##578
$GPGGA,185030,3824.3990,N,11047.4996,W,1,08,1.00,1368.23,M,-18.568,M,,*4B##1
$GPRMC,185030,A,3824.3990,N,11047.4996,W,0.2334,76.728,030610,,*01##0
$GPGSA,A,3,32,31,14,16,13,20,23,11,,,,,1.7,1.0,1.2*36##972
$GPGGA,185031,3824.3990,N,11047.4996,W,1,08,1.00,1368.23,M,-18.568,M,,*4A##0
$GPRMC,185031,A,3824.3990,N,11047.4996,W,0.0000,0.000,030610,,*3A##0
$GPGSA,A,3,32,31,14,16,13,20,23,11,,,,,1.7,1.0,1.2*36##0
$PGRME,0.00,M,0.00,M,6.43,M*1F##1447
$GPGGA,185032,3824.3995,N,11047.4992,W,1,08,1.00,1367.22,M,-18.568,M,,*46##1
$GPRMC,185032,A,3824.3995,N,11047.4992,W,0.0000,0.000,030610,,*38##0
$GPGSA,A,3,32,31,14,16,13,20,23,11,,,,,1.7,1.0,1.2*36##1
$PGRME,0.00,M,0.00,M,6.43,M*1F##579
$GPGGA,185033,3824.3995,N,11047.4992,W,1,08,1.00,1367.22,M,-18.568,M,,*47##0
$GPRMC,185033,A,3824.3995,N,11047.4992,W,0.0000,0.000,030610,,*39##0
$GPGSA,A,3,32,31,14,16,13,20,23,11,,,,,1.7,1.0,1.2*36##0
$PGRME,0.00,M,0.00,M,6.43,M*1F##972
$GPGGA,185034,3824.3990,N,11047.4992,W,1,08,1.00,1366.60,M,-18.568,M,,*42##1
$GPRMC,185034,A,3824.3990,N,11047.4992,W,0.0000,0.000,030610,,*3B##0
$GPGSA,A,3,32,31,14,16,13,20,23,11,,,,,1.7,1.0,1.2*36##1447
$GPGGA,185035,3824.3990,N,11047.4992,W,1,08,1.00,1366.60,M,-18.568,M,,*43##0
$GPRMC,185035,A,3824.3990,N,11047.4992,W,0.0000,0.000,030610,,*3A##1
$GPGSA,A,3,32,31,14,16,13,20,23,11,,,,,1.7,1.0,1.2*36##0
$PGRME,0.00,M,0.00,M,6.43,M*1F##578
$GPGGA,185036,3824.3995,N,11047.4992,W,1,08,1.00,1367.22,M,-18.568,M,,*42##1
$GPRMC,185036,A,3824.3995,N,11047.4992,W,0.0000,0.000,030610,,*3C##0
$GPGSA,A,3,32,31,14,16,13,20,23,11,,,,,1.7,1.0,1.2*36##972
$GPGGA,185037,3824.3995,N,11047.4992,W,1,08,1.00,1367.22,M,-18.568,M,,*43##0
$GPRMC,185037,A,3824.3995,N,11047.4992,W,0.0000,0.000,030610,,*3D##0
$GPGSA,A,3,32,31,14,16,13,20,23,11,,,,,1.7,1.0,1.2*36##1335
$GPGSV,2,1,08,32,81,186,37,31,41,045,39,14,06,088,36,16,39,136,38*79##0
$GPGSV,2,2,08,13,13,285,32,20,64,289,21,23,36,297,26,11,12,229,32*78##112
$GPGGA,185038,3824.3995,N,11047.4992,W,1,08,1.00,1367.22,M,-18.568,M,,*4C##0
$GPRMC,185038,A,3824.3995,N,11047.4992,W,0.0000,0.000,030610,,*32##1
$GPGSA,A,3,32,31,14,16,13,20,23,11,,,,,1.7,1.0,1.2*36##580
$GPGGA,185039,3824.3995,N,11047.4992,W,1,08,1.00,1367.22,M,-18.568,M,,*4D##0
$GPRMC,185039,A,3824.3995,N,11047.4992,W,0.0000,0.000,030610,,*33##0
$GPGSA,A,3,32,31,14,16,13,20,23,11,,,,,1.7,1.0,1.2*36##0
$PGRME,0.00,M,0.00,M,6.43,M*1F##1003
$GPGGA,185040,3824.3995,N,11047.4992,W,1,08,1.00,1367.22,M,-18.568,M,,*43##0
$GPRMC,185040,A,3824.3995,N,11047.4992,W,0.0000,0.000,030610,,*3D##1
$GPGSA,A,3,32,31,14,16,13,20,23,11,,,,,1.7,1.0,1.2*36##0
$PGRME,0.00,M,0.00,M,6.43,M*1F##1415
$GPGGA,185041,3824.3995,N,11047.4992,W,1,08,1.00,1367.22,M,-18.568,M,,*42##1
$GPRMC,185041,A,3824.3995,N,11047.4992,W,0.0000,0.000,030610,,*3C##0
$GPGSA,A,3,32,31,14,16,13,20,23,11,,,,,1.7,1.0,1.2*36##0
$PGRME,0.00,M,0.00,M,6.43,M*1F##579
$GPGGA,185042,3824.3995,N,11047.4992,W,1,08,1.00,1367.22,M,-18.568,M,,*41##1
$GPRMC,185042,A,3824.3995,N,11047.4992,W,0.0000,0.000,030610,,*3F##0
$GPGSA,A,3,32,31,14,16,13,20,23,11,,,,,1.7,1.0,1.2*36##971
$GPGGA,185043,3824.3995,N,11047.4992,W,1,08,1.00,1367.22,M,-18.568,M,,*40##0
$GPRMC,185043,A,3824.3995,N,11047.4992,W,0.0000,0.000,030610,,*3E##1
$GPGSA,A,3,32,31,14,16,13,20,23,11,,,,,1.7,1.0,1.2*36##1448
$GPGGA,185044,3824.3995,N,11047.4992,W,1,08,1.00,1367.22,M,-18.568,M,,*47##0
$GPRMC,185044,A,3824.3995,N,11047.4992,W,0.0000,0.000,030610,,*39##0
$GPGSA,A,3,32,31,14,16,13,20,23,11,,,,,1.7,1.0,1.2*36##0
$PGRME,0.00,M,0.00,M,6.43,M*1F##583
$GPGGA,185045,3824.3995,N,11047.4992,W,1,08,1.00,1367.22,M,-18.568,M,,*46##0
$GPRMC,185045,A,3824.3995,N,11047.4992,W,0.0000,0.000,030610,,*38##1
$GPGSA,A,3,32,31,14,16,13,20,23,11,,,,,1.7,1.0,1.2*36##987
$GPGGA,185046,3824.3993,N,11047.4999,W,1,08,1.00,1367.50,M,-18.568,M,,*4D##1
$GPRMC,185046,A,3824.3993,N,11047.4999,W,0.0000,0.000,030610,,*36##0
$GPGSA,A,3,32,31,14,16,13,20,23,11,,,,,1.7,1.0,1.2*36##0
$PGRME,0.00,M,0.00,M,6.43,M*1F##1427
$GPGGA,185047,3824.3993,N,11047.4999,W,1,08,1.00,1367.50,M,-18.568,M,,*4C##0
$GPRMC,185047,A,3824.3993,N,11047.4999,W,0.0000,0.000,030610,,*37##1
$GPGSA,A,3,32,31,14,16,13,20,23,11,,,,,1.7,1.0,1.2*36##576
$GPGGA,185048,3824.3993,N,11047.4999,W,1,08,1.00,1367.50,M,-18.568,M,,*43##0
$GPRMC,185048,A,3824.3993,N,11047.4999,W,0.0000,0.000,030610,,*38##0
$GPGSA,A,3,32,31,14,16,13,20,23,11,,,,,1.7,1.0,1.2*36##972
$GPGGA,185049,3824.3996,N,11047.5001,W,1,08,1.00,1366.77,M,-18.568,M,,*4A##0
$GPRMC,185049,A,3824.3996,N,11047.5001,W,0.0000,0.000,030610,,*35##1
$GPGSA,A,3,32,31,14,16,13,20,23,11,,,,,1.7,1.0,1.2*36##1452
$GPGGA,185050,3824.3996,N,11047.5001,W,1,08,1.00,1366.77,M,-18.568,M,,*42##0
$GPRMC,185050,A,3824.3996,N,11047.5001,W,0.0000,0.000,030610,,*3D##0
$GPGSA,A,3,32,31,14,16,13,20,23,11,,,,,1.7,1.0,1.2*36##578
$GPGGA,185051,3824.3996,N,11047.5001,W,1,08,1.00,1366.77,M,-18.568,M,,*43##1
$GPRMC,185051,A,3824.3996,N,11047.5001,W,0.0000,0.000,030610,,*3C##0
$GPGSA,A,3,32,31,14,16,13,20,23,11,,,,,1.7,1.0,1.2*36##0
$PGRME,0.00,M,0.00,M,6.43,M*1F##967
$GPGGA,185052,3824.3996,N,11047.5001,W,1,08,1.00,1366.77,M,-18.568,M,,*40##1
$GPRMC,185052,A,3824.3996,N,11047.5001,W,0.0000,0.000,030610,,*3F##0
$GPGSA,A,3,32,31,14,16,13,20,23,11,,,,,1.7,1.0,1.2*36##1336
$GPGSV,3,1,09,32,80,184,36,31,41,045,40,14,06,088,37,16,39,136,38*74##0
$GPGSV,3,2,09,13,13,285,30,20,65,289,20,04,02,325,00,23,36,297,33*77##0
$GPGSV,3,3,09,11,11,229,32*48##111
$GPGGA,185053,3824.3996,N,11047.5001,W,1,08,1.00,1366.77,M,-18.568,M,,*41##0
$GPRMC,185053,A,3824.3996,N,11047.5001,W,0.0000,0.000,030610,,*3E##1
$GPGSA,A,3,32,31,14,16,13,20,23,11,,,,,1.7,1.0,1.2*36##579
$GPGGA,185054,3824.3996,N,11047.5001,W,1,08,1.00,1366.77,M,-18.568,M,,*46##0
$GPRMC,185054,A,3824.3996,N,11047.5001,W,0.0000,0.000,030610,,*39##1
$GPGSA,A,3,32,31,14,16,13,20,23,11,,,,,1.7,1.0,1.2*36##975
$GPGGA,185055,3824.3996,N,11047.5001,W,1,08,1.00,1366.77,M,-18.568,M,,*47##0
$GPRMC,185055,A,3824.3996,N,11047.5001,W,0.0000,0.000,030610,,*38##1
$GPGSA,A,3,32,31,14,16,13,20,23,11,,,,,1.7,1.0,1.2*36##1443
$GPGGA,185056,3824.3996,N,11047.5001,W,1,08,1.00,1366.77,M,-18.568,M,,*44##0
$GPRMC,185056,A,3824.3996,N,11047.5001,W,0.0000,0.000,030610,,*3B##1
$GPGSA,A,3,32,31,14,16,13,20,23,11,,,,,1.7,1.0,1.2*36##583
$GPGGA,185057,3824.3998,N,11047.4995,W,1,08,1.00,1366.49,M,-18.568,M,,*43##1
$GPRMC,185057,A,3824.3998,N,11047.4995,W,0.0000,0.000,030610,,*31##0
$GPGSA,A,3,32,31,14,16,13,20,23,11,,,,,1.7,1.0,1.2*36##971
$GPGGA,185058,3824.3998,N,11047.4995,W,1,08,1.00,1366.49,M,-18.568,M,,*4C##0
$GPRMC,185058,A,3824.3998,N,11047.4995,W,0.0000,0.000,030610,,*3E##1
$GPGSA,A,3,32,31,14,16,13,20,23,11,,,,,1.7,1.0,1.2*36##0
$PGRME,0.00,M,0.00,M,6.43,M*1F##1446
$GPGGA,185059,3824.3998,N,11047.4995,W,1,08,1.00,1366.49,M,-18.568,M,,*4D##0
$GPRMC,185059,A,3824.3998,N,11047.4995,W,0.0000,0.000,030610,,*3F##0
$GPGSA,A,3,32,31,14,16,13,20,23,11,,,,,1.7,1.0,1.2*36##0
$PGRME,0.00,M,0.00,M,6.43,M*1F##577
$GPGGA,185100,3824.3998,N,11047.4995,W,1,08,1.00,1366.49,M,-18.568,M,,*40##0
$GPRMC,185100,A,3824.3998,N,11047.4995,W,0.0000,0.000,030610,,*32##1
$GPGSA,A,3,32,31,14,16,13,20,23,11,,,,,1.7,1.0,1.2*36##971
$GPGGA,185101,3824.3996,N,11047.5001,W,1,08,1.00,1366.77,M,-18.568,M,,*47##2
$GPRMC,185101,A,3824.3996,N,11047.5001,W,0.0000,0.000,030610,,*38##0
$GPGSA,A,3,32,31,14,16,13,20,23,11,,,,,1.7,1.0,1.2*36##0
$PGRME,0.00,M,0.00,M,6.43,M*1F##1450
$GPGGA,185102,3824.3996,N,11047.5001,W,1,08,1.00,1366.77,M,-18.568,M,,*44##0
$GPRMC,185102,A,3824.3996,N,11047.5001,W,0.0000,0.000,030610,,*3B##0
$GPGSA,A,3,32,31,14,16,13,20,23,11,,,,,1.7,1.0,1.2*36##0
$PGRME,0.00,M,0.00,M,6.43,M*1F##577
$GPGGA,185103,3824.3996,N,11047.5001,W,1,08,1.00,1366.77,M,-18.568,M,,*45##0
$GPRMC,185103,A,3824.3996,N,11047.5001,W,0.0000,0.000,030610,,*3A##0
$GPGSA,A,3,32,31,14,16,13,20,23,11,,,,,1.7,1.0,1.2*36##0
$PGRME,0.00,M,0.00,M,6.43,M*1F##992
$GPGGA,185104,3824.3996,N,11047.5001,W,1,08,1.00,1366.77,M,-18.568,M,,*42##0
$GPRMC,185104,A,3824.3996,N,11047.5001,W,0.0000,0.000,030610,,*3D##0
$GPGSA,A,3,32,31,14,16,13,20,23,11,,,,,1.7,1.0,1.2*36##1432
$GPGGA,185105,3824.3996,N,11047.5001,W,1,08,1.00,1366.77,M,-18.568,M,,*43##0
$GPRMC,185105,A,3824.3996,N,11047.5001,W,0.0000,0.000,030610,,*3C##0
$GPGSA,A,3,32,31,14,16,13,20,23,11,,,,,1.7,1.0,1.2*36##579
$GPGGA,185106,3824.3996,N,11047.5001,W,1,08,1.00,1366.77,M,-18.568,M,,*40##0
$GPRMC,185106,A,3824.3996,N,11047.5001,W,0.0000,0.000,030610,,*3F##1
$GPGSA,A,3,32,31,14,16,13,20,23,11,,,,,1.7,1.0,1.2*36##0
$PGRME,0.00,M,0.00,M,6.43,M*1F##968
$GPGGA,185107,3824.3996,N,11047.5001,W,1,08,1.00,1366.77,M,-18.568,M,,*41##0
$GPRMC,185107,A,3824.3996,N,11047.5001,W,0.0000,0.000,030610,,*3E##0
$GPGSA,A,3,32,31,14,16,13,20,23,11,,,,,1.7,1.0,1.2*36##1335
$GPGSV,3,1,09,32,80,184,36,31,41,045,40,14,06,088,37,16,39,136,39*75##0
$GPGSV,3,2,09,13,13,285,30,20,65,289,22,04,02,325,00,23,36,297,28*7F##1
$GPGSV,3,3,09,11,11,229,31*4B##111
$GPGGA,185108,3824.4000,N,11047.5003,W,1,08,1.00,1366.04,M,-18.568,M,,*49##1
$GPRMC,185108,A,3824.4000,N,11047.5003,W,0.0000,0.000,030610,,*32##0
$GPGSA,A,3,32,31,14,16,13,20,23,11,,,,,1.7,1.0,1.2*36##580
$GPGGA,185109,3824.4004,N,11047.5003,W,1,08,1.00,1366.66,M,-18.568,M,,*48##1
$GPRMC,185109,A,3824.4004,N,11047.5003,W,0.0000,0.000,030610,,*37##0
$GPGSA,A,3,32,31,14,16,13,20,23,11,,,,,1.7,1.0,1.2*36##986
$GPGGA,185110,3824.4004,N,11047.5003,W,1,08,1.00,1366.66,M,-18.568,M,,*40##0
$GPRMC,185110,A,3824.4004,N,11047.5003,W,0.0000,0.000,030610,,*3F##0
$GPGSA,A,3,32,31,14,16,13,20,23,11,,,,,1.7,1.0,1.2*36##1433
$GPGGA,185111,3824.4004,N,11047.5003,W,1,08,1.00,1366.66,M,-18.568,M,,*41##0
$GPRMC,185111,A,3824.4004,N,11047.5003,W,0.0000,0.000,030610,,*3E##0
$GPGSA,A,3,32,31,14,16,13,20,23,11,,,,,1.7,1.0,1.2*36##0
$PGRME,0.00,M,0.00,M,6.43,M*1F##579
$GPGGA,185112,3824.4004,N,11047.5003,W,1,08,1.00,1366.66,M,-18.568,M,,*42##0
$GPRMC,185112,A,3824.4004,N,11047.5003,W,0.0000,0.000,030610,,*3D##1
$GPGSA,A,3,32,31,14,16,13,20,23,11,,,,,1.7,1.0,1.2*36##0
$PGRME,0.00,M,0.00,M,6.43,M*1F##972
$GPGGA,185113,3824.4003,N,11047.5010,W,1,08,1.00,1366.94,M,-18.568,M,,*4B##0
$GPRMC,185113,A,3824.4003,N,11047.5010,W,0.0000,0.000,030610,,*39##1
$GPGSA,A,3,32,31,14,16,13,20,23,11,,,,,1.7,1.0,1.2*36##0
$PGRME,0.00,M,0.00,M,6.43,M*1F##1451
$GPGGA,185114,3824.4003,N,11047.5010,W,1,08,1.00,1366.94,M,-18.568,M,,*4C##0
$GPRMC,185114,A,3824.4003,N,11047.5010,W,0.0000,0.000,030610,,*3E##0
$GPGSA,A,3,32,31,14,16,13,20,23,11,,,,,1.7,1.0,1.2*36##0
$PGRME,0.00,M,0.00,M,6.43,M*1F##583
$GPGGA,185115,3824.4003,N,11047.5010,W,1,08,1.00,1366.94,M,-18.568,M,,*4D##1
$GPRMC,185115,A,3824.4003,N,11047.5010,W,0.0000,0.000,030610,,*3F##0
$GPGSA,A,3,32,31,14,16,13,20,23,11,,,,,1.7,1.0,1.2*36##979
$GPGGA,185116,3824.4003,N,11047.5010,W,1,08,1.00,1366.94,M,-18.568,M,,*4E##0
$GPRMC,185116,A,3824.4003,N,11047.5010,W,0.0000,0.000,030610,,*3C##1
$GPGSA,A,3,32,31,14,16,13,20,23,11,,,,,1.7,1.0,1.2*36##0
$PGRME,0.00,M,0.00,M,6.43,M*1F##1431
$GPGGA,185117,3824.4003,N,11047.5010,W,1,08,1.00,1366.94,M,-18.568,M,,*4F##0
$GPRMC,185117,A,3824.4003,N,11047.5010,W,0.0000,0.000,030610,,*3D##0
$GPGSA,A,3,32,31,14,16,13,20,23,11,,,,,1.7,1.0,1.2*36##1
$PGRME,0.00,M,0.00,M,6.43,M*1F##580
$GPGGA,185118,3824.4003,N,11047.5010,W,1,08,1.00,1366.94,M,-18.568,M,,*40##0
$GPRMC,185118,A,3824.4003,N,11047.5010,W,0.0000,0.000,030610,,*32##0
$GPGSA,A,3,32,31,14,16,13,20,23,11,,,,,1.7,1.0,1.2*36##971
$GPGGA,185119,3824.4003,N,11047.5010,W,1,08,1.00,1366.94,M,-18.568,M,,*41##1
$GPRMC,185119,A,3824.4003,N,11047.5010,W,0.0000,0.000,030610,,*33##0
$GPGSA,A,3,32,31,14,16,13,20,23,11,,,,,1.7,1.0,1.2*36##1447
$GPGGA,185120,3824.4003,N,11047.5010,W,1,08,1.00,1366.94,M,-18.568,M,,*4B##0
$GPRMC,185120,A,3824.4003,N,11047.5010,W,0.0000,0.000,030610,,*39##1
$GPGSA,A,3,32,31,14,16,13,20,23,11,,,,,1.7,1.0,1.2*36##0
$PGRME,0.00,M,0.00,M,6.43,M*1F##579
$GPGGA,185121,3824.4003,N,11047.5010,W,1,08,1.00,1366.94,M,-18.568,M,,*4A##0
$GPRMC,185121,A,3824.4003,N,11047.5010,W,0.0000,0.000,030610,,*38##1
$GPGSA,A,3,32,31,14,16,13,20,23,11,,,,,1.7,1.0,1.2*36##975
$GPGGA,185122,3824.4003,N,11047.5010,W,1,08,1.00,1366.94,M,-18.568,M,,*49##0
$GPRMC,185122,A,3824.4003,N,11047.5010,W,0.0000,0.000,030610,,*3B##1
$GPGSA,A,3,32,31,14,16,13,20,23,11,,,,,1.7,1.0,1.2*36##0
$PGRME,0.00,M,0.00,M,6.43,M*1F##1331
$GPGSV,3,1,09,32,80,184,37,31,40,045,40,14,06,088,37,16,39,136,39*75##0
$GPGSV,3,2,09,13,13,285,30,20,65,289,21,04,02,325,00,23,36,297,32*77##0
$GPGSV,3,3,09,11,11,229,30*4A##112
$GPGGA,185123,3824.4003,N,11047.5010,W,1,08,1.00,1366.94,M,-18.568,M,,*48##0
$GPRMC,185123,A,3824.4003,N,11047.5010,W,0.0000,0.000,030610,,*3A##1
$GPGSA,A,3,32,31,14,16,13,20,23,11,,,,,1.7,1.0,1.2*36##579
$GPGGA,185124,3824.4003,N,11047.5010,W,1,08,1.00,1366.94,M,-18.568,M,,*4F##0
$GPRMC,185124,A,3824.4003,N,11047.5010,W,0.0000,0.000,030610,,*3D##1
$GPGSA,A,3,32,31,14,16,13,20,23,11,,,,,1.7,1.0,1.2*36##975
$GPGGA,185125,3824.4003,N,11047.5010,W,1,08,1.00,1366.94,M,-18.568,M,,*4E##0
$GPRMC,185125,A,3824.4003,N,11047.5010,W,0.0000,0.000,030610,,*3C##1
$GPGSA,A,3,32,31,14,16,13,20,23,11,,,,,1.7,1.0,1.2*36##0
$PGRME,0.00,M,0.00,M,6.43,M*1F##1447
$GPGGA,185126,3824.4003,N,11047.5010,W,1,08,1.00,1366.94,M,-18.568,M,,*4D##0
$GPRMC,185126,A,3824.4003,N,11047.5010,W,0.0000,0.000,030610,,*3F##1
$GPGSA,A,3,32,31,14,16,13,20,23,11,,,,,1.7,1.0,1.2*36##0
$PGRME,0.00,M,0.00,M,6.43,M*1F##579
$GPGGA,185127,3824.4003,N,11047.5010,W,1,08,1.00,1366.94,M,-18.568,M,,*4C##0
$GPRMC,185127,A,3824.4003,N,11047.5010,W,0.0000,0.000,030610,,*3E##1
$GPGSA,A,3,32,31,14,16,13,20,23,11,,,,,1.7,1.0,1.2*36##0
$PGRME,0.00,M,0.00,M,6.43,M*1F##971
$GPGGA,185128,3824.4003,N,11047.5010,W,1,08,1.00,1366.94,M,-18.568,M,,*43##0
$GPRMC,185128,A,3824.4003,N,11047.5010,W,0.0000,0.000,030610,,*31##1
$GPGSA,A,3,32,31,14,16,13,20,23,11,,,,,1.7,1.0,1.2*36##1448
$GPGGA,185129,3824.4003,N,11047.5010,W,1,08,1.00,1366.94,M,-18.568,M,,*42##0
$GPRMC,185129,A,3824.4003,N,11047.5010,W,0.0000,0.000,030610,,*30##1
$GPGSA,A,3,32,31,14,16,13,20,23,11,,,,,1.7,1.0,1.2*36##578
$GPGGA,185130,3824.4003,N,11047.5010,W,1,08,1.00,1366.94,M,-18.568,M,,*4A##0
$GPRMC,185130,A,3824.4003,N,11047.5010,W,0.0000,0.000,030610,,*38##1
$GPGSA,A,3,32,31,14,16,13,20,23,11,,,,,1.7,1.0,1.2*36##967
$GPGGA,185131,3824.4007,N,11047.5010,W,1,07,1.00,1367.56,M,-18.568,M,,*4F##2
$GPRMC,185131,A,3824.4007,N,11047.5010,W,0.0000,0.000,030610,,*3D##0
$GPGSA,A,3,32,31,14,16,13,23,11,,,,,,1.7,1.0,1.2*34##0
$PGRME,0.00,M,0.00,M,6.43,M*1F##1446
$GPGGA,185132,3824.4007,N,11047.5010,W,1,08,1.00,1367.56,M,-18.568,M,,*43##0
$GPRMC,185132,A,3824.4007,N,11047.5010,W,0.0000,0.000,030610,,*3E##1
$GPGSA,A,3,32,31,14,16,13,20,23,11,,,,,1.7,1.0,1.2*36##579
$GPGGA,185133,3824.4007,N,11047.5010,W,1,08,1.00,1367.56,M,-18.568,M,,*42##0
$GPRMC,185133,A,3824.4007,N,11047.5010,W,0.0000,0.000,030610,,*3F##1
$GPGSA,A,3,32,31,14,16,13,20,23,11,,,,,1.7,1.0,1.2*36##987
$GPGGA,185134,3824.4007,N,11047.5010,W,1,08,1.00,1367.56,M,-18.568,M,,*45##1
$GPRMC,185134,A,3824.4007,N,11047.5010,W,0.0000,0.000,030610,,*38##0
$GPGSA,A,3,32,31,14,16,13,20,23,11,,,,,1.7,1.0,1.2*36##1431
$GPGGA,185135,3824.4007,N,11047.5010,W,1,08,1.00,1367.56,M,-18.568,M,,*44##0
$GPRMC,185135,A,3824.4007,N,11047.5010,W,0.0000,0.000,030610,,*39##1
$GPGSA,A,3,32,31,14,16,13,20,23,11,,,,,1.7,1.0,1.2*36##0
$PGRME,0.00,M,0.00,M,6.43,M*1F##579
$GPGGA,185136,3824.4007,N,11047.5010,W,1,08,1.00,1367.56,M,-18.568,M,,*47##0
$GPRMC,185136,A,3824.4007,N,11047.5010,W,0.0000,0.000,030610,,*3A##1
$GPGSA,A,3,32,31,14,16,13,20,23,11,,,,,1.7,1.0,1.2*36##0
$PGRME,0.00,M,0.00,M,6.43,M*1F##968
$GPGGA,185137,3824.4007,N,11047.5010,W,1,07,1.00,1367.56,M,-18.568,M,,*49##0
$GPRMC,185137,A,3824.4007,N,11047.5010,W,0.0000,0.000,030610,,*3B##1
$GPGSA,A,3,32,31,14,16,13,23,11,,,,,,1.7,1.0,1.2*34##0
$PGRME,0.00,M,0.00,M,6.43,M*1F##1338
$GPGSV,3,1,09,32,80,184,37,31,40,045,41,14,06,088,40,16,39,136,41*7B##0
$GPGSV,3,2,09,13,13,285,32,20,65,289,12,04,02,325,00,23,36,297,33*74##0
$GPGSV,3,3,09,11,11,229,30*4A##112
$GPGGA,185138,3824.4006,N,11047.5016,W,1,08,1.00,1367.83,M,-18.568,M,,*46##2
$GPRMC,185138,A,3824.4006,N,11047.5016,W,0.0000,0.000,030610,,*33##0
$GPGSA,A,3,32,31,14,16,13,20,23,11,,,,,1.7,1.0,1.2*36##579
$GPGGA,185139,3824.4006,N,11047.5016,W,1,08,1.00,1367.83,M,-18.568,M,,*47##0
$GPRMC,185139,A,3824.4006,N,11047.5016,W,0.0000,0.000,030610,,*32##1
$GPGSA,A,3,32,31,14,16,13,20,23,11,,,,,1.7,1.0,1.2*36##998
$GPGGA,185140,3824.4006,N,11047.5016,W,1,08,1.00,1367.83,M,-18.568,M,,*49##1
$GPRMC,185140,A,3824.4006,N,11047.5016,W,0.0000,0.000,030610,,*3C##0
$GPGSA,A,3,32,31,14,16,13,20,23,11,,,,,1.7,1.0,1.2*36##0
$PGRME,0.00,M,0.00,M,6.43,M*1F##1419
$GPGGA,185141,3824.4006,N,11047.5016,W,1,08,1.00,1367.83,M,-18.568,M,,*48##0
$GPRMC,185141,A,3824.4006,N,11047.5016,W,0.0000,0.000,030610,,*3D##1
$GPGSA,A,3,32,31,14,16,13,20,23,11,,,,,1.7,1.0,1.2*36##0
$PGRME,0.00,M,0.00,M,6.43,M*1F##580
$GPGGA,185142,3824.4003,N,11047.5014,W,1,08,1.00,1368.57,M,-18.568,M,,*4A##1
$GPRMC,185142,A,3824.4003,N,11047.5014,W,0.0000,0.000,030610,,*39##1
$GPGSA,A,3,32,31,14,16,13,20,23,11,,,,,1.7,1.0,1.2*36##969
$GPGGA,185143,3824.4003,N,11047.5014,W,1,07,1.00,1368.57,M,-18.568,M,,*44##0
$GPRMC,185143,A,3824.4003,N,11047.5014,W,0.0000,0.000,030610,,*38##1
$GPGSA,A,3,32,31,14,16,13,23,11,,,,,,1.7,1.0,1.2*34##0
$PGRME,0.00,M,0.00,M,6.43,M*1F##1448
$GPGGA,185144,3824.4007,N,11047.5014,W,1,08,1.00,1369.19,M,-18.568,M,,*43##1
$GPRMC,185144,A,3824.4007,N,11047.5014,W,0.0000,0.000,030610,,*3B##0
$GPGSA,A,3,32,31,14,16,13,20,23,11,,,,,1.7,1.0,1.2*36##578
$GPGGA,185145,3824.4007,N,11047.5014,W,1,08,1.00,1369.19,M,-18.568,M,,*42##0
$GPRMC,185145,A,3824.4007,N,11047.5014,W,0.0000,0.000,030610,,*3A##1
$GPGSA,A,3,32,31,14,16,13,20,23,11,,,,,1.7,1.0,1.2*36##0
$PGRME,0.00,M,0.00,M,6.43,M*1F##987
$GPGGA,185146,3824.4007,N,11047.5014,W,1,08,1.00,1369.19,M,-18.568,M,,*41##0
$GPRMC,185146,A,3824.4007,N,11047.5014,W,0.0000,0.000,030610,,*39##0
$GPGSA,A,3,32,31,14,16,13,20,23,11,,,,,1.7,1.0,1.2*36##1
$PGRME,0.00,M,0.00,M,6.43,M*1F##1431
$GPGGA,185147,3824.4007,N,11047.5014,W,1,08,1.00,1369.19,M,-18.568,M,,*40##0
$GPRMC,185147,A,3824.4007,N,11047.5014,W,0.0000,0.000,030610,,*38##0
$GPGSA,A,3,32,31,14,16,13,20,23,11,,,,,1.7,1.0,1.2*36##580
$GPGGA,185148,3824.4007,N,11047.5014,W,1,08,1.00,1369.19,M,-18.568,M,,*4F##0
$GPRMC,185148,A,3824.4007,N,11047.5014,W,0.0000,0.000,030610,,*37##1
$GPGSA,A,3,32,31,14,16,13,20,23,11,,,,,1.7,1.0,1.2*36##0
$PGRME,0.00,M,0.00,M,6.43,M*1F##972
$GPGGA,185149,3824.4007,N,11047.5014,W,1,07,1.00,1369.19,M,-18.568,M,,*41##0
$GPRMC,185149,A,3824.4007,N,11047.5014,W,0.0000,0.000,030610,,*36##0
$GPGSA,A,3,32,31,14,16,13,23,11,,,,,,1.7,1.0,1.2*34##1448
$GPGGA,185150,3824.4007,N,11047.5014,W,1,07,1.00,1369.19,M,-18.568,M,,*49##0
$GPRMC,185150,A,3824.4007,N,11047.5014,W,0.0000,0.000,030610,,*3E##0
$GPGSA,A,3,32,31,14,16,13,23,11,,,,,,1.7,1.0,1.2*34##0
$PGRME,0.00,M,0.00,M,6.43,M*1F##576
$GPGGA,185151,3824.4007,N,11047.5014,W,1,07,1.00,1369.19,M,-18.568,M,,*48##0
$GPRMC,185151,A,3824.4007,N,11047.5014,W,0.0000,0.000,030610,,*3F##1
$GPGSA,A,3,32,31,14,16,13,23,11,,,,,,1.7,1.0,1.2*34##0
$PGRME,0.00,M,0.00,M,6.43,M*1F##974
$GPGGA,185152,3824.4007,N,11047.5014,W,1,07,1.00,1369.19,M,-18.568,M,,*4B##0
$GPRMC,185152,A,3824.4007,N,11047.5014,W,0.0000,0.000,030610,,*3C##1
$GPGSA,A,3,32,31,14,16,13,23,11,,,,,,1.7,1.0,1.2*34##1336
$GPGSV,3,1,09,32,80,183,37,31,40,045,41,14,06,090,39,16,40,136,40*74##0
$GPGSV,3,2,09,13,14,285,30,20,65,289,15,04,02,325,00,23,36,297,36*73##0
$GPGSV,3,3,09,11,11,229,29*42##111
$GPGGA,185153,3824.4007,N,11047.5014,W,1,07,1.00,1369.19,M,-18.568,M,,*4A##0
$GPRMC,185153,A,3824.4007,N,11047.5014,W,0.0000,0.000,030610,,*3D##1
$GPGSA,A,3,32,31,14,16,13,23,11,,,,,,1.7,1.0,1.2*34##579
$GPGGA,185154,3824.4007,N,11047.5014,W,1,07,1.00,1369.19,M,-18.568,M,,*4D##0
$GPRMC,185154,A,3824.4007,N,11047.5014,W,0.0000,0.000,030610,,*3A##0
$GPGSA,A,3,32,31,14,16,13,23,11,,,,,,1.7,1.0,1.2*34##0
$PGRME,0.00,M,0.00,M,6.43,M*1F##969
$GPGGA,185155,3824.4010,N,11047.5016,W,1,08,1.00,1368.46,M,-18.568,M,,*4C##2
$GPRMC,185155,A,3824.4010,N,11047.5016,W,0.0000,0.000,030610,,*3F##0
$GPGSA,A,3,32,31,14,16,13,20,23,11,,,,,1.7,1.0,1.2*36##1445
$GPGGA,185156,3824.4006,N,11047.5016,W,1,08,1.00,1367.83,M,-18.568,M,,*4E##2
$GPRMC,185156,A,3824.4006,N,11047.5016,W,0.0000,0.000,030610,,*3B##0
$GPGSA,A,3,32,31,14,16,13,20,23,11,,,,,1.7,1.0,1.2*36##0
$PGRME,0.00,M,0.00,M,6.43,M*1F##578
$GPGGA,185157,3824.4006,N,11047.5016,W,1,08,1.00,1367.83,M,-18.568,M,,*4F##0
$GPRMC,185157,A,3824.4006,N,11047.5016,W,0.0000,0.000,030610,,*3A##1
$GPGSA,A,3,32,31,14,16,13,20,23,11,,,,,1.7,1.0,1.2*36##972
$GPGGA,185158,3824.4006,N,11047.5016,W,1,08,1.00,1367.83,M,-18.568,M,,*40##0
$GPRMC,185158,A,3824.4006,N,11047.5016,W,0.0000,0.000,030610,,*35##0
$GPGSA,A,3,32,31,14,16,13,20,23,11,,,,,1.7,1.0,1.2*36##0
$PGRME,0.00,M,0.00,M,6.43,M*1F##1451
$GPGGA,185159,3824.4006,N,11047.5016,W,1,08,1.00,1367.83,M,-18.568,M,,*41##1
$GPRMC,185159,A,3824.4006,N,11047.5016,W,0.0000,0.000,030610,,*34##0
$GPGSA,A,3,32,31,14,16,13,20,23,11,,,,,1.7,1.0,1.2*36##0
$PGRME,0.00,M,0.00,M,6.43,M*1F##576
$GPGGA,185200,3824.4006,N,11047.5016,W,1,08,1.00,1367.83,M,-18.568,M,,*4E##0
$GPRMC,185200,A,3824.4006,N,11047.5016,W,0.0000,0.000,030610,,*3B##0
$GPGSA,A,3,32,31,14,16,13,20,23,11,,,,,1.7,1.0,1.2*36##979
$GPGGA,185201,3824.4006,N,11047.5016,W,1,08,1.00,1367.83,M,-18.568,M,,*4F##0
$GPRMC,185201,A,3824.4006,N,11047.5016,W,0.0000,0.000,030610,,*3A##1
$GPGSA,A,3,32,31,14,16,13,20,23,11,,,,,1.7,1.0,1.2*36##1444
$GPGGA,185202,3824.4006,N,11047.5016,W,1,07,1.00,1367.83,M,-18.568,M,,*43##0
$GPRMC,185202,A,3824.4006,N,11047.5016,W,0.0000,0.000,030610,,*39##0
$GPGSA,A,3,32,31,14,16,13,23,11,,,,,,1.7,1.0,1.2*34##576
$GPGGA,185203,3824.4006,N,11047.5016,W,1,08,1.00,1367.83,M,-18.568,M,,*4D##0
$GPRMC,185203,A,3824.4006,N,11047.5016,W,0.0000,0.000,030610,,*38##0
$GPGSA,A,3,32,31,14,16,13,20,23,11,,,,,1.7,1.0,1.2*36##0
$PGRME,0.00,M,0.00,M,6.43,M*1F##976
$GPGGA,185204,3824.4006,N,11047.5016,W,1,08,1.00,1367.83,M,-18.568,M,,*4A##0
$GPRMC,185204,A,3824.4006,N,11047.5016,W,0.0000,0.000,030610,,*3F##0
$GPGSA,A,3,32,31,14,16,13,20,23,11,,,,,1.7,1.0,1.2*36##1449
$GPGGA,185205,3824.4006,N,11047.5016,W,1,08,1.00,1367.83,M,-18.568,M,,*4B##0
$GPRMC,185205,A,3824.4006,N,11047.5016,W,0.0000,0.000,030610,,*3E##0
$GPGSA,A,3,32,31,14,16,13,20,23,11,,,,,1.7,1.0,1.2*36##0
$PGRME,0.00,M,0.00,M,6.43,M*1F##575
$GPGGA,185206,3824.4006,N,11047.5016,W,1,08,1.00,1367.83,M,-18.568,M,,*48##0
$GPRMC,185206,A,3824.4006,N,11047.5016,W,0.0000,0.000,030610,,*3D##0
$GPGSA,A,3,32,31,14,16,13,20,23,11,,,,,1.7,1.0,1.2*36##0
$PGRME,0.00,M,0.00,M,6.43,M*1F##972
$GPGGA,185207,3824.4006,N,11047.5016,W,1,08,1.00,1367.83,M,-18.568,M,,*49##0
$GPRMC,185207,A,3824.4006,N,11047.5016,W,0.0000,0.000,030610,,*3C##0
$GPGSA,A,3,32,31,14,16,13,20,23,11,,,,,1.7,1.0,1.2*36##1339
$GPGSV,2,1,08,32,80,183,36,31,40,045,41,14,06,090,37,16,40,136,39*75##0
$GPGSV,2,2,08,13,14,285,32,20,65,289,20,23,36,297,27,11,11,229,31*7E##112
$GPGGA,185208,3824.4006,N,11047.5016,W,1,08,1.00,1367.83,M,-18.568,M,,*46##1
$GPRMC,185208,A,3824.4006,N,11047.5016,W,0.0000,0.000,030610,,*33##0
$GPGSA,A,3,32,31,14,16,13,20,23,11,,,,,1.7,1.0,1.2*36##579
$GPGGA,185209,3824.4006,N,11047.5016,W,1,08,1.00,1367.83,M,-18.568,M,,*47##0
$GPRMC,185209,A,3824.4006,N,11047.5016,W,0.0000,0.000,030610,,*32##1
$GPGSA,A,3,32,31,14,16,13,20,23,11,,,,,1.7,1.0,1.2*36##0
$PGRME,0.00,M,0.00,M,6.43,M*1F##984
$GPGGA,185210,3824.4006,N,11047.5016,W,1,08,1.00,1367.83,M,-18.568,M,,*4F##0
$GPRMC,185210,A,3824.4006,N,11047.5016,W,0.0000,0.000,030610,,*3A##0
$GPGSA,A,3,32,31,14,16,13,20,23,11,,,,,1.7,1.0,1.2*36##1434
$GPGGA,185211,3824.4006,N,11047.5016,W,1,07,1.00,1367.83,M,-18.568,M,,*41##0
$GPRMC,185211,A,3824.4006,N,11047.5016,W,0.0000,0.000,030610,,*3B##1
$GPGSA,A,3,32,31,14,16,13,23,11,,,,,,1.7,1.0,1.2*34##0
$PGRME,0.00,M,0.00,M,6.43,M*1F##581
$GPGGA,185212,3824.4006,N,11047.5016,W,1,07,1.00,1367.83,M,-18.568,M,,*42##0
$GPRMC,185212,A,3824.4006,N,11047.5016,W,0.0000,0.000,030610,,*38##0
$GPGSA,A,3,32,31,14,16,13,23,11,,,,,,1.7,1.0,1.2*34##0
$PGRME,0.00,M,0.00,M,6.43,M*1F##968
$GPGGA,185213,3824.4006,N,11047.5016,W,1,07,1.00,1367.83,M,-18.568,M,,*43##0
$GPRMC,185213,A,3824.4006,N,11047.5016,W,0.0000,0.000,030610,,*39##0
$GPGSA,A,3,32,31,14,16,13,23,11,,,,,,1.7,1.0,1.2*34##1
$PGRME,0.00,M,0.00,M,6.43,M*1F##1447
$GPGGA,185214,3824.4006,N,11047.5016,W,1,07,1.00,1367.83,M,-18.568,M,,*44##0
$GPRMC,185214,A,3824.4006,N,11047.5016,W,0.0000,0.000,030610,,*3E##1
$GPGSA,A,3,32,31,14,16,13,23,11,,,,,,1.7,1.0,1.2*34##0
$PGRME,0.00,M,0.00,M,6.43,M*1F##578
$GPGGA,185215,3824.4010,N,11047.5016,W,1,07,1.00,1368.46,M,-18.568,M,,*44##2
$GPRMC,185215,A,3824.4010,N,11047.5016,W,0.0000,0.000,030610,,*38##0
$GPGSA,A,3,32,31,14,16,13,23,11,,,,,,1.7,1.0,1.2*34##986
$GPGGA,185216,3824.4010,N,11047.5016,W,1,07,1.00,1368.46,M,-18.568,M,,*47##1
$GPRMC,185216,A,3824.4010,N,11047.5016,W,0.0000,0.000,030610,,*3B##0
$GPGSA,A,3,32,31,14,16,13,23,11,,,,,,1.7,1.0,1.2*34##1435
$GPGGA,185217,3824.4010,N,11047.5016,W,1,08,1.00,1368.46,M,-18.568,M,,*49##0
$GPRMC,185217,A,3824.4010,N,11047.5016,W,0.0000,0.000,030610,,*3A##1
$GPGSA,A,3,32,31,14,16,13,20,23,11,,,,,1.7,1.0,1.2*36##575
$GPGGA,185218,3824.4010,N,11047.5016,W,1,08,1.00,1368.46,M,-18.568,M,,*46##1
$GPRMC,185218,A,3824.4010,N,11047.5016,W,0.0000,0.000,030610,,*35##0
$GPGSA,A,3,32,31,14,16,13,20,23,11,,,,,1.7,1.0,1.2*36##0
$PGRME,0.00,M,0.00,M,6.43,M*1F##972
$GPGGA,185219,3824.4007,N,11047.5014,W,1,07,1.00,1369.19,M,-18.568,M,,*47##0
$GPRMC,185219,A,3824.4007,N,11047.5014,W,0.0000,0.000,030610,,*30##1
$GPGSA,A,3,32,31,14,16,13,23,11,,,,,,1.7,1.0,1.2*34##1451
$GPGGA,185220,3824.4007,N,11047.5014,W,1,07,1.00,1369.19,M,-18.568,M,,*4D##0
$GPRMC,185220,A,3824.4007,N,11047.5014,W,0.0000,0.000,030610,,*3A##0
$GPGSA,A,3,32,31,14,16,13,23,11,,,,,,1.7,1.0,1.2*34##580
$GPGGA,185221,3824.4007,N,11047.5014,W,1,07,1.00,1369.19,M,-18.568,M,,*4C##0
$GPRMC,185221,A,3824.4007,N,11047.5014,W,0.1904,0.000,030610,,*37##0
$GPGSA,A,3,32,31,14,16,13,23,11,,,,,,1.7,1.0,1.2*34##0
$PGRME,0.00,M,0.00,M,6.43,M*1F##971
$GPGGA,185222,3824.4007,N,11047.5014,W,1,08,1.00,1369.19,M,-18.568,M,,*40##1
$GPRMC,185222,A,3824.4007,N,11047.5014,W,0.1904,0.000,030610,,*34##0
$GPGSA,A,3,32,31,14,16,13,20,23,11,,,,,1.7,1.0,1.2*36##0
$PGRME,0.00,M,0.00,M,6.43,M*1F##1336
$GPGSV,2,1,08,32,80,183,34,31,40,045,40,14,06,090,31,16,40,136,39*70##0
$GPGSV,2,2,08,13,14,285,32,20,65,288,15,23,36,297,24,11,11,229,24*7E##111
$GPGGA,185223,3824.4007,N,11047.5014,W,1,08,1.00,1369.19,M,-18.568,M,,*41##0
$GPRMC,185223,A,3824.4007,N,11047.5014,W,0.0000,0.000,030610,,*39##1
$GPGSA,A,3,32,31,14,16,13,20,23,11,,,,,1.7,1.0,1.2*36##579
$GPGGA,185224,3824.4007,N,11047.5014,W,1,07,1.00,1369.19,M,-18.568,M,,*49##1
$GPRMC,185224,A,3824.4007,N,11047.5014,W,0.0000,0.000,030610,,*3E##0
$GPGSA,A,3,32,31,14,16,13,23,11,,,,,,1.7,1.0,1.2*34##971
$GPGGA,185225,3824.4007,N,11047.5014,W,1,07,1.00,1369.19,M,-18.568,M,,*48##0
$GPRMC,185225,A,3824.4007,N,11047.5014,W,0.1904,0.000,030610,,*33##1
$GPGSA,A,3,32,31,14,16,13,23,11,,,,,,1.7,1.0,1.2*34##1447
$GPGGA,185226,3824.4007,N,11047.5014,W,1,08,1.00,1369.19,M,-18.568,M,,*44##0
$GPRMC,185226,A,3824.4007,N,11047.5014,W,0.0000,0.000,030610,,*3C##1
$GPGSA,A,3,32,31,14,16,13,20,23,11,,,,,1.7,1.0,1.2*36##0
$PGRME,0.00,M,0.00,M,6.43,M*1F##580
$GPGGA,185227,3824.4007,N,11047.5014,W,1,08,1.00,1369.19,M,-18.568,M,,*45##0
$GPRMC,185227,A,3824.4007,N,11047.5014,W,0.2334,256.727,030610,,*38##0
$GPGSA,A,3,32,31,14,16,13,20,23,11,,,,,1.7,1.0,1.2*36##0
$PGRME,0.00,M,0.00,M,6.43,M*1F##971
$GPGGA,185228,3824.4007,N,11047.5014,W,1,07,1.00,1369.19,M,-18.568,M,,*45##0
$GPRMC,185228,A,3824.4007,N,11047.5014,W,0.2334,76.727,030610,,*07##1
$GPGSA,A,3,32,31,14,16,13,23,11,,,,,,1.7,1.0,1.2*34##1447
$GPGGA,185229,3824.4007,N,11047.5014,W,1,08,1.00,1369.19,M,-18.568,M,,*4B##0
$GPRMC,185229,A,3824.4007,N,11047.5014,W,0.0000,0.000,030610,,*33##1
$GPGSA,A,3,32,31,14,16,13,20,23,11,,,,,1.7,1.0,1.2*36##579
$GPGGA,185230,3824.4007,N,11047.5014,W,1,08,1.00,1369.19,M,-18.568,M,,*43##0
$GPRMC,185230,A,3824.4007,N,11047.5014,W,0.2334,76.727,030610,,*0E##1
$GPGSA,A,3,32,31,14,16,13,20,23,11,,,,,1.7,1.0,1.2*36##971
$GPGGA,185231,3824.4003,N,11047.5014,W,1,07,1.00,1368.57,M,-18.568,M,,*42##1
$GPRMC,185231,A,3824.4003,N,11047.5014,W,0.2334,76.727,030610,,*0B##0
$GPGSA,A,3,32,31,14,16,13,20,11,,,,,,1.7,1.0,1.2*37##0
$PGRME,0.00,M,0.00,M,6.43,M*1F##1448
$GPGGA,185232,3824.4003,N,11047.5014,W,1,07,1.00,1368.57,M,-18.568,M,,*41##0
$GPRMC,185232,A,3824.4003,N,11047.5014,W,0.0000,0.000,030610,,*3D##0
$GPGSA,A,3,32,31,14,16,13,20,11,,,,,,1.7,1.0,1.2*37##580
$GPGGA,185233,3824.4003,N,11047.5014,W,1,07,1.00,1368.57,M,-18.568,M,,*40##0
$GPRMC,185233,A,3824.4003,N,11047.5014,W,0.0000,0.000,030610,,*3C##0
$GPGSA,A,3,32,31,14,16,13,20,11,,,,,,1.7,1.0,1.2*37##972
$GPGGA,185234,3824.4003,N,11047.5014,W,1,07,1.00,1368.57,M,-18.568,M,,*47##0
$GPRMC,185234,A,3824.4003,N,11047.5014,W,0.0000,0.000,030610,,*3B##0
$GPGSA,A,3,32,31,14,16,13,20,11,,,,,,1.7,1.0,1.2*37##0
$PGRME,0.00,M,0.00,M,6.43,M*1F##1448
$GPGGA,185235,3824.4003,N,11047.5014,W,1,07,1.00,1368.57,M,-18.568,M,,*46##0
$GPRMC,185235,A,3824.4003,N,11047.5014,W,0.0000,0.000,030610,,*3A##0
$GPGSA,A,3,32,31,14,16,13,20,11,,,,,,1.7,1.0,1.2*37##0
$PGRME,0.00,M,0.00,M,6.43,M*1F##576
$GPGGA,185236,3824.4003,N,11047.5014,W,1,07,1.00,1368.57,M,-18.568,M,,*45##0
$GPRMC,185236,A,3824.4003,N,11047.5014,W,0.3254,105.605,030610,,*3E##0
$GPGSA,A,3,32,31,14,16,13,20,11,,,,,,1.7,1.0,1.2*37##972
$GPGGA,185237,3824.4007,N,11047.5014,W,1,07,1.00,1369.19,M,-18.568,M,,*4B##0
$GPRMC,185237,A,3824.4007,N,11047.5014,W,0.2334,256.727,030610,,*39##1
$GPGSA,A,3,32,31,14,16,13,20,11,,,,,,1.7,1.0,1.2*37##0
$PGRME,0.00,M,0.00,M,6.43,M*1F##1335
$GPGSV,3,1,09,32,80,183,34,31,40,045,39,14,06,090,33,16,40,136,39*7C##0
$GPGSV,3,2,09,13,14,285,31,04,02,324,00,20,65,288,15,23,36,297,27*72##0
$GPGSV,3,3,09,11,11,229,30*4A##112
$GPGGA,185238,3824.4007,N,11047.5014,W,1,08,1.00,1369.19,M,-18.568,M,,*4B##0
$GPRMC,185238,A,3824.4007,N,11047.5014,W,0.3299,71.829,030610,,*07##0
$GPGSA,A,3,32,31,14,16,13,20,23,11,,,,,1.7,1.0,1.2*36##580
$GPGGA,185239,3824.4007,N,11047.5014,W,1,08,1.00,1369.19,M,-18.568,M,,*4A##0
$GPRMC,185239,A,3824.4007,N,11047.5014,W,0.3299,71.829,030610,,*06##0
$GPGSA,A,3,32,31,14,16,13,20,23,11,,,,,1.7,1.0,1.2*36##0
$PGRME,0.00,M,0.00,M,6.43,M*1F##972
$GPGGA,185240,3824.4007,N,11047.5014,W,1,08,1.00,1369.19,M,-18.568,M,,*44##0
$GPRMC,185240,A,3824.4007,N,11047.5014,W,0.1904,0.000,030610,,*30##0
$GPGSA,A,3,32,31,14,16,13,20,23,11,,,,,1.7,1.0,1.2*36##1448
$GPGGA,185241,3824.4007,N,11047.5014,W,1,08,1.00,1369.19,M,-18.568,M,,*45##0
$GPRMC,185241,A,3824.4007,N,11047.5014,W,0.1904,0.000,030610,,*31##0
$GPGSA,A,3,32,31,14,16,13,20,23,11,,,,,1.7,1.0,1.2*36##579
$GPGGA,185242,3824.4007,N,11047.5014,W,1,08,1.00,1369.19,M,-18.568,M,,*46##0
$GPRMC,185242,A,3824.4007,N,11047.5014,W,0.1904,0.000,030610,,*32##1
$GPGSA,A,3,32,31,14,16,13,20,23,11,,,,,1.7,1.0,1.2*36##0
$PGRME,0.00,M,0.00,M,6.43,M*1F##972
$GPGGA,185243,3824.4007,N,11047.5014,W,1,08,1.00,1369.19,M,-18.568,M,,*47##0
$GPRMC,185243,A,3824.4007,N,11047.5014,W,0.0000,0.000,030610,,*3F##1
$GPGSA,A,3,32,31,14,16,13,20,23,11,,,,,1.7,1.0,1.2*36##0
$PGRME,0.00,M,0.00,M,6.43,M*1F##1447
$GPGGA,185244,3824.4007,N,11047.5014,W,1,08,1.00,1369.19,M,-18.568,M,,*40##0
$GPRMC,185244,A,3824.4007,N,11047.5014,W,0.0000,0.000,030610,,*38##0
$GPGSA,A,3,32,31,14,16,13,20,23,11,,,,,1.7,1.0,1.2*36##577
$GPGGA,185245,3824.4007,N,11047.5014,W,1,08,1.00,1369.19,M,-18.568,M,,*41##1
$GPRMC,185245,A,3824.4007,N,11047.5014,W,0.0000,0.000,030610,,*39##0
$GPGSA,A,3,32,31,14,16,13,20,23,11,,,,,1.7,1.0,1.2*36##0
$PGRME,0.00,M,0.00,M,6.43,M*1F##1006
$GPGGA,185246,3824.4007,N,11047.5014,W,1,08,1.00,1369.19,M,-18.568,M,,*42##0
$GPRMC,185246,A,3824.4007,N,11047.5014,W,0.0000,0.000,030610,,*3A##0
$GPGSA,A,3,32,31,14,16,13,20,23,11,,,,,1.7,1.0,1.2*36##1416
$GPGGA,185247,3824.4007,N,11047.5014,W,1,08,1.00,1369.19,M,-18.568,M,,*43##0
$GPRMC,185247,A,3824.4007,N,11047.5014,W,0.0000,0.000,030610,,*3B##0
$GPGSA,A,3,32,31,14,16,13,20,23,11,,,,,1.7,1.0,1.2*36##0
$PGRME,0.00,M,0.00,M,6.43,M*1F##580
$GPGGA,185248,3824.4011,N,11047.5014,W,1,08,1.00,1369.81,M,-18.568,M,,*4A##0
$GPRMC,185248,A,3824.4011,N,11047.5014,W,0.2652,301.062,030610,,*36##1
$GPGSA,A,3,32,31,14,16,13,20,23,11,,,,,1.7,1.0,1.2*36##971
$GPGGA,185249,3824.4011,N,11047.5014,W,1,08,1.00,1369.81,M,-18.568,M,,*4B##0
$GPRMC,185249,A,3824.4011,N,11047.5014,W,0.0000,0.000,030610,,*32##0
$GPGSA,A,3,32,31,14,16,13,20,23,11,,,,,1.7,1.0,1.2*36##0
$PGRME,0.00,M,0.00,M,6.43,M*1F##1448
$GPGGA,185250,3824.4011,N,11047.5014,W,1,08,1.00,1369.81,M,-18.568,M,,*43##0
$GPRMC,185250,A,3824.4011,N,11047.5014,W,0.0000,0.000,030610,,*3A##1
$GPGSA,A,3,32,31,14,16,13,20,23,11,,,,,1.7,1.0,1.2*36##0
$PGRME,0.00,M,0.00,M,6.43,M*1F##579
$GPGGA,185251,3824.4008,N,11047.5011,W,1,08,1.00,1370.54,M,-18.568,M,,*4F##1
$GPRMC,185251,A,3824.4008,N,11047.5011,W,0.0000,0.000,030610,,*36##1
$GPGSA,A,3,32,31,14,16,13,20,23,11,,,,,1.7,1.0,1.2*36##0
$PGRME,0.00,M,0.00,M,6.43,M*1F##969
$GPGGA,185252,3824.4008,N,11047.5011,W,1,08,1.00,1370.54,M,-18.568,M,,*4C##0
$GPRMC,185252,A,3824.4008,N,11047.5011,W,0.0000,0.000,030610,,*35##1
$GPGSA,A,3,32,31,14,16,13,20,23,11,,,,,1.7,1.0,1.2*36##0
$PGRME,0.00,M,0.00,M,6.43,M*1F##1335
$GPGSV,3,1,09,32,79,183,37,31,40,045,42,14,06,090,36,16,40,136,40*7E##0
$GPGSV,3,2,09,13,14,285,37,04,03,324,00,20,65,288,23,23,36,297,32*74##0
$GPGSV,3,3,09,11,11,228,30*4B##112
$GPGGA,185253,3824.4008,N,11047.5011,W,1,08,1.00,1370.54,M,-18.568,M,,*4D##0
$GPRMC,185253,A,3824.4008,N,11047.5011,W,0.0000,0.000,030610,,*34##1
$GPGSA,A,3,32,31,14,16,13,20,23,11,,,,,1.7,1.0,1.2*36##580
$GPGGA,185254,3824.4008,N,11047.5011,W,1,08,1.00,1370.54,M,-18.568,M,,*4A##0
$GPRMC,185254,A,3824.4008,N,11047.5011,W,0.0000,0.000,030610,,*33##1
$GPGSA,A,3,32,31,14,16,13,20,23,11,,,,,1.7,1.0,1.2*36##0
$PGRME,0.00,M,0.00,M,6.43,M*1F##967
$GPGGA,185255,3824.4008,N,11047.5011,W,1,08,1.00,1370.54,M,-18.568,M,,*4B##0
$GPRMC,185255,A,3824.4008,N,11047.5011,W,0.0000,0.000,030610,,*32##1
$GPGSA,A,3,32,31,14,16,13,20,23,11,,,,,1.7,1.0,1.2*36##1447
$GPGGA,185256,3824.4008,N,11047.5011,W,1,08,1.00,1370.54,M,-18.568,M,,*48##0
$GPRMC,185256,A,3824.4008,N,11047.5011,W,0.0000,0.000,030610,,*31##1
$GPGSA,A,3,32,31,14,16,13,20,23,11,,,,,1.7,1.0,1.2*36##579
$GPGGA,185257,3824.4008,N,11047.5011,W,1,08,1.00,1370.54,M,-18.568,M,,*49##0
$GPRMC,185257,A,3824.4008,N,11047.5011,W,0.0000,0.000,030610,,*30##1
$GPGSA,A,3,32,31,14,16,13,20,23,11,,,,,1.7,1.0,1.2*36##0
$PGRME,0.00,M,0.00,M,6.43,M*1F##974
$GPGGA,185258,3824.4008,N,11047.5011,W,1,08,1.00,1370.54,M,-18.568,M,,*46##0
$GPRMC,185258,A,3824.4008,N,11047.5011,W,0.0000,0.000,030610,,*3F##1
$GPGSA,A,3,32,31,14,16,13,20,23,11,,,,,1.7,1.0,1.2*36##0
$PGRME,0.00,M,0.00,M,6.43,M*1F##1443
$GPGGA,185259,3824.4008,N,11047.5011,W,1,08,1.00,1370.54,M,-18.568,M,,*47##0
$GPRMC,185259,A,3824.4008,N,11047.5011,W,0.1904,0.000,030610,,*32##1
$GPGSA,A,3,32,31,14,16,13,20,23,11,,,,,1.7,1.0,1.2*36##579
$GPGGA,185300,3824.4008,N,11047.5011,W,1,08,1.00,1370.54,M,-18.568,M,,*4A##0
$GPRMC,185300,A,3824.4008,N,11047.5011,W,0.0000,0.000,030610,,*33##1
$GPGSA,A,3,32,31,14,16,13,20,23,11,,,,,1.7,1.0,1.2*36##0
$PGRME,0.00,M,0.00,M,6.43,M*1F##971
$GPGGA,185301,3824.4008,N,11047.5011,W,1,08,1.00,1370.54,M,-18.568,M,,*4B##0
$GPRMC,185301,A,3824.4008,N,11047.5011,W,0.1904,0.000,030610,,*3E##1
$GPGSA,A,3,32,31,14,16,13,20,23,11,,,,,1.7,1.0,1.2*36##1451
$GPGGA,185302,3824.4004,N,11047.5015,W,1,08,1.00,1371.55,M,-18.568,M,,*40##2
$GPRMC,185302,A,3824.4004,N,11047.5015,W,0.1904,0.000,030610,,*35##0
$GPGSA,A,3,32,31,14,16,13,20,23,11,,,,,1.7,1.0,1.2*36##574
$GPGGA,185303,3824.4004,N,11047.5015,W,1,08,1.00,1371.55,M,-18.568,M,,*41##0
$GPRMC,185303,A,3824.4004,N,11047.5015,W,0.1904,0.000,030610,,*34##1
$GPGSA,A,3,32,31,14,16,13,20,23,11,,,,,1.7,1.0,1.2*36##0
$PGRME,0.00,M,0.00,M,6.43,M*1F##973
$GPGGA,185304,3824.4004,N,11047.5015,W,1,08,1.00,1371.55,M,-18.568,M,,*46##0
$GPRMC,185304,A,3824.4004,N,11047.5015,W,0.1904,0.000,030610,,*33##1
$GPGSA,A,3,32,31,14,16,13,20,23,11,,,,,1.7,1.0,1.2*36##0
$PGRME,0.00,M,0.00,M,6.43,M*1F##1450
$GPGGA,185305,3824.4004,N,11047.5015,W,1,08,1.00,1371.55,M,-18.568,M,,*47##0
$GPRMC,185305,A,3824.4004,N,11047.5015,W,0.1904,0.000,030610,,*32##0
$GPGSA,A,3,32,31,14,16,13,20,23,11,,,,,1.7,1.0,1.2*36##0
$PGRME,0.00,M,0.00,M,6.43,M*1F##582
$GPGGA,185306,3824.4004,N,11047.5015,W,1,08,1.00,1371.55,M,-18.568,M,,*44##0
$GPRMC,185306,A,3824.4004,N,11047.5015,W,0.1904,0.000,030610,,*31##0
$GPGSA,A,3,32,31,14,16,13,20,23,11,,,,,1.7,1.0,1.2*36##0
$PGRME,0.00,M,0.00,M,6.43,M*1F##965
$GPGGA,185307,3824.4005,N,11047.5009,W,1,08,1.00,1371.27,M,-18.568,M,,*4C##3
$GPRMC,185307,A,3824.4005,N,11047.5009,W,0.0000,0.000,030610,,*30##1
$GPGSA,A,3,32,31,14,16,13,20,23,11,,,,,1.7,1.0,1.2*36##0
$PGRME,0.00,M,0.00,M,6.43,M*1F##1333
$GPGSV,3,1,09,32,79,183,38,31,40,045,42,14,06,090,38,16,40,136,41*7E##3
$GPGSV,3,2,09,13,14,285,37,04,03,324,00,20,65,288,23,23,36,297,34*72##1
$GPGSV,3,3,09,11,11,228,32*49##108
$GPGGA,185308,3824.4005,N,11047.5009,W,1,08,1.00,1371.27,M,-18.568,M,,*43##0
$GPRMC,185308,A,3824.4005,N,11047.5009,W,0.1904,0.000,030610,,*33##0
$GPGSA,A,3,32,31,14,16,13,20,23,11,,,,,1.7,1.0,1.2*36##580
$GPGGA,185309,3824.4005,N,11047.5009,W,1,08,1.00,1371.27,M,-18.568,M,,*42##0
$GPRMC,185309,A,3824.4005,N,11047.5009,W,0.0000,0.000,030610,,*3E##0
$GPGSA,A,3,32,31,14,16,13,20,23,11,,,,,1.7,1.0,1.2*36##972
$GPGGA,185310,3824.4005,N,11047.5009,W,1,08,1.00,1371.27,M,-18.568,M,,*4A##1
$GPRMC,185310,A,3824.4005,N,11047.5009,W,0.0000,0.000,030610,,*36##0
$GPGSA,A,3,32,31,14,16,13,20,23,11,,,,,1.7,1.0,1.2*36##1447
$GPGGA,185311,3824.4005,N,11047.5009,W,1,08,1.00,1371.27,M,-18.568,M,,*4B##0
$GPRMC,185311,A,3824.4005,N,11047.5009,W,0.0000,0.000,030610,,*37##1
$GPGSA,A,3,32,31,14,16,13,20,23,11,,,,,1.7,1.0,1.2*36##578
$GPGGA,185312,3824.4005,N,11047.5009,W,1,08,1.00,1371.27,M,-18.568,M,,*48##0
$GPRMC,185312,A,3824.4005,N,11047.5009,W,0.0000,0.000,030610,,*34##1
$GPGSA,A,3,32,31,14,16,13,20,23,11,,,,,1.7,1.0,1.2*36##0
$PGRME,0.00,M,0.00,M,6.43,M*1F##972
$GPGGA,185313,3824.4005,N,11047.5009,W,1,08,1.00,1371.27,M,-18.568,M,,*49##0
$GPRMC,185313,A,3824.4005,N,11047.5009,W,0.0000,0.000,030610,,*35##1
$GPGSA,A,3,32,31,14,16,13,20,23,11,,,,,1.7,1.0,1.2*36##0
$PGRME,0.00,M,0.00,M,6.43,M*1F##1446
$GPGGA,185314,3824.4005,N,11047.5009,W,1,08,1.00,1371.27,M,-18.568,M,,*4E##1
$GPRMC,185314,A,3824.4005,N,11047.5009,W,0.0000,0.000,030610,,*32##0
$GPGSA,A,3,32,31,14,16,13,20,23,11,,,,,1.7,1.0,1.2*36##0
$PGRME,0.00,M,0.00,M,6.43,M*1F##580
$GPGGA,185315,3824.4008,N,11047.5011,W,1,08,1.00,1370.54,M,-18.568,M,,*4E##1
$GPRMC,185315,A,3824.4008,N,11047.5011,W,0.0000,0.000,030610,,*37##0
$GPGSA,A,3,32,31,14,16,13,20,23,11,,,,,1.7,1.0,1.2*36##0
$PGRME,0.00,M,0.00,M,6.43,M*1F##987
$GPGGA,185316,3824.4008,N,11047.5011,W,1,08,1.00,1370.54,M,-18.568,M,,*4D##0
$GPRMC,185316,A,3824.4008,N,11047.5011,W,0.0000,0.000,030610,,*34##1
$GPGSA,A,3,32,31,14,16,13,20,23,11,,,,,1.7,1.0,1.2*36##0
$PGRME,0.00,M,0.00,M,6.43,M*1F##1430
$GPGGA,185317,3824.4008,N,11047.5011,W,1,08,1.00,1370.54,M,-18.568,M,,*4C##0
$GPRMC,185317,A,3824.4008,N,11047.5011,W,0.0000,0.000,030610,,*35##2
$GPGSA,A,3,32,31,14,16,13,20,23,11,,,,,1.7,1.0,1.2*36##578
$GPGGA,185318,3824.4008,N,11047.5011,W,1,08,1.00,1370.54,M,-18.568,M,,*43##0
$GPRMC,185318,A,3824.4008,N,11047.5011,W,0.0000,0.000,030610,,*3A##1
$GPGSA,A,3,32,31,14,16,13,20,23,11,,,,,1.7,1.0,1.2*36##971
$GPGGA,185319,3824.4004,N,11047.5011,W,1,08,1.00,1369.92,M,-18.568,M,,*4C##2
$GPRMC,185319,A,3824.4004,N,11047.5011,W,0.0000,0.000,030610,,*37##0
$GPGSA,A,3,32,31,14,16,13,20,23,11,,,,,1.7,1.0,1.2*36##1
$PGRME,0.00,M,0.00,M,6.43,M*1F##1445
$GPGGA,185320,3824.4004,N,11047.5011,W,1,08,1.00,1369.92,M,-18.568,M,,*46##1
$GPRMC,185320,A,3824.4004,N,11047.5011,W,0.0000,0.000,030610,,*3D##0
$GPGSA,A,3,32,31,14,16,13,20,23,11,,,,,1.7,1.0,1.2*36##579
$GPGGA,185321,3824.4005,N,11047.5005,W,1,08,1.00,1369.64,M,-18.568,M,,*4A##2
$GPRMC,185321,A,3824.4005,N,11047.5005,W,0.0000,0.000,030610,,*38##0
$GPGSA,A,3,32,31,14,16,13,20,23,11,,,,,1.7,1.0,1.2*36##970
$GPGGA,185322,3824.4005,N,11047.5005,W,1,08,1.00,1369.64,M,-18.568,M,,*49##0
$GPRMC,185322,A,3824.4005,N,11047.5005,W,0.0000,0.000,030610,,*3B##1
$GPGSA,A,3,32,31,14,16,13,20,23,11,,,,,1.7,1.0,1.2*36##1335
$GPGSV,3,1,09,32,79,181,38,31,40,045,42,14,06,090,39,16,40,136,41*7D##4
$GPGSV,3,2,09,13,14,285,36,04,03,324,00,20,65,288,30,23,37,297,34*70##0
$GPGSV,3,3,09,11,11,228,33*48##108
$GPGGA,185323,3824.4005,N,11047.5005,W,1,08,1.00,1369.64,M,-18.568,M,,*48##1
$GPRMC,185323,A,3824.4005,N,11047.5005,W,0.0000,0.000,030610,,*3A##0
$GPGSA,A,3,32,31,14,16,13,20,23,11,,,,,1.7,1.0,1.2*36##579
$GPGGA,185324,3824.4005,N,11047.5005,W,1,08,1.00,1369.64,M,-18.568,M,,*4F##1
$GPRMC,185324,A,3824.4005,N,11047.5005,W,0.0000,0.000,030610,,*3D##0
$GPGSA,A,3,32,31,14,16,13,20,23,11,,,,,1.7,1.0,1.2*36##971
$GPGGA,185325,3824.4001,N,11047.5005,W,1,08,1.00,1369.02,M,-18.568,M,,*4A##2
$GPRMC,185325,A,3824.4001,N,11047.5005,W,0.0000,0.000,030610,,*38##0
$GPGSA,A,3,32,31,14,16,13,20,23,11,,,,,1.7,1.0,1.2*36##1
$PGRME,0.00,M,0.00,M,6.43,M*1F##1446
$GPGGA,185326,3824.4004,N,11047.5007,W,1,08,1.00,1368.29,M,-18.568,M,,*46##5
$GPRMC,185326,A,3824.4004,N,11047.5007,W,0.0000,0.000,030610,,*3C##1
$GPGSA,A,3,32,31,14,16,13,20,23,11,,,,,1.7,1.0,1.2*36##574
$GPGGA,185327,3824.4004,N,11047.5007,W,1,08,1.00,1368.29,M,-18.568,M,,*47##0
$GPRMC,185327,A,3824.4004,N,11047.5007,W,0.0000,0.000,030610,,*3D##1
$GPGSA,A,3,32,31,14,16,13,20,23,11,,,,,1.7,1.0,1.2*36##970
$GPGGA,185328,3824.4004,N,11047.5007,W,1,08,1.00,1368.29,M,-18.568,M,,*48##1
$GPRMC,185328,A,3824.4004,N,11047.5007,W,0.0000,0.000,030610,,*32##0
$GPGSA,A,3,32,31,14,16,13,20,23,11,,,,,1.7,1.0,1.2*36##1447
$GPGGA,185329,3824.4004,N,11047.5007,W,1,08,1.00,1368.29,M,-18.568,M,,*49##1
$GPRMC,185329,A,3824.4004,N,11047.5007,W,0.0000,0.000,030610,,*33##0
$GPGSA,A,3,32,31,14,16,13,20,23,11,,,,,1.7,1.0,1.2*36##0
$PGRME,0.00,M,0.00,M,6.43,M*1F##580
$GPGGA,185330,3824.4004,N,11047.5007,W,1,08,1.00,1368.29,M,-18.568,M,,*41##0
$GPRMC,185330,A,3824.4004,N,11047.5007,W,0.0000,0.000,030610,,*3B##1
$GPGSA,A,3,32,31,14,16,13,20,23,11,,,,,1.7,1.0,1.2*36##970
$GPGGA,185331,3824.4004,N,11047.5007,W,1,08,1.00,1368.29,M,-18.568,M,,*40##0
$GPRMC,185331,A,3824.4004,N,11047.5007,W,0.0000,0.000,030610,,*3A##1
$GPGSA,A,3,32,31,14,16,13,20,23,11,,,,,1.7,1.0,1.2*36##1452
$GPGGA,185332,3824.4004,N,11047.5007,W,1,08,1.00,1368.29,M,-18.568,M,,*43##0
$GPRMC,185332,A,3824.4004,N,11047.5007,W,0.0000,0.000,030610,,*39##1
$GPGSA,A,3,32,31,14,16,13,20,23,11,,,,,1.7,1.0,1.2*36##0
$PGRME,0.00,M,0.00,M,6.43,M*1F##578
$GPGGA,185333,3824.4004,N,11047.5007,W,1,08,1.00,1368.29,M,-18.568,M,,*42##1
$GPRMC,185333,A,3824.4004,N,11047.5007,W,0.2334,76.727,030610,,*0D##1
$GPGSA,A,3,32,31,14,16,13,20,23,11,,,,,1.7,1.0,1.2*36##0
$PGRME,0.00,M,0.00,M,6.43,M*1F##967
$GPGGA,185334,3824.4004,N,11047.5007,W,1,08,1.00,1368.29,M,-18.568,M,,*45##0
$GPRMC,185334,A,3824.4004,N,11047.5007,W,0.0000,0.000,030610,,*3F##1
$GPGSA,A,3,32,31,14,16,13,20,23,11,,,,,1.7,1.0,1.2*36##1451
$GPGGA,185335,3824.4004,N,11047.5007,W,1,08,1.00,1368.29,M,-18.568,M,,*44##0
$GPRMC,185335,A,3824.4004,N,11047.5007,W,0.0000,0.000,030610,,*3E##1
$GPGSA,A,3,32,31,14,16,13,20,23,11,,,,,1.7,1.0,1.2*36##579
$GPGGA,185336,3824.4004,N,11047.5007,W,1,08,1.00,1368.29,M,-18.568,M,,*47##0
$GPRMC,185336,A,3824.4004,N,11047.5007,W,0.0000,0.000,030610,,*3D##0
$GPGSA,A,3,32,31,14,16,13,20,23,11,,,,,1.7,1.0,1.2*36##968
$GPGGA,185337,3824.4004,N,11047.5007,W,1,08,1.00,1368.29,M,-18.568,M,,*46##0
$GPRMC,185337,A,3824.4004,N,11047.5007,W,0.0000,0.000,030610,,*3C##1
$GPGSA,A,3,32,31,14,16,13,20,23,11,,,,,1.7,1.0,1.2*36##1339
$GPGSV,3,1,09,32,79,181,36,31,40,045,42,14,06,090,38,16,40,136,41*72##0
$GPGSV,3,2,09,13,14,285,30,04,03,324,17,20,65,288,18,23,37,297,26*79##0
$GPGSV,3,3,09,11,11,228,29*43##112
$GPGGA,185338,3824.4004,N,11047.5007,W,1,08,1.00,1368.29,M,-18.568,M,,*49##1
$GPRMC,185338,A,3824.4004,N,11047.5007,W,0.0000,0.000,030610,,*33##0
$GPGSA,A,3,32,31,14,16,13,20,23,11,,,,,1.7,1.0,1.2*36##579
$GPGGA,185339,3824.4004,N,11047.5007,W,1,08,1.00,1368.29,M,-18.568,M,,*48##4
