# NMEA GPS data followed by ## then the time in ms before next message was sent
$GPRMC,195108,A,3824.4249,N,11047.5056,W,0.1654,148.567,030610,,*33##2
$GPGSA,A,3,31,07,20,32,13,16,23,,,,,,1.6,1.0,1.2*35##1
$PGRME,0.00,M,0.00,M,6.18,M*11##475
$GPGGA,195109,3824.4249,N,11047.5056,W,1,07,1.00,1380.35,M,-18.568,M,,*43##1
$GPRMC,195109,A,3824.4249,N,11047.5056,W,0.0000,0.000,030610,,*3D##1
$GPGSA,A,3,31,07,20,32,13,16,23,,,,,,1.6,1.0,1.2*35##1
$PGRME,0.00,M,0.00,M,6.18,M*11##1029
$GPGGA,195110,3824.4249,N,11047.5056,W,1,07,1.00,1380.35,M,-18.568,M,,*4B##1
$GPRMC,195110,A,3824.4249,N,11047.5056,W,0.1904,0.000,030610,,*39##1
$GPGSA,A,3,31,07,20,32,13,16,23,,,,,,1.6,1.0,1.2*35##0
$PGRME,0.00,M,0.00,M,6.18,M*11##1407
$GPGGA,195111,3824.4249,N,11047.5056,W,1,07,1.00,1380.35,M,-18.568,M,,*4A##1
$GPRMC,195111,A,3824.4249,N,11047.5056,W,0.1654,148.567,030610,,*3B##1
$GPGSA,A,3,31,07,20,32,13,16,23,,,,,,1.6,1.0,1.2*35##0
$PGRME,0.00,M,0.00,M,6.18,M*11##599
$GPGGA,195112,3824.4245,N,11047.5054,W,1,07,1.00,1381.08,M,-18.568,M,,*48##2
$GPRMC,195112,A,3824.4245,N,11047.5054,W,0.1654,148.567,030610,,*36##0
$GPGSA,A,3,31,07,20,32,13,16,23,,,,,,1.6,1.0,1.2*35##1
$PGRME,0.00,M,0.00,M,6.18,M*11##1011
$GPGGA,195113,3824.4249,N,11047.5056,W,1,07,1.00,1380.35,M,-18.568,M,,*48##2
$GPRMC,195113,A,3824.4249,N,11047.5056,W,0.0000,0.000,030610,,*36##1
$GPGSA,A,3,31,07,20,32,13,16,23,,,,,,1.6,1.0,1.2*35##0
$PGRME,0.00,M,0.00,M,6.18,M*11##1450
$GPGGA,195114,3824.4249,N,11047.5056,W,1,07,1.00,1380.35,M,-18.568,M,,*4F##1
$GPRMC,195114,A,3824.4249,N,11047.5056,W,0.1654,148.567,030610,,*3E##1
$GPGSA,A,3,31,07,20,32,13,16,23,,,,,,1.6,1.0,1.2*35##0
$PGRME,0.00,M,0.00,M,6.18,M*11##501
$GPGGA,195115,3824.4244,N,11047.5056,W,1,07,1.00,1379.73,M,-18.568,M,,*47##2
$GPRMC,195115,A,3824.4244,N,11047.5056,W,0.5791,136.357,030610,,*32##0
$GPGSA,A,3,31,07,20,32,13,16,23,,,,,,1.6,1.0,1.2*35##0
$PGRME,0.00,M,0.00,M,6.18,M*11##1011
$GPGGA,195116,3824.4244,N,11047.5056,W,1,07,1.00,1379.73,M,-18.568,M,,*44##0
$GPRMC,195116,A,3824.4244,N,11047.5056,W,0.0000,0.000,030610,,*3E##1
$GPGSA,A,3,31,07,20,32,13,16,23,,,,,,1.6,1.0,1.2*35##0
$PGRME,0.00,M,0.00,M,6.18,M*11##1340
$GPGSV,3,1,09,06,04,130,28,07,11,246,26,31,18,054,29,32,51,172,22*7B##0
$GPGSV,3,2,09,23,57,321,32,20,63,219,29,16,56,097,32,13,32,304,19*72##0
$GPGSV,3,3,09,03,03,145,26*44##95
$GPGGA,195117,3824.4244,N,11047.5056,W,1,07,1.00,1379.73,M,-18.568,M,,*45##0
$GPRMC,195117,A,3824.4244,N,11047.5056,W,0.1904,180.000,030610,,*3A##1
$GPGSA,A,3,31,07,20,32,13,16,23,,,,,,1.6,1.0,1.2*35##544
$GPGGA,195118,3824.4244,N,11047.5056,W,1,07,1.00,1379.73,M,-18.568,M,,*4A##1
$GPRMC,195118,A,3824.4244,N,11047.5056,W,0.0000,0.000,030610,,*30##0
$GPGSA,A,3,31,07,20,32,13,16,23,,,,,,1.6,1.0,1.2*35##1062
$GPGGA,195119,3824.4244,N,11047.5056,W,1,07,1.00,1379.73,M,-18.568,M,,*4B##0
$GPRMC,195119,A,3824.4244,N,11047.5056,W,0.4189,131.568,030610,,*3D##1
$GPGSA,A,3,31,07,20,32,13,16,23,,,,,,1.6,1.0,1.2*35##1403
$GPGGA,195120,3824.4240,N,11047.5056,W,1,07,1.00,1379.11,M,-18.568,M,,*41##1
$GPRMC,195120,A,3824.4240,N,11047.5056,W,0.4189,131.568,030610,,*33##1
$GPGSA,A,3,31,07,20,32,13,16,23,,,,,,1.6,1.0,1.2*35##635
$GPGGA,195121,3824.4243,N,11047.5059,W,1,07,1.00,1378.38,M,-18.568,M,,*46##1
$GPRMC,195121,A,3824.4243,N,11047.5059,W,0.1904,180.000,030610,,*37##1
$GPGSA,A,3,31,07,20,32,13,16,23,,,,,,1.6,1.0,1.2*35##956
$GPGGA,195122,3824.4243,N,11047.5059,W,1,07,1.00,1378.38,M,-18.568,M,,*45##0
$GPRMC,195122,A,3824.4243,N,11047.5059,W,0.1904,180.000,030610,,*34##1
$GPGSA,A,3,31,07,20,32,13,16,23,,,,,,1.6,1.0,1.2*35##1406
$GPGGA,195123,3824.4243,N,11047.5059,W,1,07,1.00,1378.38,M,-18.568,M,,*44##0
$GPRMC,195123,A,3824.4243,N,11047.5059,W,0.0000,0.000,030610,,*30##1
$GPGSA,A,3,31,07,20,32,13,16,23,,,,,,1.6,1.0,1.2*35##627
$GPGGA,195124,3824.4239,N,11047.5059,W,1,07,1.00,1377.75,M,-18.568,M,,*48##2
$GPRMC,195124,A,3824.4239,N,11047.5059,W,0.1654,328.567,030610,,*31##0
$GPGSA,A,3,31,07,20,32,13,16,23,,,,,,1.6,1.0,1.2*35##971
$GPGGA,195125,3824.4242,N,11047.5061,W,1,07,1.00,1377.02,M,-18.568,M,,*4E##2
$GPRMC,195125,A,3824.4242,N,11047.5061,W,0.1654,328.567,030610,,*37##0
$GPGSA,A,3,31,07,20,32,13,16,23,,,,,,1.6,1.0,1.2*35##1399
$GPGGA,195126,3824.4242,N,11047.5061,W,1,07,1.00,1377.02,M,-18.568,M,,*4D##0
$GPRMC,195126,A,3824.4242,N,11047.5061,W,0.1654,328.567,030610,,*34##1
$GPGSA,A,3,31,07,20,32,13,16,23,,,,,,1.6,1.0,1.2*35##632
$GPGGA,195127,3824.4242,N,11047.5061,W,1,07,1.00,1377.02,M,-18.568,M,,*4C##0
$GPRMC,195127,A,3824.4242,N,11047.5061,W,0.1654,328.567,030610,,*35##1
$GPGSA,A,3,31,07,20,32,13,16,23,,,,,,1.6,1.0,1.2*35##869
$GPGGA,195128,3824.4245,N,11047.5064,W,1,07,1.00,1376.29,M,-18.568,M,,*49##1
$GPRMC,195128,A,3824.4245,N,11047.5064,W,0.1904,180.000,030610,,*36##0
$GPGSA,A,3,31,07,20,32,13,16,23,,,,,,1.6,1.0,1.2*35##1524
$GPGGA,195129,3824.4241,N,11047.5064,W,1,07,1.00,1375.67,M,-18.568,M,,*45##1
$GPRMC,195129,A,3824.4241,N,11047.5064,W,0.1904,180.000,030610,,*33##0
$GPGSA,A,3,31,07,20,32,13,16,23,,,,,,1.6,1.0,1.2*35##569
$GPGGA,195130,3824.4241,N,11047.5064,W,1,07,1.00,1375.67,M,-18.568,M,,*4D##0
$GPRMC,195130,A,3824.4241,N,11047.5064,W,0.1904,180.000,030610,,*3B##1
$GPGSA,A,3,31,07,20,32,13,16,23,,,,,,1.6,1.0,1.2*35##938
$GPGGA,195131,3824.4241,N,11047.5064,W,1,07,1.00,1375.67,M,-18.568,M,,*4C##0
$GPRMC,195131,A,3824.4241,N,11047.5064,W,0.4189,131.568,030610,,*33##0
$GPGSA,A,3,31,07,20,32,13,16,23,,,,,,1.6,1.0,1.2*35##1301
$GPGSV,3,1,09,06,04,130,23,07,11,246,26,31,18,054,28,32,51,172,24*77##1
$GPGSV,3,2,09,23,57,321,32,20,63,219,28,16,56,097,31,13,32,304,20*7A##0
$GPGSV,3,3,09,03,03,145,21*43##204
$GPGGA,195132,3824.4237,N,11047.5064,W,1,07,1.00,1375.05,M,-18.568,M,,*4A##3
$GPRMC,195132,A,3824.4237,N,11047.5064,W,0.4189,131.568,030610,,*31##1
$GPGSA,A,3,31,07,20,32,13,16,23,,,,,,1.6,1.0,1.2*35##600
$GPGGA,195133,3824.4240,N,11047.5066,W,1,07,1.00,1374.31,M,-18.568,M,,*4F##2
$GPRMC,195133,A,3824.4240,N,11047.5066,W,0.2652,121.061,030610,,*38##2
$GPGSA,A,3,31,07,20,32,13,16,23,,,,,,1.6,1.0,1.2*35##914
$GPGGA,195134,3824.4240,N,11047.5066,W,1,07,1.00,1374.31,M,-18.568,M,,*48##0
$GPRMC,195134,A,3824.4240,N,11047.5066,W,0.0000,0.000,030610,,*39##1
$GPGSA,A,3,31,07,20,32,13,16,23,,,,,,1.6,1.0,1.2*35##1479
$GPGGA,195135,3824.4240,N,11047.5066,W,1,07,1.00,1374.31,M,-18.568,M,,*49##1
$GPRMC,195135,A,3824.4240,N,11047.5066,W,0.4189,131.568,030610,,*34##1
$GPGSA,A,3,31,07,20,32,13,16,23,,,,,,1.6,1.0,1.2*35##488
$GPGGA,195136,3824.4236,N,11047.5066,W,1,07,1.00,1373.69,M,-18.568,M,,*41##1
$GPRMC,195136,A,3824.4236,N,11047.5066,W,0.4189,131.568,030610,,*36##1
$GPGSA,A,3,31,07,20,32,13,16,23,,,,,,1.6,1.0,1.2*35##1034
$GPGGA,195137,3824.4236,N,11047.5066,W,1,07,1.00,1373.69,M,-18.568,M,,*40##0
$GPRMC,195137,A,3824.4236,N,11047.5066,W,0.0000,0.000,030610,,*3B##2
$GPGSA,A,3,31,07,20,32,13,16,23,,,,,,1.6,1.0,1.2*35##1457
$GPGGA,195138,3824.4236,N,11047.5066,W,1,07,1.00,1373.69,M,-18.568,M,,*4F##0
$GPRMC,195138,A,3824.4236,N,11047.5066,W,0.3426,165.417,030610,,*37##1
$GPGSA,A,3,31,07,20,32,13,16,23,,,,,,1.6,1.0,1.2*35##519
$GPGGA,195139,3824.4236,N,11047.5066,W,1,07,1.00,1373.69,M,-18.568,M,,*4E##0
$GPRMC,195139,A,3824.4236,N,11047.5066,W,0.4189,131.568,030610,,*39##1
$GPGSA,A,3,31,07,20,32,13,16,23,,,,,,1.6,1.0,1.2*35##1005
$GPGGA,195140,3824.4232,N,11047.5066,W,1,07,1.00,1373.07,M,-18.568,M,,*4C##3
$GPRMC,195140,A,3824.4232,N,11047.5066,W,0.4189,131.568,030610,,*33##1
$GPGSA,A,3,31,07,20,32,13,16,23,,,,,,1.6,1.0,1.2*35##1468
$GPGGA,195141,3824.4232,N,11047.5066,W,1,07,1.00,1373.07,M,-18.568,M,,*4D##0
$GPRMC,195141,A,3824.4232,N,11047.5066,W,0.4189,131.568,030610,,*32##1
$GPGSA,A,3,31,07,20,32,13,16,23,,,,,,1.6,1.0,1.2*35##505
$GPGGA,195142,3824.4232,N,11047.5066,W,1,07,1.00,1373.07,M,-18.568,M,,*4E##0
$GPRMC,195142,A,3824.4232,N,11047.5066,W,0.3426,165.417,030610,,*3E##2
$GPGSA,A,3,31,07,20,32,13,16,23,,,,,,1.6,1.0,1.2*35##961
$GPGGA,195143,3824.4235,N,11047.5068,W,1,07,1.00,1372.34,M,-18.568,M,,*47##2
$GPRMC,195143,A,3824.4235,N,11047.5068,W,0.3254,105.605,030610,,*32##2
$GPGSA,A,3,31,07,20,32,13,16,23,,,,,,1.6,1.0,1.2*35##1518
$GPGGA,195144,3824.4235,N,11047.5068,W,1,07,1.00,1372.34,M,-18.568,M,,*40##0
$GPRMC,195144,A,3824.4235,N,11047.5068,W,0.1654,148.567,030610,,*3D##2
$GPGSA,A,3,31,07,20,32,13,16,23,,,,,,1.6,1.0,1.2*35##605
$GPGGA,195145,3824.4235,N,11047.5068,W,1,07,1.00,1372.34,M,-18.568,M,,*41##0
$GPRMC,195145,A,3824.4235,N,11047.5068,W,0.1654,148.567,030610,,*3C##1
$GPGSA,A,3,31,07,20,32,13,16,23,,,,,,1.6,1.0,1.2*35##897
$GPGGA,195146,3824.4232,N,11047.5066,W,1,07,1.00,1373.07,M,-18.568,M,,*4A##2
$GPRMC,195146,A,3824.4232,N,11047.5066,W,0.3254,105.605,030610,,*3E##2
$GPGSA,A,3,31,07,20,32,13,16,23,,,,,,1.6,1.0,1.2*35##1314
$GPGSV,3,1,09,06,04,130,26,07,11,246,26,31,18,054,29,32,51,172,27*70##1
$GPGSV,3,2,09,23,57,321,32,20,63,219,28,16,56,097,32,13,32,304,12*78##0
$GPGSV,3,3,09,03,03,145,25*47##184
$GPGGA,195147,3824.4232,N,11047.5066,W,1,07,1.00,1373.07,M,-18.568,M,,*4B##0
$GPRMC,195147,A,3824.4232,N,11047.5066,W,0.1654,148.567,030610,,*37##2
$GPGSA,A,3,31,07,20,32,13,16,23,,,,,,1.6,1.0,1.2*35##528
$GPGGA,195148,3824.4232,N,11047.5066,W,1,06,1.20,1373.07,M,-18.568,M,,*47##1
$GPRMC,195148,A,3824.4232,N,11047.5066,W,0.1654,148.567,030610,,*38##1
$GPGSA,A,3,31,07,20,32,16,23,,,,,,,1.6,1.2,1.2*35##1023
$GPGGA,195149,3824.4232,N,11047.5066,W,1,07,1.00,1373.07,M,-18.568,M,,*45##1
$GPRMC,195149,A,3824.4232,N,11047.5066,W,0.1654,148.567,030610,,*39##1
$GPGSA,A,3,31,07,20,32,13,16,23,,,,,,1.6,1.0,1.2*35##1492
$GPGGA,195150,3824.4232,N,11047.5066,W,1,07,1.00,1373.07,M,-18.568,M,,*4D##0
$GPRMC,195150,A,3824.4232,N,11047.5066,W,0.4604,119.775,030610,,*34##1
$GPGSA,A,3,31,07,20,32,13,16,23,,,,,,1.6,1.0,1.2*35##553
$GPGGA,195151,3824.4232,N,11047.5066,W,1,07,1.00,1373.07,M,-18.568,M,,*4C##1
$GPRMC,195151,A,3824.4232,N,11047.5066,W,0.5791,136.357,030610,,*30##1
$GPGSA,A,3,31,07,20,32,13,16,23,,,,,,1.6,1.0,1.2*35##865
$GPGGA,195152,3824.4232,N,11047.5066,W,1,07,1.00,1373.07,M,-18.568,M,,*4F##1
$GPRMC,195152,A,3824.4232,N,11047.5066,W,0.1654,148.567,030610,,*33##1
$GPGSA,A,3,31,07,20,32,13,16,23,,,,,,1.6,1.0,1.2*35##1502
$GPGGA,195153,3824.4232,N,11047.5066,W,1,07,1.00,1373.07,M,-18.568,M,,*4E##1
$GPRMC,195153,A,3824.4232,N,11047.5066,W,0.1904,0.000,030610,,*31##1
$GPGSA,A,3,31,07,20,32,13,16,23,,,,,,1.6,1.0,1.2*35##576
$GPGGA,195154,3824.4236,N,11047.5066,W,1,07,1.00,1373.69,M,-18.568,M,,*45##2
$GPRMC,195154,A,3824.4236,N,11047.5066,W,0.1904,0.000,030610,,*32##1
$GPGSA,A,3,31,07,20,32,13,16,23,,,,,,1.6,1.0,1.2*35##951
$GPGGA,195155,3824.4236,N,11047.5066,W,1,07,1.00,1373.69,M,-18.568,M,,*44##0
$GPRMC,195155,A,3824.4236,N,11047.5066,W,0.1904,0.000,030610,,*33##1
$GPGSA,A,3,31,07,20,32,13,16,23,,,,,,1.6,1.0,1.2*35##1468
$GPGGA,195156,3824.4236,N,11047.5066,W,1,07,1.00,1373.69,M,-18.568,M,,*47##1
$GPRMC,195156,A,3824.4236,N,11047.5066,W,0.0993,60.257,030610,,*09##1
$GPGSA,A,3,31,07,20,32,13,16,23,,,,,,1.6,1.0,1.2*35##613
$GPGGA,195157,3824.4236,N,11047.5066,W,1,07,1.00,1373.69,M,-18.568,M,,*46##0
$GPRMC,195157,A,3824.4236,N,11047.5066,W,0.1654,148.567,030610,,*32##2
$GPGSA,A,3,31,07,20,32,13,16,23,,,,,,1.6,1.0,1.2*35##920
$GPGGA,195158,3824.4236,N,11047.5066,W,1,07,1.00,1373.69,M,-18.568,M,,*49##1
$GPRMC,195158,A,3824.4236,N,11047.5066,W,0.1654,148.567,030610,,*3D##1
$GPGSA,A,3,31,07,20,32,13,16,23,,,,,,1.6,1.0,1.2*35##1435
$GPGGA,195159,3824.4240,N,11047.5066,W,1,07,1.00,1374.31,M,-18.568,M,,*43##2
$GPRMC,195159,A,3824.4240,N,11047.5066,W,0.1654,148.567,030610,,*3D##1
$GPGSA,A,3,31,07,20,32,13,16,23,,,,,,1.6,1.0,1.2*35##579
$GPGGA,195200,3824.4240,N,11047.5066,W,1,07,1.00,1374.31,M,-18.568,M,,*4C##0
$GPRMC,195200,A,3824.4240,N,11047.5066,W,0.1654,148.567,030610,,*32##1
$GPGSA,A,3,31,07,20,32,13,16,23,,,,,,1.6,1.0,1.2*35##1002
$GPGGA,195201,3824.4240,N,11047.5066,W,1,07,1.00,1374.31,M,-18.568,M,,*4D##1
$GPRMC,195201,A,3824.4240,N,11047.5066,W,0.1654,148.567,030610,,*33##1
$GPGSA,A,3,31,07,20,32,13,16,23,,,,,,1.6,1.0,1.2*35##1364
$GPGSV,3,1,09,06,04,130,28,07,11,246,26,31,18,054,30,32,51,172,27*76##0
$GPGSV,3,2,09,23,57,321,32,20,63,219,29,16,56,097,32,13,32,304,25*7D##1
$GPGSV,3,3,09,03,03,145,29*4B##70
$GPGGA,195202,3824.4240,N,11047.5066,W,1,07,1.00,1374.31,M,-18.568,M,,*4E##1
$GPRMC,195202,A,3824.4240,N,11047.5066,W,0.1654,148.567,030610,,*30##0
$GPGSA,A,3,31,07,20,32,13,16,23,,,,,,1.6,1.0,1.2*35##602
$GPGGA,195203,3824.4240,N,11047.5066,W,1,07,1.00,1374.31,M,-18.568,M,,*4F##0
$GPRMC,195203,A,3824.4240,N,11047.5066,W,0.1654,148.567,030610,,*31##1
$GPGSA,A,3,31,07,20,32,13,16,23,,,,,,1.6,1.0,1.2*35##968
$GPGGA,195204,3824.4240,N,11047.5066,W,1,07,1.00,1374.31,M,-18.568,M,,*48##0
$GPRMC,195204,A,3824.4240,N,11047.5066,W,0.1654,148.567,030610,,*36##1
$GPGSA,A,3,31,07,20,32,13,16,23,,,,,,1.6,1.0,1.2*35##1437
$GPGGA,195205,3824.4241,N,11047.5064,W,1,07,1.00,1375.67,M,-18.568,M,,*48##2
$GPRMC,195205,A,3824.4241,N,11047.5064,W,0.1654,148.567,030610,,*34##1
$GPGSA,A,3,31,07,20,32,13,16,23,,,,,,1.6,1.0,1.2*35##622
$GPGGA,195206,3824.4241,N,11047.5064,W,1,07,1.00,1375.67,M,-18.568,M,,*4B##0
$GPRMC,195206,A,3824.4241,N,11047.5064,W,0.1654,148.567,030610,,*37##1
$GPGSA,A,3,31,07,20,32,13,16,23,,,,,,1.6,1.0,1.2*35##908
$GPGGA,195207,3824.4241,N,11047.5064,W,1,07,1.00,1375.67,M,-18.568,M,,*4A##0
$GPRMC,195207,A,3824.4241,N,11047.5064,W,0.1654,148.567,030610,,*36##1
$GPGSA,A,3,31,07,20,32,13,16,23,,,,,,1.6,1.0,1.2*35##1402
$GPGGA,195208,3824.4244,N,11047.5066,W,1,07,1.00,1374.93,M,-18.568,M,,*48##2
$GPRMC,195208,A,3824.4244,N,11047.5066,W,0.0000,0.000,030610,,*31##2
$GPGSA,A,3,31,07,20,32,13,16,23,,,,,,1.6,1.0,1.2*35##624
$GPGGA,195209,3824.4244,N,11047.5066,W,1,07,1.00,1374.93,M,-18.568,M,,*49##0
$GPRMC,195209,A,3824.4244,N,11047.5066,W,0.0000,0.000,030610,,*30##1
$GPGSA,A,3,31,07,20,32,13,16,23,,,,,,1.6,1.0,1.2*35##951
$GPGGA,195210,3824.4244,N,11047.5066,W,1,07,1.00,1374.93,M,-18.568,M,,*41##0
$GPRMC,195210,A,3824.4244,N,11047.5066,W,0.0000,0.000,030610,,*38##0
$GPGSA,A,3,31,07,20,32,13,16,23,,,,,,1.6,1.0,1.2*35##1514
$GPGGA,195211,3824.4240,N,11047.5066,W,1,07,1.00,1374.31,M,-18.568,M,,*4C##2
$GPRMC,195211,A,3824.4240,N,11047.5066,W,0.0000,0.000,030610,,*3D##0
$GPGSA,A,3,31,07,20,32,13,16,23,,,,,,1.6,1.0,1.2*35##495
$GPGGA,195212,3824.4240,N,11047.5066,W,1,07,1.00,1374.31,M,-18.568,M,,*4F##1
$GPRMC,195212,A,3824.4240,N,11047.5066,W,0.1654,148.567,030610,,*31##0
$GPGSA,A,3,31,07,20,32,13,16,23,,,,,,1.6,1.0,1.2*35##1050
$GPGGA,195213,3824.4240,N,11047.5066,W,1,07,1.00,1374.31,M,-18.568,M,,*4E##0
$GPRMC,195213,A,3824.4240,N,11047.5066,W,0.1654,148.567,030610,,*30##1
$GPGSA,A,3,31,07,20,32,13,16,23,,,,,,1.6,1.0,1.2*35##1375
$GPGGA,195214,3824.4240,N,11047.5066,W,1,07,1.00,1374.31,M,-18.568,M,,*49##0
$GPRMC,195214,A,3824.4240,N,11047.5066,W,0.1654,148.567,030610,,*37##1
$GPGSA,A,3,31,07,20,32,13,16,23,,,,,,1.6,1.0,1.2*35##626
$GPGGA,195215,3824.4240,N,11047.5066,W,1,07,1.00,1374.31,M,-18.568,M,,*48##0
$GPRMC,195215,A,3824.4240,N,11047.5066,W,0.1654,148.567,030610,,*36##1
$GPGSA,A,3,31,07,20,32,13,16,23,,,,,,1.6,1.0,1.2*35##993
$GPGGA,195216,3824.4240,N,11047.5066,W,1,07,1.00,1374.31,M,-18.568,M,,*4B##0
$GPRMC,195216,A,3824.4240,N,11047.5066,W,0.1654,148.567,030610,,*35##1
$GPGSA,A,3,31,07,20,32,13,16,23,,,,,,1.6,1.0,1.2*35##1290
$GPGSV,3,1,09,06,04,130,29,07,11,246,26,31,18,054,30,32,51,172,31*70##0
$GPGSV,3,2,09,23,57,321,33,20,63,219,30,16,56,097,33,13,32,304,25*75##1
$GPGSV,3,3,09,03,03,145,26*44##152
$GPGGA,195217,3824.4240,N,11047.5066,W,1,07,1.00,1374.31,M,-18.568,M,,*4A##0
$GPRMC,195217,A,3824.4240,N,11047.5066,W,0.1654,148.567,030610,,*34##1
$GPGSA,A,3,31,07,20,32,13,16,23,,,,,,1.6,1.0,1.2*35##540
$GPGGA,195218,3824.4240,N,11047.5066,W,1,07,1.00,1374.31,M,-18.568,M,,*45##0
$GPRMC,195218,A,3824.4240,N,11047.5066,W,0.1654,148.567,030610,,*3B##1
$GPGSA,A,3,31,07,20,32,13,16,23,,,,,,1.6,1.0,1.2*35##1033
$GPGGA,195219,3824.4240,N,11047.5066,W,1,07,1.00,1374.31,M,-18.568,M,,*44##1
$GPRMC,195219,A,3824.4240,N,11047.5066,W,0.1654,148.567,030610,,*3A##0
$GPGSA,A,3,31,07,20,32,13,16,23,,,,,,1.6,1.0,1.2*35##1435
$GPGGA,195220,3824.4244,N,11047.5066,W,1,07,1.00,1374.93,M,-18.568,M,,*42##2
$GPRMC,195220,A,3824.4244,N,11047.5066,W,0.1654,148.567,030610,,*34##1
$GPGSA,A,3,31,07,20,32,13,16,23,,,,,,1.6,1.0,1.2*35##493
$GPGGA,195221,3824.4244,N,11047.5066,W,1,07,1.00,1374.93,M,-18.568,M,,*43##0
$GPRMC,195221,A,3824.4244,N,11047.5066,W,0.1654,148.567,030610,,*35##0
$GPGSA,A,3,31,07,20,32,13,16,23,,,,,,1.6,1.0,1.2*35##1026
$GPGGA,195222,3824.4241,N,11047.5064,W,1,07,1.00,1375.67,M,-18.568,M,,*4D##8
$GPRMC,195222,A,3824.4241,N,11047.5064,W,0.1654,148.567,030610,,*31##1
$GPGSA,A,3,31,07,20,32,13,16,23,,,,,,1.6,1.0,1.2*35##1464
$GPGGA,195223,3824.4241,N,11047.5064,W,1,07,1.00,1375.67,M,-18.568,M,,*4C##0
$GPRMC,195223,A,3824.4241,N,11047.5064,W,0.1904,0.000,030610,,*33##1
$GPGSA,A,3,31,07,20,32,13,16,23,,,,,,1.6,1.0,1.2*35##528
$GPGGA,195224,3824.4240,N,11047.5070,W,1,07,1.00,1375.95,M,-18.568,M,,*42##1
$GPRMC,195224,A,3824.4240,N,11047.5070,W,0.0993,60.257,030610,,*09##2
$GPGSA,A,3,31,07,20,32,13,16,23,,,,,,1.6,1.0,1.2*35##963
$GPGGA,195225,3824.4241,N,11047.5064,W,1,07,1.00,1375.67,M,-18.568,M,,*4A##2
$GPRMC,195225,A,3824.4241,N,11047.5064,W,0.1654,148.567,030610,,*36##1
$GPGSA,A,3,31,07,20,32,13,16,23,,,,,,1.6,1.0,1.2*35##1467
$GPGGA,195226,3824.4241,N,11047.5064,W,1,07,1.00,1375.67,M,-18.568,M,,*49##1
$GPRMC,195226,A,3824.4241,N,11047.5064,W,0.1654,148.567,030610,,*35##0
$GPGSA,A,3,31,07,20,32,13,16,23,,,,,,1.6,1.0,1.2*35##577
$GPGGA,195227,3824.4240,N,11047.5070,W,1,07,1.00,1375.95,M,-18.568,M,,*41##2
$GPRMC,195227,A,3824.4240,N,11047.5070,W,0.1654,148.567,030610,,*30##1
$GPGSA,A,3,31,07,20,32,13,16,23,,,,,,1.6,1.0,1.2*35##975
$GPGGA,195228,3824.4241,N,11047.5064,W,1,07,1.00,1375.67,M,-18.568,M,,*47##2
$GPRMC,195228,A,3824.4241,N,11047.5064,W,0.1654,148.567,030610,,*3B##0
$GPGSA,A,3,31,07,20,32,13,16,23,,,,,,1.6,1.0,1.2*35##1395
$GPGGA,195229,3824.4241,N,11047.5064,W,1,07,1.00,1375.67,M,-18.568,M,,*46##0
$GPRMC,195229,A,3824.4241,N,11047.5064,W,0.4604,119.775,030610,,*3F##1
$GPGSA,A,3,31,07,20,32,13,16,23,,,,,,1.6,1.0,1.2*35##651
$GPGGA,195230,3824.4245,N,11047.5064,W,1,07,1.00,1376.29,M,-18.568,M,,*43##2
$GPRMC,195230,A,3824.4245,N,11047.5064,W,0.3308,148.567,030610,,*38##1
$GPGSA,A,3,31,07,20,32,13,16,23,,,,,,1.6,1.0,1.2*35##951
$GPGGA,195231,3824.4242,N,11047.5061,W,1,07,1.00,1377.02,M,-18.568,M,,*48##2
$GPRMC,195231,A,3824.4242,N,11047.5061,W,0.1654,148.567,030610,,*35##1
$GPGSA,A,3,31,07,20,32,13,16,23,,,,,,1.6,1.0,1.2*35##1336
$GPGSV,3,1,09,06,04,130,29,07,11,246,26,31,18,054,30,32,51,172,31*70##0
$GPGSV,3,2,09,23,57,321,33,20,63,219,30,16,56,097,32,13,32,304,18*7A##0
$GPGSV,3,3,09,03,03,145,26*44##109
$GPGGA,195232,3824.4242,N,11047.5061,W,1,07,1.00,1377.02,M,-18.568,M,,*4B##1
$GPRMC,195232,A,3824.4242,N,11047.5061,W,0.0993,60.257,030610,,*0C##1
$GPGSA,A,3,31,07,20,32,13,16,23,,,,,,1.6,1.0,1.2*35##622
$GPGGA,195233,3824.4242,N,11047.5061,W,1,07,1.00,1377.02,M,-18.568,M,,*4A##1
$GPRMC,195233,A,3824.4242,N,11047.5061,W,0.2652,301.061,030610,,*3E##1
$GPGSA,A,3,31,07,20,32,13,16,23,,,,,,1.6,1.0,1.2*35##893
$GPGGA,195234,3824.4241,N,11047.5068,W,1,07,1.00,1377.30,M,-18.568,M,,*46##2
$GPRMC,195234,A,3824.4241,N,11047.5068,W,0.2652,301.061,030610,,*33##0
$GPGSA,A,3,31,07,20,32,13,16,23,,,,,,1.6,1.0,1.2*35##1480
$GPGGA,195235,3824.4241,N,11047.5068,W,1,07,1.00,1377.30,M,-18.568,M,,*47##1
$GPRMC,195235,A,3824.4241,N,11047.5068,W,0.2652,301.061,030610,,*32##0
$GPGSA,A,3,31,07,20,32,13,16,23,,,,,,1.6,1.0,1.2*35##577
$GPGGA,195236,3824.4245,N,11047.5068,W,1,07,1.00,1377.92,M,-18.568,M,,*48##2
$GPRMC,195236,A,3824.4245,N,11047.5068,W,0.1654,148.567,030610,,*3C##1
$GPGSA,A,3,31,07,20,32,13,16,23,,,,,,1.6,1.0,1.2*35##940
$GPGGA,195237,3824.4245,N,11047.5068,W,1,07,1.00,1377.92,M,-18.568,M,,*49##0
$GPRMC,195237,A,3824.4245,N,11047.5068,W,0.1654,148.567,030610,,*3D##1
$GPGSA,A,3,31,07,20,32,13,16,23,,,,,,1.6,1.0,1.2*35##1510
$GPGGA,195238,3824.4245,N,11047.5068,W,1,07,1.00,1377.92,M,-18.568,M,,*46##0
$GPRMC,195238,A,3824.4245,N,11047.5068,W,0.1654,148.567,030610,,*32##1
$GPGSA,A,3,31,07,20,32,13,16,23,,,,,,1.6,1.0,1.2*35##523
$GPGGA,195239,3824.4245,N,11047.5068,W,1,07,1.00,1377.92,M,-18.568,M,,*47##0
$GPRMC,195239,A,3824.4245,N,11047.5068,W,0.1654,148.567,030610,,*33##1
$GPGSA,A,3,31,07,20,32,13,16,23,,,,,,1.6,1.0,1.2*35##1025
$GPGGA,195240,3824.4245,N,11047.5068,W,1,07,1.00,1377.92,M,-18.568,M,,*49##0
$GPRMC,195240,A,3824.4245,N,11047.5068,W,0.1654,148.567,030610,,*3D##0
$GPGSA,A,3,31,07,20,32,13,16,23,,,,,,1.6,1.0,1.2*35##1511
$GPGGA,195241,3824.4245,N,11047.5068,W,1,07,1.00,1377.92,M,-18.568,M,,*48##0
$GPRMC,195241,A,3824.4245,N,11047.5068,W,0.1654,148.567,030610,,*3C##1
$GPGSA,A,3,31,07,20,32,13,16,23,,,,,,1.6,1.0,1.2*35##549
$GPGGA,195242,3824.4245,N,11047.5068,W,1,07,1.00,1377.92,M,-18.568,M,,*4B##0
$GPRMC,195242,A,3824.4245,N,11047.5068,W,0.1654,148.567,030610,,*3F##0
$GPGSA,A,3,31,07,20,32,13,16,23,,,,,,1.6,1.0,1.2*35##894
$GPGGA,195243,3824.4245,N,11047.5068,W,1,07,1.00,1377.92,M,-18.568,M,,*4A##0
$GPRMC,195243,A,3824.4245,N,11047.5068,W,0.1654,148.567,030610,,*3E##1
$GPGSA,A,3,31,07,20,32,13,16,23,,,,,,1.6,1.0,1.2*35##1506
$GPGGA,195244,3824.4249,N,11047.5068,W,1,07,1.00,1378.54,M,-18.568,M,,*44##2
$GPRMC,195244,A,3824.4249,N,11047.5068,W,0.1654,148.567,030610,,*35##1
$GPGSA,A,3,31,07,20,32,13,16,23,,,,,,1.6,1.0,1.2*35##504
$GPGGA,195245,3824.4246,N,11047.5065,W,1,07,1.00,1379.27,M,-18.568,M,,*42##2
$GPRMC,195245,A,3824.4246,N,11047.5065,W,0.1654,148.567,030610,,*36##0
$GPGSA,A,3,31,07,20,32,13,16,23,,,,,,1.6,1.0,1.2*35##1037
$GPGGA,195246,3824.4246,N,11047.5065,W,1,07,1.00,1379.27,M,-18.568,M,,*41##0
$GPRMC,195246,A,3824.4246,N,11047.5065,W,0.1654,148.567,030610,,*35##1
$GPGSA,A,3,31,07,20,32,13,16,23,,,,,,1.6,1.0,1.2*35##1257
$GPGSV,3,1,09,06,04,130,28,07,11,246,24,31,18,054,29,32,51,172,30*7A##1
$GPGSV,3,2,09,23,57,321,32,20,63,219,29,16,56,097,31,13,32,304,25*7E##0
$GPGSV,3,3,09,03,03,145,26*44##177
$GPGGA,195247,3824.4246,N,11047.5065,W,1,07,1.00,1379.27,M,-18.568,M,,*40##1
$GPRMC,195247,A,3824.4246,N,11047.5065,W,0.1654,148.567,030610,,*34##0
$GPGSA,A,3,31,07,20,32,13,16,23,,,,,,1.6,1.0,1.2*35##583
$GPGGA,195248,3824.4246,N,11047.5065,W,1,07,1.00,1379.27,M,-18.568,M,,*4F##1
$GPRMC,195248,A,3824.4246,N,11047.5065,W,0.3299,71.829,030610,,*00##1
$GPGSA,A,3,31,07,20,32,13,16,23,,,,,,1.6,1.0,1.2*35##933
$GPGGA,195249,3824.4246,N,11047.5065,W,1,07,1.00,1379.27,M,-18.568,M,,*4E##0
$GPRMC,195249,A,3824.4246,N,11047.5065,W,0.1654,148.567,030610,,*3A##1
$GPGSA,A,3,31,07,20,32,13,16,23,,,,,,1.6,1.0,1.2*35##1411
$GPGGA,195250,3824.4246,N,11047.5065,W,1,07,1.00,1379.27,M,-18.568,M,,*46##1
$GPRMC,195250,A,3824.4246,N,11047.5065,W,0.1654,148.567,030610,,*32##0
$GPGSA,A,3,31,07,20,32,13,16,23,,,,,,1.6,1.0,1.2*35##654
$GPGGA,195251,3824.4246,N,11047.5065,W,1,07,1.00,1379.27,M,-18.568,M,,*47##0
$GPRMC,195251,A,3824.4246,N,11047.5065,W,0.1654,148.567,030610,,*33##0
$GPGSA,A,3,31,07,20,32,13,16,23,,,,,,1.6,1.0,1.2*35##895
$GPGGA,195252,3824.4251,N,11047.5065,W,1,07,1.00,1379.90,M,-18.568,M,,*4E##1
$GPRMC,195252,A,3824.4251,N,11047.5065,W,0.1654,148.567,030610,,*36##1
$GPGSA,A,3,31,07,20,32,13,16,23,,,,,,1.6,1.0,1.2*35##1569
$GPGGA,195253,3824.4247,N,11047.5063,W,1,07,1.00,1380.63,M,-18.568,M,,*44##2
$GPRMC,195253,A,3824.4247,N,11047.5063,W,0.1654,148.567,030610,,*36##0
$GPGSA,A,3,31,07,20,32,13,16,23,,,,,,1.6,1.0,1.2*35##435
$GPGGA,195254,3824.4247,N,11047.5063,W,1,07,1.00,1380.63,M,-18.568,M,,*43##0
$GPRMC,195254,A,3824.4247,N,11047.5063,W,0.1654,148.567,030610,,*31##1
$GPGSA,A,3,31,07,20,32,13,16,23,,,,,,1.6,1.0,1.2*35##1038
$GPGGA,195255,3824.4247,N,11047.5063,W,1,07,1.00,1380.63,M,-18.568,M,,*42##0
$GPRMC,195255,A,3824.4247,N,11047.5063,W,0.1654,148.567,030610,,*30##1
$GPGSA,A,3,31,07,20,32,13,16,23,,,,,,1.6,1.0,1.2*35##1464
$GPGGA,195256,3824.4247,N,11047.5063,W,1,07,1.00,1380.63,M,-18.568,M,,*41##0
$GPRMC,195256,A,3824.4247,N,11047.5063,W,0.1654,148.567,030610,,*33##1
$GPGSA,A,3,31,07,20,32,13,16,23,,,,,,1.6,1.0,1.2*35##569
$GPGGA,195257,3824.4249,N,11047.5056,W,1,07,1.00,1380.35,M,-18.568,M,,*4B##1
$GPRMC,195257,A,3824.4249,N,11047.5056,W,0.3299,71.829,030610,,*01##2
$GPGSA,A,3,31,07,20,32,13,16,23,,,,,,1.6,1.0,1.2*35##994
$GPGGA,195258,3824.4244,N,11047.5060,W,1,07,1.00,1381.36,M,-18.568,M,,*4E##1
$GPRMC,195258,A,3824.4244,N,11047.5060,W,0.1654,148.567,030610,,*3D##1
$GPGSA,A,3,31,07,20,32,13,16,23,,,,,,1.6,1.0,1.2*35##1451
$GPGGA,195259,3824.4245,N,11047.5054,W,1,07,1.00,1381.08,M,-18.568,M,,*44##1
$GPRMC,195259,A,3824.4245,N,11047.5054,W,0.0993,60.257,030610,,*00##2
$GPGSA,A,3,31,07,20,32,13,16,23,,,,,,1.6,1.0,1.2*35##468
$GPGGA,195300,3824.4244,N,11047.5060,W,1,07,1.00,1381.36,M,-18.568,M,,*42##2
$GPRMC,195300,A,3824.4244,N,11047.5060,W,0.1654,148.567,030610,,*31##1
$GPGSA,A,3,31,07,20,32,13,16,23,,,,,,1.6,1.0,1.2*35##1050
$GPGGA,195301,3824.4249,N,11047.5060,W,1,07,1.00,1381.98,M,-18.568,M,,*4A##2
$GPRMC,195301,A,3824.4249,N,11047.5060,W,0.1654,148.567,030610,,*3D##0
$GPGSA,A,3,31,07,20,32,13,16,23,,,,,,1.6,1.0,1.2*35##1305
$GPGSV,3,1,09,06,04,130,27,07,11,246,24,31,18,054,28,32,51,172,26*73##0
$GPGSV,3,2,09,23,57,321,32,20,63,219,28,16,56,097,31,13,32,304,25*7F##0
$GPGSV,3,3,09,03,03,145,27*45##185
$GPGGA,195302,3824.4249,N,11047.5060,W,1,07,1.00,1381.98,M,-18.568,M,,*49##0
$GPRMC,195302,A,3824.4249,N,11047.5060,W,0.1654,148.567,030610,,*3E##0
$GPGSA,A,3,31,07,20,32,13,16,23,,,,,,1.6,1.0,1.2*35##483
$GPGGA,195303,3824.4249,N,11047.5060,W,1,07,1.00,1381.98,M,-18.568,M,,*48##0
$GPRMC,195303,A,3824.4249,N,11047.5060,W,0.0000,0.000,030610,,*30##1
$GPGSA,A,3,31,07,20,32,13,16,23,,,,,,1.6,1.0,1.2*35##1075
$GPGGA,195304,3824.4249,N,11047.5060,W,1,07,1.00,1381.98,M,-18.568,M,,*4F##0
$GPRMC,195304,A,3824.4249,N,11047.5060,W,0.3254,105.605,030610,,*30##1
$GPGSA,A,3,31,07,20,32,13,16,23,,,,,,1.6,1.0,1.2*35##1333
$GPGGA,195305,3824.4249,N,11047.5060,W,1,07,1.00,1381.98,M,-18.568,M,,*4E##0
$GPRMC,195305,A,3824.4249,N,11047.5060,W,0.1654,148.567,030610,,*39##1
$GPGSA,A,3,31,07,20,32,13,16,23,,,,,,1.6,1.0,1.2*35##643
$GPGGA,195306,3824.4249,N,11047.5060,W,1,07,1.00,1381.98,M,-18.568,M,,*4D##0
$GPRMC,195306,A,3824.4249,N,11047.5060,W,0.1654,148.567,030610,,*3A##1
$GPGSA,A,3,31,07,20,32,13,16,23,,,,,,1.6,1.0,1.2*35##910
$GPGGA,195307,3824.4249,N,11047.5060,W,1,07,1.00,1381.98,M,-18.568,M,,*4C##0
$GPRMC,195307,A,3824.4249,N,11047.5060,W,0.1654,148.567,030610,,*3B##0
$GPGSA,A,3,31,07,20,32,13,16,23,,,,,,1.6,1.0,1.2*35##1460
$GPGGA,195308,3824.4249,N,11047.5060,W,1,07,1.00,1381.98,M,-18.568,M,,*43##0
$GPRMC,195308,A,3824.4249,N,11047.5060,W,0.1654,148.567,030610,,*34##0
$GPGSA,A,3,31,07,20,32,13,16,23,,,,,,1.6,1.0,1.2*35##627
$GPGGA,195309,3824.4253,N,11047.5060,W,1,07,1.00,1382.60,M,-18.568,M,,*4D##3
$GPRMC,195309,A,3824.4253,N,11047.5060,W,0.1654,148.567,030610,,*3E##0
$GPGSA,A,3,31,07,20,32,13,16,23,,,,,,1.6,1.0,1.2*35##928
$GPGGA,195310,3824.4253,N,11047.5060,W,1,07,1.00,1382.60,M,-18.568,M,,*45##0
$GPRMC,195310,A,3824.4253,N,11047.5060,W,0.0000,0.000,030610,,*39##1
$GPGSA,A,3,31,07,20,32,13,16,23,,,,,,1.6,1.0,1.2*35##1480
$GPGGA,195311,3824.4253,N,11047.5060,W,1,07,1.00,1382.60,M,-18.568,M,,*44##0
$GPRMC,195311,A,3824.4253,N,11047.5060,W,0.1904,0.000,030610,,*34##1
$GPGSA,A,3,31,07,20,32,13,16,23,,,,,,1.6,1.0,1.2*35##604
$GPGGA,195312,3824.4253,N,11047.5060,W,1,07,1.00,1382.60,M,-18.568,M,,*47##0
$GPRMC,195312,A,3824.4253,N,11047.5060,W,0.1904,0.000,030610,,*37##1
$GPGSA,A,3,31,07,20,32,13,16,23,,,,,,1.6,1.0,1.2*35##914
$GPGGA,195313,3824.4253,N,11047.5060,W,1,07,1.00,1382.60,M,-18.568,M,,*46##0
$GPRMC,195313,A,3824.4253,N,11047.5060,W,0.0000,0.000,030610,,*3A##1
$GPGSA,A,3,31,07,20,32,13,16,23,,,,,,1.6,1.0,1.2*35##1484
$GPGGA,195314,3824.4250,N,11047.5058,W,1,07,1.00,1383.34,M,-18.568,M,,*49##2
$GPRMC,195314,A,3824.4250,N,11047.5058,W,0.1654,148.567,030610,,*3A##1
$GPGSA,A,3,31,07,20,32,13,16,23,,,,,,1.6,1.0,1.2*35##630
$GPGGA,195315,3824.4250,N,11047.5058,W,1,07,1.00,1383.34,M,-18.568,M,,*48##0
$GPRMC,195315,A,3824.4250,N,11047.5058,W,0.4189,131.568,030610,,*38##1
$GPGSA,A,3,31,07,20,32,13,16,23,,,,,,1.6,1.0,1.2*35##882
$GPGGA,195316,3824.4251,N,11047.5051,W,1,07,1.00,1383.06,M,-18.568,M,,*42##2
$GPRMC,195316,A,3824.4251,N,11047.5051,W,0.4189,131.568,030610,,*33##0
$GPGSA,A,3,31,07,20,32,13,16,23,,,,,,1.6,1.0,1.2*35##1375
$GPGSV,3,1,09,06,04,130,27,07,11,246,25,31,18,054,28,32,51,172,28*7C##0
$GPGSV,3,2,09,23,57,321,31,20,63,219,27,16,56,097,31,13,32,304,14*71##0
$GPGSV,3,3,09,03,03,145,28*4A##46
$GPGGA,195317,3824.4251,N,11047.5051,W,1,07,1.00,1383.06,M,-18.568,M,,*43##1
$GPRMC,195317,A,3824.4251,N,11047.5051,W,0.5791,136.357,030610,,*31##1
$GPGSA,A,3,31,07,20,32,13,16,23,,,,,,1.6,1.0,1.2*35##604
$GPGGA,195318,3824.4251,N,11047.5051,W,1,07,1.00,1383.06,M,-18.568,M,,*4C##0
$GPRMC,195318,A,3824.4251,N,11047.5051,W,0.4189,131.568,030610,,*3D##1
$GPGSA,A,3,31,07,20,32,13,16,23,,,,,,1.6,1.0,1.2*35##980
$GPGGA,195319,3824.4251,N,11047.5051,W,1,07,1.00,1383.06,M,-18.568,M,,*4D##0
$GPRMC,195319,A,3824.4251,N,11047.5051,W,0.4189,131.568,030610,,*3C##1
$GPGSA,A,3,31,07,20,32,13,16,23,,,,,,1.6,1.0,1.2*35##1486
$GPGGA,195320,3824.4251,N,11047.5051,W,1,07,1.00,1383.06,M,-18.568,M,,*47##0
$GPRMC,195320,A,3824.4251,N,11047.5051,W,0.1654,148.567,030610,,*35##1
$GPGSA,A,3,31,07,20,32,13,16,23,,,,,,1.6,1.0,1.2*35##528
$GPGGA,195321,3824.4251,N,11047.5051,W,1,07,1.00,1383.06,M,-18.568,M,,*46##1
$GPRMC,195321,A,3824.4251,N,11047.5051,W,0.1654,148.567,030610,,*34##0
$GPGSA,A,3,31,07,20,32,13,16,23,,,,,,1.6,1.0,1.2*35##1023
$GPGGA,195322,3824.4251,N,11047.5051,W,1,07,1.00,1383.06,M,-18.568,M,,*45##0
$GPRMC,195322,A,3824.4251,N,11047.5051,W,0.1654,148.567,030610,,*37##1
$GPGSA,A,3,31,07,20,32,13,16,23,,,,,,1.6,1.0,1.2*35##1419
$GPGGA,195323,3824.4251,N,11047.5051,W,1,07,1.00,1383.06,M,-18.568,M,,*44##0
$GPRMC,195323,A,3824.4251,N,11047.5051,W,0.1654,148.567,030610,,*36##0
$GPGSA,A,3,31,07,20,32,13,16,23,,,,,,1.6,1.0,1.2*35##578
$GPGGA,195324,3824.4251,N,11047.5051,W,1,07,1.00,1383.06,M,-18.568,M,,*43##1
$GPRMC,195324,A,3824.4251,N,11047.5051,W,0.1654,148.567,030610,,*31##0
$GPGSA,A,3,31,07,20,32,13,16,23,,,,,,1.6,1.0,1.2*35##949
$GPGGA,195325,3824.4251,N,11047.5051,W,1,07,1.00,1383.06,M,-18.568,M,,*42##0
$GPRMC,195325,A,3824.4251,N,11047.5051,W,0.1654,148.567,030610,,*30##0
$GPGSA,A,3,31,07,20,32,13,16,23,,,,,,1.6,1.0,1.2*35##1479
$GPGGA,195326,3824.4248,N,11047.5049,W,1,07,1.00,1383.79,M,-18.568,M,,*48##2
$GPRMC,195326,A,3824.4248,N,11047.5049,W,0.3426,165.417,030610,,*3E##1
$GPGSA,A,3,31,07,20,32,13,16,23,,,,,,1.6,1.0,1.2*35##599
$GPGGA,195327,3824.4248,N,11047.5049,W,1,07,1.00,1383.79,M,-18.568,M,,*49##0
$GPRMC,195327,A,3824.4248,N,11047.5049,W,0.3426,165.417,030610,,*3F##1
$GPGSA,A,3,31,07,20,32,13,16,23,,,,,,1.6,1.0,1.2*35##939
$GPGGA,195328,3824.4248,N,11047.5049,W,1,07,1.00,1383.79,M,-18.568,M,,*46##0
$GPRMC,195328,A,3824.4248,N,11047.5049,W,0.4189,131.568,030610,,*3F##1
$GPGSA,A,3,31,07,20,32,13,16,23,,,,,,1.6,1.0,1.2*35##1497
$GPGGA,195329,3824.4248,N,11047.5049,W,1,07,1.00,1383.79,M,-18.568,M,,*47##0
$GPRMC,195329,A,3824.4248,N,11047.5049,W,0.1654,148.567,030610,,*3D##1
$GPGSA,A,3,31,07,20,32,13,16,23,,,,,,1.6,1.0,1.2*35##495
$GPGGA,195330,3824.4248,N,11047.5049,W,1,07,1.00,1383.79,M,-18.568,M,,*4F##0
$GPRMC,195330,A,3824.4248,N,11047.5049,W,0.0000,0.000,030610,,*3A##1
$GPGSA,A,3,31,07,20,32,13,16,23,,,,,,1.6,1.0,1.2*35##1020
$GPGGA,195331,3824.4252,N,11047.5049,W,1,07,1.00,1384.41,M,-18.568,M,,*49##2
$GPRMC,195331,A,3824.4252,N,11047.5049,W,0.1904,0.000,030610,,*3C##1
$GPGSA,A,3,31,07,20,32,13,16,23,,,,,,1.6,1.0,1.2*35##1392
$GPGSV,3,1,09,06,04,130,26,07,12,246,26,31,17,054,27,32,49,172,29*75##0
$GPGSV,3,2,09,23,58,322,32,20,61,216,28,16,56,096,31,13,34,304,17*78##0
$GPGSV,3,3,09,03,04,145,27*42##52
$GPGGA,195332,3824.4252,N,11047.5049,W,1,07,1.00,1384.41,M,-18.568,M,,*4A##0
$GPRMC,195332,A,3824.4252,N,11047.5049,W,0.1654,148.567,030610,,*3C##1
$GPGSA,A,3,31,07,20,32,13,16,23,,,,,,1.6,1.0,1.2*35##612
$GPGGA,195333,3824.4252,N,11047.5049,W,1,07,1.00,1384.41,M,-18.568,M,,*4B##0
$GPRMC,195333,A,3824.4252,N,11047.5049,W,0.1654,148.567,030610,,*3D##0
$GPGSA,A,3,31,07,20,32,13,16,23,,,,,,1.6,1.0,1.2*35##919
$GPGGA,195334,3824.4252,N,11047.5049,W,1,07,1.00,1384.41,M,-18.568,M,,*4C##1
$GPRMC,195334,A,3824.4252,N,11047.5049,W,0.1654,148.567,030610,,*3A##0
$GPGSA,A,3,31,07,20,32,13,16,23,,,,,,1.6,1.0,1.2*35##1486
$GPGGA,195335,3824.4252,N,11047.5049,W,1,07,1.00,1384.41,M,-18.568,M,,*4D##1
$GPRMC,195335,A,3824.4252,N,11047.5049,W,0.1654,148.567,030610,,*3B##0
$GPGSA,A,3,31,07,20,32,13,16,23,,,,,,1.6,1.0,1.2*35##498
$GPGGA,195336,3824.4252,N,11047.5049,W,1,07,1.00,1384.41,M,-18.568,M,,*4E##0
$GPRMC,195336,A,3824.4252,N,11047.5049,W,0.5791,136.357,030610,,*38##1
$GPGSA,A,3,31,07,20,32,13,16,23,,,,,,1.6,1.0,1.2*35##1081
$GPGGA,195337,3824.4252,N,11047.5049,W,1,07,1.00,1384.41,M,-18.568,M,,*4F##0
$GPRMC,195337,A,3824.4252,N,11047.5049,W,0.1654,148.567,030610,,*39##1
$GPGSA,A,3,31,07,20,32,13,16,23,,,,,,1.6,1.0,1.2*35##1327
$GPGGA,195338,3824.4252,N,11047.5049,W,1,07,1.00,1384.41,M,-18.568,M,,*40##0
$GPRMC,195338,A,3824.4252,N,11047.5049,W,0.1654,148.567,030610,,*36##1
$GPGSA,A,3,31,07,20,32,13,16,23,,,,,,1.6,1.0,1.2*35##656
$GPGGA,195339,3824.4252,N,11047.5049,W,1,07,1.00,1384.41,M,-18.568,M,,*41##1
$GPRMC,195339,A,3824.4252,N,11047.5049,W,0.1654,148.567,030610,,*37##0
$GPGSA,A,3,31,07,20,32,13,16,23,,,,,,1.6,1.0,1.2*35##974
$GPGGA,195340,3824.4252,N,11047.5049,W,1,07,1.00,1384.41,M,-18.568,M,,*4F##1
$GPRMC,195340,A,3824.4252,N,11047.5049,W,0.1654,148.567,030610,,*39##0
$GPGSA,A,3,31,07,20,32,13,16,23,,,,,,1.6,1.0,1.2*35##1468
$GPGGA,195341,3824.4252,N,11047.5049,W,1,07,1.00,1384.41,M,-18.568,M,,*4E##1
$GPRMC,195341,A,3824.4252,N,11047.5049,W,0.3426,165.417,030610,,*34##0
$GPGSA,A,3,31,07,20,32,13,16,23,,,,,,1.6,1.0,1.2*35##513
$GPGGA,195342,3824.4252,N,11047.5049,W,1,07,1.00,1384.41,M,-18.568,M,,*4D##0
$GPRMC,195342,A,3824.4252,N,11047.5049,W,0.1654,148.567,030610,,*3B##1
$GPGSA,A,3,31,07,20,32,13,16,23,,,,,,1.6,1.0,1.2*35##941
$GPGGA,195343,3824.4252,N,11047.5049,W,1,07,1.00,1384.41,M,-18.568,M,,*4C##0
$GPRMC,195343,A,3824.4252,N,11047.5049,W,0.1654,148.567,030610,,*3A##1
$GPGSA,A,3,31,07,20,32,13,16,23,,,,,,1.6,1.0,1.2*35##1528
$GPGGA,195344,3824.4252,N,11047.5049,W,1,07,1.00,1384.41,M,-18.568,M,,*4B##0
$GPRMC,195344,A,3824.4252,N,11047.5049,W,0.1654,148.567,030610,,*3D##1
$GPGSA,A,3,31,07,20,32,13,16,23,,,,,,1.6,1.0,1.2*35##485
$GPGGA,195345,3824.4252,N,11047.5049,W,1,07,1.00,1384.41,M,-18.568,M,,*4A##0
$GPRMC,195345,A,3824.4252,N,11047.5049,W,0.1904,0.000,030610,,*3F##1
$GPGSA,A,3,31,07,20,32,13,16,23,,,,,,1.6,1.0,1.2*35##1037
$GPGGA,195346,3824.4252,N,11047.5049,W,1,07,1.00,1384.41,M,-18.568,M,,*49##1
$GPRMC,195346,A,3824.4252,N,11047.5049,W,0.1904,0.000,030610,,*3C##0
$GPGSA,A,3,31,07,20,32,13,16,23,,,,,,1.6,1.0,1.2*35##1342
$GPGSV,3,1,09,06,04,130,28,07,12,246,27,31,17,054,27,32,49,172,29*7A##0
$GPGSV,3,2,09,23,58,322,32,20,61,216,28,16,56,096,31,13,34,304,21*7D##0
$GPGSV,3,3,09,03,04,145,29*4C##84
$GPGGA,195347,3824.4251,N,11047.5055,W,1,07,1.00,1384.69,M,-18.568,M,,*4C##2
$GPRMC,195347,A,3824.4251,N,11047.5055,W,0.1904,0.000,030610,,*33##0
$GPGSA,A,3,31,07,20,32,13,16,23,,,,,,1.6,1.0,1.2*35##568
$GPGGA,195348,3824.4251,N,11047.5055,W,1,07,1.00,1384.69,M,-18.568,M,,*43##1
$GPRMC,195348,A,3824.4251,N,11047.5055,W,0.1654,148.567,030610,,*3F##1
$GPGSA,A,3,31,07,20,32,13,16,23,,,,,,1.6,1.0,1.2*35##1045
$GPGGA,195349,3824.4248,N,11047.5053,W,1,07,1.00,1385.42,M,-18.568,M,,*44##3
$GPRMC,195349,A,3824.4248,N,11047.5053,W,0.4189,131.568,030610,,*33##1
$GPGSA,A,3,31,07,20,32,13,16,23,,,,,,1.6,1.0,1.2*35##1353
$GPGGA,195350,3824.4249,N,11047.5046,W,1,07,1.00,1385.14,M,-18.568,M,,*4A##2
$GPRMC,195350,A,3824.4249,N,11047.5046,W,0.1654,148.567,030610,,*3D##1
$GPGSA,A,3,31,07,20,32,13,16,23,,,,,,1.6,1.0,1.2*35##654
$GPGGA,195351,3824.4248,N,11047.5053,W,1,07,1.00,1385.42,M,-18.568,M,,*4D##2
$GPRMC,195351,A,3824.4248,N,11047.5053,W,0.0000,0.000,030610,,*36##1
$GPGSA,A,3,31,07,20,32,13,16,23,,,,,,1.6,1.0,1.2*35##960
$GPGGA,195352,3824.4248,N,11047.5053,W,1,07,1.00,1385.42,M,-18.568,M,,*4E##1
$GPRMC,195352,A,3824.4248,N,11047.5053,W,0.0000,0.000,030610,,*35##0
$GPGSA,A,3,31,07,20,32,13,16,23,,,,,,1.6,1.0,1.2*35##1441
$GPGGA,195353,3824.4251,N,11047.5055,W,1,07,1.00,1384.69,M,-18.568,M,,*49##2
$GPRMC,195353,A,3824.4251,N,11047.5055,W,0.1904,0.000,030610,,*36##1
$GPGSA,A,3,31,07,20,32,13,16,23,,,,,,1.6,1.0,1.2*35##566
$GPGGA,195354,3824.4255,N,11047.5055,W,1,07,1.00,1385.31,M,-18.568,M,,*46##2
$GPRMC,195354,A,3824.4255,N,11047.5055,W,0.0000,0.000,030610,,*39##1
$GPGSA,A,3,31,07,20,32,13,16,23,,,,,,1.6,1.0,1.2*35##919
$GPGGA,195355,3824.4252,N,11047.5053,W,1,07,1.00,1386.04,M,-18.568,M,,*43##2
$GPRMC,195355,A,3824.4252,N,11047.5053,W,0.1654,148.567,030610,,*36##1
$GPGSA,A,3,31,07,20,32,13,16,23,,,,,,1.6,1.0,1.2*35##1554
$GPGGA,195356,3824.4248,N,11047.5053,W,1,07,1.00,1385.42,M,-18.568,M,,*4A##2
$GPRMC,195356,A,3824.4248,N,11047.5053,W,0.4189,131.568,030610,,*3D##2
$GPGSA,A,3,31,07,20,32,13,16,23,,,,,,1.6,1.0,1.2*35##467
$GPGGA,195357,3824.4248,N,11047.5053,W,1,07,1.00,1385.42,M,-18.568,M,,*4B##0
$GPRMC,195357,A,3824.4248,N,11047.5053,W,0.4189,131.568,030610,,*3C##1
$GPGSA,A,3,31,07,20,32,13,16,23,,,,,,1.6,1.0,1.2*35##1045
$GPGGA,195358,3824.4248,N,11047.5053,W,1,07,1.00,1385.42,M,-18.568,M,,*44##0
$GPRMC,195358,A,3824.4248,N,11047.5053,W,0.0000,0.000,030610,,*3F##1
$GPGSA,A,3,31,07,20,32,13,16,23,,,,,,1.6,1.0,1.2*35##1367
$GPGGA,195359,3824.4248,N,11047.5053,W,1,07,1.00,1385.42,M,-18.568,M,,*45##1
$GPRMC,195359,A,3824.4248,N,11047.5053,W,0.0000,0.000,030610,,*3E##0
$GPGSA,A,3,31,07,20,32,13,16,23,,,,,,1.6,1.0,1.2*35##627
$GPGGA,195400,3824.4252,N,11047.5053,W,1,07,1.00,1386.04,M,-18.568,M,,*44##2
$GPRMC,195400,A,3824.4252,N,11047.5053,W,0.1904,0.000,030610,,*32##1
$GPGSA,A,3,31,07,20,32,13,16,23,,,,,,1.6,1.0,1.2*35##979
$GPGGA,195401,3824.4252,N,11047.5053,W,1,07,1.00,1386.04,M,-18.568,M,,*45##1
$GPRMC,195401,A,3824.4252,N,11047.5053,W,0.0000,0.000,030610,,*3F##1
$GPGSA,A,3,31,07,20,32,13,16,23,,,,,,1.6,1.0,1.2*35##1368
$GPGSV,3,1,09,06,04,130,28,07,12,246,28,31,17,054,27,32,49,172,30*7D##0
$GPGSV,3,2,09,23,58,322,32,20,61,216,29,16,56,096,31,13,34,304,19*77##0
$GPGSV,3,3,09,03,04,145,30*44##52
$GPGGA,195402,3824.4252,N,11047.5053,W,1,07,1.00,1386.04,M,-18.568,M,,*46##1
$GPRMC,195402,A,3824.4252,N,11047.5053,W,0.1654,148.567,030610,,*33##1
$GPGSA,A,3,31,07,20,32,13,16,23,,,,,,1.6,1.0,1.2*35##617
$GPGGA,195403,3824.4248,N,11047.5053,W,1,07,1.00,1385.42,M,-18.568,M,,*4D##2
$GPRMC,195403,A,3824.4248,N,11047.5053,W,0.4189,131.568,030610,,*3A##1
$GPGSA,A,3,31,07,20,32,13,16,23,,,,,,1.6,1.0,1.2*35##984
$GPGGA,195404,3824.4248,N,11047.5053,W,1,07,1.00,1385.42,M,-18.568,M,,*4A##0
$GPRMC,195404,A,3824.4248,N,11047.5053,W,0.4189,131.568,030610,,*3D##1
$GPGSA,A,3,31,07,20,32,13,16,23,,,,,,1.6,1.0,1.2*35##1430
$GPGGA,195405,3824.4248,N,11047.5053,W,1,07,1.00,1385.42,M,-18.568,M,,*4B##1
$GPRMC,195405,A,3824.4248,N,11047.5053,W,0.3426,165.417,030610,,*33##1
$GPGSA,A,3,31,07,20,32,13,16,23,,,,,,1.6,1.0,1.2*35##587
$GPGGA,195406,3824.4248,N,11047.5053,W,1,07,1.00,1385.42,M,-18.568,M,,*48##1
$GPRMC,195406,A,3824.4248,N,11047.5053,W,0.0000,0.000,030610,,*33##1
$GPGSA,A,3,31,07,20,32,13,16,23,,,,,,1.6,1.0,1.2*35##994
$GPGGA,195407,3824.4248,N,11047.5053,W,1,07,1.00,1385.42,M,-18.568,M,,*49##0
$GPRMC,195407,A,3824.4248,N,11047.5053,W,0.0000,0.000,030610,,*32##1
$GPGSA,A,3,31,07,20,32,13,16,23,,,,,,1.6,1.0,1.2*35##1350
$GPGGA,195408,3824.4252,N,11047.5053,W,1,07,1.00,1386.04,M,-18.568,M,,*4C##2
$GPRMC,195408,A,3824.4252,N,11047.5053,W,0.0000,0.000,030610,,*36##1
$GPGSA,A,3,31,07,20,32,13,16,23,,,,,,1.6,1.0,1.2*35##626
$GPGGA,195409,3824.4248,N,11047.5053,W,1,07,1.00,1385.42,M,-18.568,M,,*47##2
$GPRMC,195409,A,3824.4248,N,11047.5053,W,0.1654,148.567,030610,,*33##1
$GPGSA,A,3,31,07,20,32,13,16,23,,,,,,1.6,1.0,1.2*35##1018
$GPGGA,195410,3824.4251,N,11047.5055,W,1,07,1.00,1384.69,M,-18.568,M,,*49##2
$GPRMC,195410,A,3824.4251,N,11047.5055,W,0.0000,0.000,030610,,*3A##1
$GPGSA,A,3,31,07,20,32,13,16,23,,,,,,1.6,1.0,1.2*35##1335
$GPGGA,195411,3824.4255,N,11047.5055,W,1,07,1.00,1385.31,M,-18.568,M,,*40##2
$GPRMC,195411,A,3824.4255,N,11047.5055,W,0.0000,0.000,030610,,*3F##0
$GPGSA,A,3,31,07,20,32,13,16,23,,,,,,1.6,1.0,1.2*35##651
$GPGGA,195412,3824.4255,N,11047.5055,W,1,07,1.00,1385.31,M,-18.568,M,,*43##0
$GPRMC,195412,A,3824.4255,N,11047.5055,W,0.0000,0.000,030610,,*3C##1
$GPGSA,A,3,31,07,20,32,13,16,23,,,,,,1.6,1.0,1.2*35##906
$GPGGA,195413,3824.4255,N,11047.5055,W,1,07,1.00,1385.31,M,-18.568,M,,*42##1
$GPRMC,195413,A,3824.4255,N,11047.5055,W,0.0000,0.000,030610,,*3D##0
$GPGSA,A,3,31,07,20,32,13,16,23,,,,,,1.6,1.0,1.2*35##1558
$GPGGA,195414,3824.4255,N,11047.5055,W,1,07,1.00,1385.31,M,-18.568,M,,*45##0
$GPRMC,195414,A,3824.4255,N,11047.5055,W,0.1654,148.567,030610,,*35##1
$GPGSA,A,3,31,07,20,32,13,16,23,,,,,,1.6,1.0,1.2*35##455
$GPGGA,195415,3824.4248,N,11047.5053,W,1,07,1.00,1385.42,M,-18.568,M,,*4A##2
$GPRMC,195415,A,3824.4248,N,11047.5053,W,0.4189,131.568,030610,,*3D##1
$GPGSA,A,3,31,07,20,32,13,16,23,,,,,,1.6,1.0,1.2*35##998
$GPGGA,195416,3824.4248,N,11047.5053,W,1,07,1.00,1385.42,M,-18.568,M,,*49##0
$GPRMC,195416,A,3824.4248,N,11047.5053,W,0.1654,148.567,030610,,*3D##1
$GPGSA,A,3,31,07,20,32,13,16,23,,,,,,1.6,1.0,1.2*35##1381
$GPGSV,3,1,09,06,04,130,28,07,12,246,28,31,17,054,27,32,49,172,31*7C##1
$GPGSV,3,2,09,23,58,322,34,20,61,216,30,16,56,096,32,13,34,304,26*76##0
$GPGSV,3,3,09,03,04,145,30*44##98
$GPGGA,195417,3824.4248,N,11047.5053,W,1,07,1.00,1385.42,M,-18.568,M,,*48##0
$GPRMC,195417,A,3824.4248,N,11047.5053,W,0.0000,0.000,030610,,*33##1
$GPGSA,A,3,31,07,20,32,13,16,23,,,,,,1.6,1.0,1.2*35##643
$GPGGA,195418,3824.4248,N,11047.5053,W,1,07,1.00,1385.42,M,-18.568,M,,*47##0
$GPRMC,195418,A,3824.4248,N,11047.5053,W,0.1654,148.567,030610,,*33##2
$GPGSA,A,3,31,07,20,32,13,16,23,,,,,,1.6,1.0,1.2*35##923
$GPGGA,195419,3824.4248,N,11047.5053,W,1,07,1.00,1385.42,M,-18.568,M,,*46##0
$GPRMC,195419,A,3824.4248,N,11047.5053,W,0.0000,0.000,030610,,*3D##1
$GPGSA,A,3,31,07,20,32,13,16,23,,,,,,1.6,1.0,1.2*35##1421
$GPGGA,195420,3824.4248,N,11047.5053,W,1,07,1.00,1385.42,M,-18.568,M,,*4C##1
$GPRMC,195420,A,3824.4248,N,11047.5053,W,0.1654,148.567,030610,,*38##0
$GPGSA,A,3,31,07,20,32,13,16,23,,,,,,1.6,1.0,1.2*35##593
$GPGGA,195421,3824.4248,N,11047.5053,W,1,07,1.00,1385.42,M,-18.568,M,,*4D##0
$GPRMC,195421,A,3824.4248,N,11047.5053,W,0.1654,148.567,030610,,*39##1
$GPGSA,A,3,31,07,20,32,13,16,23,,,,,,1.6,1.0,1.2*35##922
$GPGGA,195422,3824.4251,N,11047.5055,W,1,07,1.00,1384.69,M,-18.568,M,,*48##1
$GPRMC,195422,A,3824.4251,N,11047.5055,W,0.0000,0.000,030610,,*3B##1
$GPGSA,A,3,31,07,20,32,13,16,23,,,,,,1.6,1.0,1.2*35##1476
$GPGGA,195423,3824.4251,N,11047.5055,W,1,07,1.00,1384.69,M,-18.568,M,,*49##0
$GPRMC,195423,A,3824.4251,N,11047.5055,W,0.0000,0.000,030610,,*3A##1
$GPGSA,A,3,31,07,20,32,13,16,23,,,,,,1.6,1.0,1.2*35##638
$GPGGA,195424,3824.4251,N,11047.5055,W,1,07,1.00,1384.69,M,-18.568,M,,*4E##0
$GPRMC,195424,A,3824.4251,N,11047.5055,W,0.0000,0.000,030610,,*3D##1
$GPGSA,A,3,31,07,20,32,13,16,23,,,,,,1.6,1.0,1.2*35##900
$GPGGA,195425,3824.4251,N,11047.5055,W,1,07,1.00,1384.69,M,-18.568,M,,*4F##0
$GPRMC,195425,A,3824.4251,N,11047.5055,W,0.0000,0.000,030610,,*3C##1
$GPGSA,A,3,31,07,20,32,13,16,23,,,,,,1.6,1.0,1.2*35##1446
$GPGGA,195426,3824.4251,N,11047.5055,W,1,07,1.00,1384.69,M,-18.568,M,,*4C##1
$GPRMC,195426,A,3824.4251,N,11047.5055,W,0.0000,0.000,030610,,*3F##0
$GPGSA,A,3,31,07,20,32,13,16,23,,,,,,1.6,1.0,1.2*35##563
$GPGGA,195427,3824.4251,N,11047.5055,W,1,07,1.00,1384.69,M,-18.568,M,,*4D##0
$GPRMC,195427,A,3824.4251,N,11047.5055,W,0.0000,0.000,030610,,*3E##1
$GPGSA,A,3,31,07,20,32,13,16,23,,,,,,1.6,1.0,1.2*35##980
$GPGGA,195428,3824.4254,N,11047.5058,W,1,07,1.00,1383.96,M,-18.568,M,,*4D##1
$GPRMC,195428,A,3824.4254,N,11047.5058,W,0.1654,148.567,030610,,*36##1
$GPGSA,A,3,31,07,20,32,13,16,23,,,,,,1.6,1.0,1.2*35##1438
$GPGGA,195429,3824.4254,N,11047.5058,W,1,07,1.00,1383.96,M,-18.568,M,,*4C##0
$GPRMC,195429,A,3824.4254,N,11047.5058,W,0.1654,148.567,030610,,*37##1
$GPGSA,A,3,31,07,20,32,13,16,23,,,,,,1.6,1.0,1.2*35##581
$GPGGA,195430,3824.4254,N,11047.5058,W,1,07,1.00,1383.96,M,-18.568,M,,*44##0
$GPRMC,195430,A,3824.4254,N,11047.5058,W,0.1654,148.567,030610,,*3F##1
$GPGSA,A,3,31,07,20,32,13,16,23,,,,,,1.6,1.0,1.2*35##1053
$GPGGA,195431,3824.4254,N,11047.5058,W,1,07,1.00,1383.96,M,-18.568,M,,*45##1
$GPRMC,195431,A,3824.4254,N,11047.5058,W,0.1654,148.567,030610,,*3E##0
$GPGSA,A,3,31,07,20,32,13,16,23,,,,,,1.6,1.0,1.2*35##1226
$GPGSV,3,1,09,06,04,130,29,07,12,246,28,31,17,054,28,32,49,172,31*72##0
$GPGSV,3,2,09,23,58,322,35,20,61,216,30,16,56,096,31,13,34,304,34*77##1
$GPGSV,3,3,09,03,04,145,32*46##192
$GPGGA,195432,3824.4254,N,11047.5058,W,1,08,0.80,1383.96,M,-18.568,M,,*40##0
$GPRMC,195432,A,3824.4254,N,11047.5058,W,0.0000,0.000,030610,,*32##1
$GPGSA,A,3,06,31,07,20,32,13,16,23,,,,,1.6,0.8,1.2*3A##570
$GPGGA,195433,3824.4254,N,11047.5058,W,1,08,0.80,1383.96,M,-18.568,M,,*41##1
$GPRMC,195433,A,3824.4254,N,11047.5058,W,0.0000,0.000,030610,,*33##0
$GPGSA,A,3,06,31,07,20,32,13,16,23,,,,,1.6,0.8,1.2*3A##983
$GPGGA,195434,3824.4254,N,11047.5058,W,1,08,0.80,1383.96,M,-18.568,M,,*46##0
$GPRMC,195434,A,3824.4254,N,11047.5058,W,0.0000,0.000,030610,,*34##1
$GPGSA,A,3,06,31,07,20,32,13,16,23,,,,,1.6,0.8,1.2*3A##1449
$GPGGA,195435,3824.4254,N,11047.5058,W,1,08,0.80,1383.96,M,-18.568,M,,*47##0
$GPRMC,195435,A,3824.4254,N,11047.5058,W,0.1654,148.567,030610,,*3A##1
$GPGSA,A,3,06,31,07,20,32,13,16,23,,,,,1.6,0.8,1.2*3A##600
$GPGGA,195436,3824.4254,N,11047.5058,W,1,08,0.80,1383.96,M,-18.568,M,,*44##0
$GPRMC,195436,A,3824.4254,N,11047.5058,W,0.1654,148.567,030610,,*39##0
$GPGSA,A,3,06,31,07,20,32,13,16,23,,,,,1.6,0.8,1.2*3A##926
$GPGGA,195437,3824.4250,N,11047.5058,W,1,08,0.80,1383.34,M,-18.568,M,,*49##1
$GPRMC,195437,A,3824.4250,N,11047.5058,W,0.4101,200.097,030610,,*3B##1
$GPGSA,A,3,06,31,07,20,32,13,16,23,,,,,1.6,0.8,1.2*3A##1488
$GPGGA,195438,3824.4250,N,11047.5058,W,1,08,0.80,1383.34,M,-18.568,M,,*46##0
$GPRMC,195438,A,3824.4250,N,11047.5058,W,0.7187,184.361,030610,,*3C##1
$GPGSA,A,3,06,31,07,20,32,13,16,23,,,,,1.6,0.8,1.2*3A##545
$GPGGA,195439,3824.4250,N,11047.5058,W,1,08,0.80,1383.34,M,-18.568,M,,*47##0
$GPRMC,195439,A,3824.4250,N,11047.5058,W,0.8202,200.097,030610,,*39##1
$GPGSA,A,3,06,31,07,20,32,13,16,23,,,,,1.6,0.8,1.2*3A##978
$GPGGA,195440,3824.4250,N,11047.5058,W,1,08,0.80,1383.34,M,-18.568,M,,*49##0
$GPRMC,195440,A,3824.4250,N,11047.5058,W,0.4101,200.097,030610,,*3B##0
$GPGSA,A,3,06,31,07,20,32,13,16,23,,,,,1.6,0.8,1.2*3A##1415
$GPGGA,195441,3824.4250,N,11047.5058,W,1,08,0.80,1383.34,M,-18.568,M,,*48##0
$GPRMC,195441,A,3824.4250,N,11047.5058,W,0.1654,148.567,030610,,*3D##2
$GPGSA,A,3,06,31,07,20,32,13,16,23,,,,,1.6,0.8,1.2*3A##605
$GPGGA,195442,3824.4250,N,11047.5058,W,1,08,0.80,1383.34,M,-18.568,M,,*4B##0
$GPRMC,195442,A,3824.4250,N,11047.5058,W,0.1654,148.567,030610,,*3E##1
$GPGSA,A,3,06,31,07,20,32,13,16,23,,,,,1.6,0.8,1.2*3A##940
$GPGGA,195443,3824.4250,N,11047.5058,W,1,08,0.80,1383.34,M,-18.568,M,,*4A##0
$GPRMC,195443,A,3824.4250,N,11047.5058,W,0.1654,148.567,030610,,*3F##1
$GPGSA,A,3,06,31,07,20,32,13,16,23,,,,,1.6,0.8,1.2*3A##1518
$GPGGA,195444,3824.4250,N,11047.5058,W,1,08,0.80,1383.34,M,-18.568,M,,*4D##0
$GPRMC,195444,A,3824.4250,N,11047.5058,W,0.1654,148.567,030610,,*38##0
$GPGSA,A,3,06,31,07,20,32,13,16,23,,,,,1.6,0.8,1.2*3A##532
$GPGGA,195445,3824.4253,N,11047.5060,W,1,08,0.80,1382.60,M,-18.568,M,,*44##1
$GPRMC,195445,A,3824.4253,N,11047.5060,W,0.1654,148.567,030610,,*31##1
$GPGSA,A,3,06,31,07,20,32,13,16,23,,,,,1.6,0.8,1.2*3A##985
$GPGGA,195446,3824.4253,N,11047.5060,W,1,08,0.80,1382.60,M,-18.568,M,,*47##0
$GPRMC,195446,A,3824.4253,N,11047.5060,W,0.1654,148.567,030610,,*32##0
$GPGSA,A,3,06,31,07,20,32,13,16,23,,,,,1.6,0.8,1.2*3A##1294
$GPGSV,3,1,09,06,04,130,29,07,12,246,30,31,17,054,33,32,49,172,30*70##0
$GPGSV,3,2,09,23,58,322,36,20,61,216,32,16,56,096,35,13,34,304,34*72##0
$GPGSV,3,3,09,03,04,145,34*40##150
$GPGGA,195447,3824.4245,N,11047.5058,W,1,08,0.80,1382.71,M,-18.568,M,,*4A##2
$GPRMC,195447,A,3824.4245,N,11047.5058,W,0.4101,200.097,030610,,*38##1
$GPGSA,A,3,06,31,07,20,32,13,16,23,,,,,1.6,0.8,1.2*3A##546
$GPGGA,195448,3824.4244,N,11047.5064,W,1,08,0.80,1382.99,M,-18.568,M,,*4D##1
$GPRMC,195448,A,3824.4244,N,11047.5064,W,0.2403,215.893,030610,,*30##1
$GPGSA,A,3,06,31,07,20,32,13,16,23,,,,,1.6,0.8,1.2*3A##971
$GPGGA,195449,3824.4247,N,11047.5067,W,1,08,0.80,1382.26,M,-18.568,M,,*48##2
$GPRMC,195449,A,3824.4247,N,11047.5067,W,0.1654,148.567,030610,,*3F##1
$GPGSA,A,3,06,31,07,20,32,13,16,23,,,,,1.6,0.8,1.2*3A##1376
$GPGGA,195450,3824.4247,N,11047.5067,W,1,08,0.80,1382.26,M,-18.568,M,,*40##0
$GPRMC,195450,A,3824.4247,N,11047.5067,W,0.1654,148.567,030610,,*37##1
$GPGSA,A,3,06,31,07,20,32,13,16,23,,,,,1.6,0.8,1.2*3A##619
$GPGGA,195451,3824.4247,N,11047.5067,W,1,08,0.80,1382.26,M,-18.568,M,,*41##0
$GPRMC,195451,A,3824.4247,N,11047.5067,W,0.1654,148.567,030610,,*36##1
$GPGSA,A,3,06,31,07,20,32,13,16,23,,,,,1.6,0.8,1.2*3A##1048
$GPGGA,195452,3824.4247,N,11047.5067,W,1,08,0.80,1382.26,M,-18.568,M,,*42##1
$GPRMC,195452,A,3824.4247,N,11047.5067,W,0.1654,148.567,030610,,*35##0
$GPGSA,A,3,06,31,07,20,32,13,16,23,,,,,1.6,0.8,1.2*3A##1333
$GPGGA,195453,3824.4247,N,11047.5067,W,1,08,0.80,1382.26,M,-18.568,M,,*43##1
$GPRMC,195453,A,3824.4247,N,11047.5067,W,0.4101,200.097,030610,,*33##1
$GPGSA,A,3,06,31,07,20,32,13,16,23,,,,,1.6,0.8,1.2*3A##638
$GPGGA,195454,3824.4247,N,11047.5067,W,1,08,0.80,1382.26,M,-18.568,M,,*44##0
$GPRMC,195454,A,3824.4247,N,11047.5067,W,0.1654,148.567,030610,,*33##1
$GPGSA,A,3,06,31,07,20,32,13,16,23,,,,,1.6,0.8,1.2*3A##940
$GPGGA,195455,3824.4247,N,11047.5067,W,1,08,0.80,1382.26,M,-18.568,M,,*45##0
$GPRMC,195455,A,3824.4247,N,11047.5067,W,0.4101,200.097,030610,,*35##1
$GPGSA,A,3,06,31,07,20,32,13,16,23,,,,,1.6,0.8,1.2*3A##1472
$GPGGA,195456,3824.4247,N,11047.5067,W,1,08,0.80,1382.26,M,-18.568,M,,*46##0
$GPRMC,195456,A,3824.4247,N,11047.5067,W,0.4101,200.097,030610,,*36##0
$GPGSA,A,3,06,31,07,20,32,13,16,23,,,,,1.6,0.8,1.2*3A##577
$GPGGA,195457,3824.4247,N,11047.5067,W,1,08,0.80,1382.26,M,-18.568,M,,*47##0
$GPRMC,195457,A,3824.4247,N,11047.5067,W,0.1654,148.567,030610,,*30##1
$GPGSA,A,3,06,31,07,20,32,13,16,23,,,,,1.6,0.8,1.2*3A##957
$GPGGA,195458,3824.4247,N,11047.5067,W,1,08,0.80,1382.26,M,-18.568,M,,*48##0
$GPRMC,195458,A,3824.4247,N,11047.5067,W,0.3254,105.605,030610,,*37##1
$GPGSA,A,3,06,31,07,20,32,13,16,23,,,,,1.6,0.8,1.2*3A##1435
$GPGGA,195459,3824.4247,N,11047.5067,W,1,08,0.80,1382.26,M,-18.568,M,,*49##0
$GPRMC,195459,A,3824.4247,N,11047.5067,W,0.1654,148.567,030610,,*3E##1
$GPGSA,A,3,06,31,07,20,32,13,16,23,,,,,1.6,0.8,1.2*3A##614
$GPGGA,195500,3824.4247,N,11047.5067,W,1,08,0.80,1382.26,M,-18.568,M,,*44##0
$GPRMC,195500,A,3824.4247,N,11047.5067,W,0.1654,148.567,030610,,*33##1
$GPGSA,A,3,06,31,07,20,32,13,16,23,,,,,1.6,0.8,1.2*3A##938
$GPGGA,195501,3824.4247,N,11047.5067,W,1,08,0.80,1382.26,M,-18.568,M,,*45##0
$GPRMC,195501,A,3824.4247,N,11047.5067,W,0.0000,0.000,030610,,*3D##1
$GPGSA,A,3,06,31,07,20,32,13,16,23,,,,,1.6,0.8,1.2*3A##1305
$GPGSV,3,1,09,06,04,130,18,07,12,246,30,31,17,054,33,32,49,172,30*72##0
$GPGSV,3,2,09,23,58,322,38,20,61,216,32,16,56,096,36,13,34,304,30*7B##0
$GPGSV,3,3,09,03,04,145,32*46##154
$GPGGA,195502,3824.4247,N,11047.5067,W,1,08,0.80,1382.26,M,-18.568,M,,*46##0
$GPRMC,195502,A,3824.4247,N,11047.5067,W,0.1654,148.567,030610,,*31##1
$GPGSA,A,3,06,31,07,20,32,13,16,23,,,,,1.6,0.8,1.2*3A##549
$GPGGA,195503,3824.4247,N,11047.5067,W,1,08,0.80,1382.26,M,-18.568,M,,*47##0
$GPRMC,195503,A,3824.4247,N,11047.5067,W,0.1654,148.567,030610,,*30##1
$GPGSA,A,3,06,31,07,20,32,13,16,23,,,,,1.6,0.8,1.2*3A##1011
$GPGGA,195504,3824.4243,N,11047.5067,W,1,08,0.80,1381.64,M,-18.568,M,,*41##2
$GPRMC,195504,A,3824.4243,N,11047.5067,W,0.1654,148.567,030610,,*33##0
$GPGSA,A,3,06,31,07,20,32,13,16,23,,,,,1.6,0.8,1.2*3A##1399
$GPGGA,195505,3824.4240,N,11047.5064,W,1,08,0.80,1382.37,M,-18.568,M,,*45##2
$GPRMC,195505,A,3824.4240,N,11047.5064,W,0.3426,165.417,030610,,*3E##1
$GPGSA,A,3,06,31,07,20,32,13,16,23,,,,,1.6,0.8,1.2*3A##618
$GPGGA,195506,3824.4240,N,11047.5064,W,1,08,0.80,1382.37,M,-18.568,M,,*46##0
$GPRMC,195506,A,3824.4240,N,11047.5064,W,0.1654,148.567,030610,,*31##1
$GPGSA,A,3,06,31,07,20,32,13,16,23,,,,,1.6,0.8,1.2*3A##927
$GPGGA,195507,3824.4243,N,11047.5067,W,1,08,0.80,1381.64,M,-18.568,M,,*42##1
$GPRMC,195507,A,3824.4243,N,11047.5067,W,0.0000,0.000,030610,,*3F##1
$GPGSA,A,3,06,31,07,20,32,13,16,23,,,,,1.6,0.8,1.2*3A##1453
$GPGGA,195508,3824.4243,N,11047.5067,W,1,08,0.80,1381.64,M,-18.568,M,,*4D##0
$GPRMC,195508,A,3824.4243,N,11047.5067,W,0.0000,0.000,030610,,*30##1
$GPGSA,A,3,06,31,07,20,32,13,16,23,,,,,1.6,0.8,1.2*3A##589
$GPGGA,195509,3824.4244,N,11047.5060,W,1,08,0.80,1381.36,M,-18.568,M,,*4B##2
$GPRMC,195509,A,3824.4244,N,11047.5060,W,0.3254,105.605,030610,,*36##1
$GPGSA,A,3,06,31,07,20,32,13,16,23,,,,,1.6,0.8,1.2*3A##959
$GPGGA,195510,3824.4244,N,11047.5060,W,1,08,0.80,1381.36,M,-18.568,M,,*43##0
$GPRMC,195510,A,3824.4244,N,11047.5060,W,0.2334,76.727,030610,,*0C##1
$GPGSA,A,3,06,31,07,20,32,13,16,23,,,,,1.6,0.8,1.2*3A##1544
$GPGGA,195511,3824.4244,N,11047.5060,W,1,08,0.80,1381.36,M,-18.568,M,,*42##0
$GPRMC,195511,A,3824.4244,N,11047.5060,W,0.2334,76.727,030610,,*0D##1
$GPGSA,A,3,06,31,07,20,32,13,16,23,,,,,1.6,0.8,1.2*3A##559
$GPGGA,195512,3824.4244,N,11047.5060,W,1,08,0.80,1381.36,M,-18.568,M,,*41##0
$GPRMC,195512,A,3824.4244,N,11047.5060,W,0.3254,105.605,030610,,*3C##1
$GPGSA,A,3,06,31,07,20,32,13,16,23,,,,,1.6,0.8,1.2*3A##936
$GPGGA,195513,3824.4244,N,11047.5060,W,1,08,0.80,1381.36,M,-18.568,M,,*40##1
$GPRMC,195513,A,3824.4244,N,11047.5060,W,0.3254,105.605,030610,,*3D##0
$GPGSA,A,3,06,31,07,20,32,13,16,23,,,,,1.6,0.8,1.2*3A##1396
$GPGGA,195514,3824.4244,N,11047.5060,W,1,08,0.80,1381.36,M,-18.568,M,,*47##0
$GPRMC,195514,A,3824.4244,N,11047.5060,W,0.1654,148.567,030610,,*32##1
$GPGSA,A,3,06,31,07,20,32,13,16,23,,,,,1.6,0.8,1.2*3A##619
$GPGGA,195515,3824.4244,N,11047.5060,W,1,08,0.80,1381.36,M,-18.568,M,,*46##2
$GPRMC,195515,A,3824.4244,N,11047.5060,W,0.1654,148.567,030610,,*33##1
$GPGSA,A,3,06,31,07,20,32,13,16,23,,,,,1.6,0.8,1.2*3A##968
$GPGGA,195516,3824.4244,N,11047.5060,W,1,08,0.80,1381.36,M,-18.568,M,,*45##0
$GPRMC,195516,A,3824.4244,N,11047.5060,W,0.1904,0.000,030610,,*33##2
$GPGSA,A,3,06,31,07,20,32,13,16,23,,,,,1.6,0.8,1.2*3A##1320
$GPGSV,3,1,09,06,04,130,28,07,12,246,22,31,17,054,36,32,49,172,26*70##1
$GPGSV,3,2,09,23,58,322,35,20,61,216,32,16,56,096,38,13,34,304,34*7C##0
$GPGSV,3,3,09,03,04,145,23*46##87
$GPGGA,195517,3824.4244,N,11047.5060,W,1,08,0.80,1381.36,M,-18.568,M,,*44##0
$GPRMC,195517,A,3824.4244,N,11047.5060,W,0.3299,71.829,030610,,*0A##1
$GPGSA,A,3,06,31,07,20,32,13,16,23,,,,,1.6,0.8,1.2*3A##576
$GPGGA,195518,3824.4244,N,11047.5060,W,1,08,0.80,1381.36,M,-18.568,M,,*4B##1
$GPRMC,195518,A,3824.4244,N,11047.5060,W,0.3299,71.829,030610,,*05##0
$GPGSA,A,3,06,31,07,20,32,13,16,23,,,,,1.6,0.8,1.2*3A##1004
$GPGGA,195519,3824.4244,N,11047.5060,W,1,08,0.80,1381.36,M,-18.568,M,,*4A##0
$GPRMC,195519,A,3824.4244,N,11047.5060,W,0.3299,71.829,030610,,*04##1
$GPGSA,A,3,06,31,07,20,32,13,16,23,,,,,1.6,0.8,1.2*3A##1460
$GPGGA,195520,3824.4244,N,11047.5060,W,1,08,0.80,1381.36,M,-18.568,M,,*40##1
$GPRMC,195520,A,3824.4244,N,11047.5060,W,0.3299,71.829,030610,,*0E##1
$GPGSA,A,3,06,31,07,20,32,13,16,23,,,,,1.6,0.8,1.2*3A##557
$GPGGA,195521,3824.4244,N,11047.5060,W,1,08,0.80,1381.36,M,-18.568,M,,*41##0
$GPRMC,195521,A,3824.4244,N,11047.5060,W,0.0993,60.257,030610,,*0E##1
$GPGSA,A,3,06,31,07,20,32,13,16,23,,,,,1.6,0.8,1.2*3A##985
$GPGGA,195522,3824.4244,N,11047.5060,W,1,08,0.80,1381.36,M,-18.568,M,,*42##0
$GPRMC,195522,A,3824.4244,N,11047.5060,W,0.0993,60.257,030610,,*0D##1
$GPGSA,A,3,06,31,07,20,32,13,16,23,,,,,1.6,0.8,1.2*3A##1461
$GPGGA,195523,3824.4244,N,11047.5060,W,1,08,0.80,1381.36,M,-18.568,M,,*43##0
$GPRMC,195523,A,3824.4244,N,11047.5060,W,0.3299,71.829,030610,,*0D##1
$GPGSA,A,3,06,31,07,20,32,13,16,23,,,,,1.6,0.8,1.2*3A##570
$GPGGA,195524,3824.4244,N,11047.5060,W,1,08,0.80,1381.36,M,-18.568,M,,*44##0
$GPRMC,195524,A,3824.4244,N,11047.5060,W,0.3299,71.829,030610,,*0A##1
$GPGSA,A,3,06,31,07,20,32,13,16,23,,,,,1.6,0.8,1.2*3A##949
$GPGGA,195525,3824.4249,N,11047.5060,W,1,08,0.80,1381.98,M,-18.568,M,,*4C##2
$GPRMC,195525,A,3824.4249,N,11047.5060,W,0.2547,19.791,030610,,*01##4
$GPGSA,A,3,06,31,07,20,32,13,16,23,,,,,1.6,0.8,1.2*3A##1467
$GPGGA,195526,3824.4249,N,11047.5060,W,1,08,0.80,1381.98,M,-18.568,M,,*4F##0
$GPRMC,195526,A,3824.4249,N,11047.5060,W,0.0993,60.257,030610,,*04##1
$GPGSA,A,3,06,31,07,20,32,13,16,23,,,,,1.6,0.8,1.2*3A##590
$GPGGA,195527,3824.4249,N,11047.5060,W,1,07,1.00,1381.98,M,-18.568,M,,*48##1
$GPRMC,195527,A,3824.4249,N,11047.5060,W,0.1654,148.567,030610,,*3F##0
$GPGSA,A,3,06,31,07,20,13,16,23,,,,,,1.6,1.0,1.2*32##993
$GPGGA,195528,3824.4249,N,11047.5060,W,1,07,1.00,1381.98,M,-18.568,M,,*47##0
$GPRMC,195528,A,3824.4249,N,11047.5060,W,0.0993,60.257,030610,,*0A##1
$GPGSA,A,3,06,31,07,20,13,16,23,,,,,,1.6,1.0,1.2*32##1412
$GPGGA,195529,3824.4249,N,11047.5060,W,1,07,1.00,1381.98,M,-18.568,M,,*46##0
$GPRMC,195529,A,3824.4249,N,11047.5060,W,0.1654,148.567,030610,,*31##4
$GPGSA,A,3,06,31,07,20,13,16,23,,,,,,1.6,1.0,1.2*32##541
$GPGGA,195530,3824.4249,N,11047.5060,W,1,06,1.20,1381.98,M,-18.568,M,,*4D##0
$GPRMC,195530,A,3824.4249,N,11047.5060,W,0.1654,148.567,030610,,*39##1
$GPGSA,A,3,31,07,20,13,16,23,,,,,,,1.6,1.2,1.2*36##1005
$GPGGA,195531,3824.4244,N,11047.5060,W,1,06,1.20,1381.36,M,-18.568,M,,*45##2
$GPRMC,195531,A,3824.4244,N,11047.5060,W,0.1654,148.567,030610,,*35##1
$GPGSA,A,3,31,07,20,13,16,23,,,,,,,1.6,1.2,1.2*36##1284
$GPGSV,2,1,08,06,04,130,11,07,12,246,27,31,17,054,38,23,58,322,36*77##0
$GPGSV,2,2,08,20,61,216,33,16,56,096,39,13,34,304,29,03,04,145,24*78##173
$GPGGA,195532,3824.4244,N,11047.5060,W,1,06,1.20,1381.36,M,-18.568,M,,*46##0
$GPRMC,195532,A,3824.4244,N,11047.5060,W,0.1654,148.567,030610,,*36##0
$GPGSA,A,3,31,07,20,13,16,23,,,,,,,1.6,1.2,1.2*36##546
$GPGGA,195533,3824.4244,N,11047.5060,W,1,07,1.00,1381.36,M,-18.568,M,,*44##0
$GPRMC,195533,A,3824.4244,N,11047.5060,W,0.4101,200.097,030610,,*30##2
$GPGSA,A,3,06,31,07,20,13,16,23,,,,,,1.6,1.0,1.2*32##996
$GPGGA,195534,3824.4241,N,11047.5058,W,1,07,1.00,1382.09,M,-18.568,M,,*42##2
$GPRMC,195534,A,3824.4241,N,11047.5058,W,0.3426,165.417,030610,,*32##2
$GPGSA,A,3,06,31,07,20,13,16,23,,,,,,1.6,1.0,1.2*32##1409
$GPGGA,195535,3824.4241,N,11047.5058,W,1,07,1.00,1382.09,M,-18.568,M,,*43##0
$GPRMC,195535,A,3824.4241,N,11047.5058,W,0.3426,165.417,030610,,*33##1
$GPGSA,A,3,06,31,07,20,13,16,23,,,,,,1.6,1.0,1.2*32##595
$GPGGA,195536,3824.4241,N,11047.5058,W,1,07,1.00,1382.09,M,-18.568,M,,*40##0
$GPRMC,195536,A,3824.4241,N,11047.5058,W,0.3426,165.417,030610,,*30##1
$GPGSA,A,3,06,31,07,20,13,16,23,,,,,,1.6,1.0,1.2*32##959
$GPGGA,195537,3824.4237,N,11047.5058,W,1,07,1.00,1381.47,M,-18.568,M,,*49##2
$GPRMC,195537,A,3824.4237,N,11047.5058,W,0.3426,165.417,030610,,*30##0
$GPGSA,A,3,06,31,07,20,13,16,23,,,,,,1.6,1.0,1.2*32##1470
$GPGGA,195538,3824.4237,N,11047.5058,W,1,08,0.80,1381.47,M,-18.568,M,,*40##0
$GPRMC,195538,A,3824.4237,N,11047.5058,W,0.1904,180.000,030610,,*39##2
$GPGSA,A,3,32,06,31,07,20,13,16,23,,,,,1.6,0.8,1.2*3A##563
$GPGGA,195539,3824.4240,N,11047.5060,W,1,08,0.80,1380.74,M,-18.568,M,,*4B##2
$GPRMC,195539,A,3824.4240,N,11047.5060,W,0.2652,121.061,030610,,*30##1
$GPGSA,A,3,32,06,31,07,20,13,16,23,,,,,1.6,0.8,1.2*3A##957
$GPGGA,195540,3824.4240,N,11047.5060,W,1,08,0.80,1380.74,M,-18.568,M,,*45##0
$GPRMC,195540,A,3824.4240,N,11047.5060,W,0.1904,180.000,030610,,*3D##1
$GPGSA,A,3,32,06,31,07,20,13,16,23,,,,,1.6,0.8,1.2*3A##1443
$GPGGA,195541,3824.4240,N,11047.5060,W,1,08,0.80,1380.74,M,-18.568,M,,*44##0
$GPRMC,195541,A,3824.4240,N,11047.5060,W,0.0000,0.000,030610,,*39##1
$GPGSA,A,3,32,06,31,07,20,13,16,23,,,,,1.6,0.8,1.2*3A##574
$GPGGA,195542,3824.4240,N,11047.5060,W,1,08,0.80,1380.74,M,-18.568,M,,*47##1
$GPRMC,195542,A,3824.4240,N,11047.5060,W,0.0000,0.000,030610,,*3A##1
$GPGSA,A,3,32,06,31,07,20,13,16,23,,,,,1.6,0.8,1.2*3A##981
