# NMEA GPS data followed by ## then the time in ms before next message was sent
$GPGSV,3,1,09,16,26,147,32,30,08,036,27,31,55,045,41,32,81,307,35*75##0
$GPGSV,3,2,09,11,20,240,29,23,26,285,32,14,16,078,36,20,52,306,34*7A##1
$GPGSV,3,3,09,13,04,274,30*44##54
$GPGGA,181205,3825.1488,N,11046.9852,W,1,08,0.80,1379.31,M,-18.546,M,,*4F##5
$GPRMC,181205,A,3825.1488,N,11046.9852,W,0.0000,0.000,050610,,*3F##1
$GPGSA,A,3,11,31,14,20,23,30,16,32,,,,,1.6,0.8,1.3*3E##714
$GPGGA,181206,3825.1488,N,11046.9852,W,1,08,0.80,1379.31,M,-18.546,M,,*4C##0
$GPRMC,181206,A,3825.1488,N,11046.9852,W,0.0000,0.000,050610,,*3C##1
$GPGSA,A,3,11,31,14,20,23,30,16,32,,,,,1.6,0.8,1.3*3E##710
$GPGGA,181207,3825.1488,N,11046.9852,W,1,08,0.80,1379.31,M,-18.546,M,,*4D##0
$GPRMC,181207,A,3825.1488,N,11046.9852,W,0.0000,0.000,050610,,*3D##1
$GPGSA,A,3,11,31,14,20,23,30,16,32,,,,,1.6,0.8,1.3*3E##0
$PGRME,0.00,M,0.00,M,6.25,M*1F##1360
$GPGGA,181208,3825.1488,N,11046.9852,W,1,08,0.80,1379.31,M,-18.546,M,,*42##0
$GPRMC,181208,A,3825.1488,N,11046.9852,W,0.0000,0.000,050610,,*32##2
$GPGSA,A,3,11,31,14,20,23,30,16,32,,,,,1.6,0.8,1.3*3E##0
$PGRME,0.00,M,0.00,M,6.25,M*1F##620
$GPGGA,181209,3825.1488,N,11046.9852,W,1,08,0.80,1379.31,M,-18.546,M,,*43##1
$GPRMC,181209,A,3825.1488,N,11046.9852,W,0.0000,0.000,050610,,*33##2
$GPGSA,A,3,11,31,14,20,23,30,16,32,,,,,1.6,0.8,1.3*3E##0
$PGRME,0.00,M,0.00,M,6.25,M*1F##900
$GPGGA,181210,3825.1488,N,11046.9852,W,1,08,0.80,1379.31,M,-18.546,M,,*4B##1
$GPRMC,181210,A,3825.1488,N,11046.9852,W,0.0000,0.000,050610,,*3B##0
$GPGSA,A,3,11,31,14,20,23,30,16,32,,,,,1.6,0.8,1.3*3E##1497
$GPGGA,181211,3825.1488,N,11046.9852,W,1,08,0.80,1379.31,M,-18.546,M,,*4A##0
$GPRMC,181211,A,3825.1488,N,11046.9852,W,0.0000,0.000,050610,,*3A##0
$GPGSA,A,3,11,31,14,20,23,30,16,32,,,,,1.6,0.8,1.3*3E##0
$PGRME,0.00,M,0.00,M,6.25,M*1F##503
$GPGGA,181212,3825.1488,N,11046.9852,W,1,08,0.80,1379.31,M,-18.546,M,,*49##0
$GPRMC,181212,A,3825.1488,N,11046.9852,W,0.0000,0.000,050610,,*39##0
$GPGSA,A,3,11,31,14,20,23,30,16,32,,,,,1.6,0.8,1.3*3E##965
$GPGGA,181213,3825.1492,N,11046.9852,W,1,08,0.80,1379.93,M,-18.546,M,,*4B##1
$GPRMC,181213,A,3825.1492,N,11046.9852,W,0.0000,0.000,050610,,*33##0
$GPGSA,A,3,11,31,14,20,23,30,16,32,,,,,1.6,0.8,1.3*3E##1
$PGRME,0.00,M,0.00,M,6.25,M*1F##1531
$GPGGA,181214,3825.1492,N,11046.9852,W,1,08,0.80,1379.93,M,-18.546,M,,*4C##0
$GPRMC,181214,A,3825.1492,N,11046.9852,W,0.0000,0.000,050610,,*34##1
$GPGSA,A,3,11,31,14,20,23,30,16,32,,,,,1.6,0.8,1.3*3E##536
$GPGGA,181215,3825.1492,N,11046.9852,W,1,08,0.80,1379.93,M,-18.546,M,,*4D##0
$GPRMC,181215,A,3825.1492,N,11046.9852,W,0.0000,0.000,050610,,*35##0
$GPGSA,A,3,11,31,14,20,23,30,16,32,,,,,1.6,0.8,1.3*3E##0
$PGRME,0.00,M,0.00,M,6.25,M*1F##979
$GPGGA,181216,3825.1492,N,11046.9852,W,1,08,0.80,1379.93,M,-18.546,M,,*4E##0
$GPRMC,181216,A,3825.1492,N,11046.9852,W,0.0000,0.000,050610,,*36##1
$GPGSA,A,3,11,31,14,20,23,30,16,32,,,,,1.6,0.8,1.3*3E##1408
$GPGGA,181217,3825.1492,N,11046.9852,W,1,08,0.80,1379.93,M,-18.546,M,,*4F##1
$GPRMC,181217,A,3825.1492,N,11046.9852,W,0.0000,0.000,050610,,*37##1
$GPGSA,A,3,11,31,14,20,23,30,16,32,,,,,1.6,0.8,1.3*3E##686
$GPGGA,181218,3825.1492,N,11046.9852,W,1,08,0.80,1379.93,M,-18.546,M,,*40##0
$GPRMC,181218,A,3825.1492,N,11046.9852,W,0.0000,0.000,050610,,*38##1
$GPGSA,A,3,11,31,14,20,23,30,16,32,,,,,1.6,0.8,1.3*3E##1
$PGRME,0.00,M,0.00,M,6.25,M*1F##949
$GPGGA,181219,3825.1492,N,11046.9852,W,1,08,0.80,1379.93,M,-18.546,M,,*41##0
$GPRMC,181219,A,3825.1492,N,11046.9852,W,0.0000,0.000,050610,,*39##1
$GPGSA,A,3,11,31,14,20,23,30,16,32,,,,,1.6,0.8,1.3*3E##1
$PGRME,0.00,M,0.00,M,6.25,M*1F##1366
$GPGSV,3,1,09,16,26,147,31,30,08,036,28,31,55,045,41,32,81,307,35*79##0
$GPGSV,3,2,09,11,20,240,29,23,26,285,33,14,16,078,37,20,52,306,33*7D##0
$GPGSV,3,3,09,13,04,274,30*44##43
$GPGGA,181220,3825.1492,N,11046.9852,W,1,08,0.80,1379.93,M,-18.546,M,,*4B##1
$GPRMC,181220,A,3825.1492,N,11046.9852,W,0.0000,0.000,050610,,*33##1
$GPGSA,A,3,11,31,14,20,23,30,16,32,,,,,1.6,0.8,1.3*3E##571
$GPGGA,181221,3825.1492,N,11046.9852,W,1,08,0.80,1379.93,M,-18.546,M,,*4A##0
$GPRMC,181221,A,3825.1492,N,11046.9852,W,0.0000,0.000,050610,,*32##1
$GPGSA,A,3,11,31,14,20,23,30,16,32,,,,,1.6,0.8,1.3*3E##0
$PGRME,0.00,M,0.00,M,6.25,M*1F##972
$GPGGA,181222,3825.1492,N,11046.9852,W,1,08,0.80,1379.93,M,-18.546,M,,*49##0
$GPRMC,181222,A,3825.1492,N,11046.9852,W,0.0000,0.000,050610,,*31##1
$GPGSA,A,3,11,31,14,20,23,30,16,32,,,,,1.6,0.8,1.3*3E##1459
$GPGGA,181223,3825.1492,N,11046.9852,W,1,08,0.80,1379.93,M,-18.546,M,,*48##0
$GPRMC,181223,A,3825.1492,N,11046.9852,W,0.0000,0.000,050610,,*30##1
$GPGSA,A,3,11,31,14,20,23,30,16,32,,,,,1.6,0.8,1.3*3E##511
$GPGGA,181224,3825.1492,N,11046.9852,W,1,07,1.00,1379.93,M,-18.546,M,,*49##16
$GPRMC,181224,A,3825.1492,N,11046.9852,W,0.0000,0.000,050610,,*37##0
$GPGSA,A,3,11,31,14,20,23,16,32,,,,,,1.6,1.0,1.3*34##0
$PGRME,0.00,M,0.00,M,6.25,M*1F##952
$GPGGA,181225,3825.1492,N,11046.9852,W,1,08,0.80,1379.93,M,-18.546,M,,*4E##1
$GPRMC,181225,A,3825.1492,N,11046.9852,W,0.0000,0.000,050610,,*36##1
$GPGSA,A,3,11,31,14,20,23,30,16,32,,,,,1.6,0.8,1.3*3E##1518
$GPGGA,181226,3825.1492,N,11046.9852,W,1,08,0.80,1379.93,M,-18.546,M,,*4D##0
$GPRMC,181226,A,3825.1492,N,11046.9852,W,0.0000,0.000,050610,,*35##1
$GPGSA,A,3,11,31,14,20,23,30,16,32,,,,,1.6,0.8,1.3*3E##529
$GPGGA,181227,3825.1492,N,11046.9852,W,1,08,0.80,1379.93,M,-18.546,M,,*4C##0
$GPRMC,181227,A,3825.1492,N,11046.9852,W,0.0000,0.000,050610,,*34##1
$GPGSA,A,3,11,31,14,20,23,30,16,32,,,,,1.6,0.8,1.3*3E##1
$PGRME,0.00,M,0.00,M,6.25,M*1F##1007
$GPGGA,181228,3825.1492,N,11046.9852,W,1,08,0.80,1379.93,M,-18.546,M,,*43##0
$GPRMC,181228,A,3825.1492,N,11046.9852,W,0.0000,0.000,050610,,*3B##1
$GPGSA,A,3,11,31,14,20,23,30,16,32,,,,,1.6,0.8,1.3*3E##1442
$GPGGA,181229,3825.1492,N,11046.9852,W,1,08,0.80,1379.93,M,-18.546,M,,*42##0
$GPRMC,181229,A,3825.1492,N,11046.9852,W,0.0000,0.000,050610,,*3A##1
$GPGSA,A,3,11,31,14,20,23,30,16,32,,,,,1.6,0.8,1.3*3E##0
$PGRME,0.00,M,0.00,M,6.25,M*1F##679
$GPGGA,181230,3825.1492,N,11046.9852,W,1,08,0.80,1379.93,M,-18.546,M,,*4A##1
$GPRMC,181230,A,3825.1492,N,11046.9852,W,0.0000,0.000,050610,,*32##0
$GPGSA,A,3,11,31,14,20,23,30,16,32,,,,,1.6,0.8,1.3*3E##944
$GPGGA,181231,3825.1492,N,11046.9852,W,1,08,0.80,1379.93,M,-18.546,M,,*4B##0
$GPRMC,181231,A,3825.1492,N,11046.9852,W,0.0000,0.000,050610,,*33##1
$GPGSA,A,3,11,31,14,20,23,30,16,32,,,,,1.6,0.8,1.3*3E##1343
$GPGGA,181232,3825.1492,N,11046.9852,W,1,08,0.80,1379.93,M,-18.546,M,,*48##0
$GPRMC,181232,A,3825.1492,N,11046.9852,W,0.0000,0.000,050610,,*30##1
$GPGSA,A,3,11,31,14,20,23,30,16,32,,,,,1.6,0.8,1.3*3E##680
$GPGGA,181233,3825.1492,N,11046.9852,W,1,08,0.80,1379.93,M,-18.546,M,,*49##0
$GPRMC,181233,A,3825.1492,N,11046.9852,W,0.0000,0.000,050610,,*31##1
$GPGSA,A,3,11,31,14,20,23,30,16,32,,,,,1.6,0.8,1.3*3E##0
$PGRME,0.00,M,0.00,M,6.25,M*1F##971
$GPGGA,181234,3825.1492,N,11046.9852,W,1,08,0.80,1379.93,M,-18.546,M,,*4E##0
$GPRMC,181234,A,3825.1492,N,11046.9852,W,0.0000,0.000,050610,,*36##1
$GPGSA,A,3,11,31,14,20,23,30,16,32,,,,,1.6,0.8,1.3*3E##1295
$GPGSV,3,1,09,16,26,147,32,30,08,036,31,31,55,045,41,32,81,307,35*72##1
$GPGSV,3,2,09,11,20,240,29,23,26,285,33,14,16,078,37,20,52,306,34*7A##0
$GPGSV,3,3,09,13,04,274,29*4C##110
$GPGGA,181235,3825.1492,N,11046.9852,W,1,08,0.80,1379.93,M,-18.546,M,,*4F##0
$GPRMC,181235,A,3825.1492,N,11046.9852,W,0.0000,0.000,050610,,*37##1
$GPGSA,A,3,11,31,14,20,23,30,16,32,,,,,1.6,0.8,1.3*3E##492
$GPGGA,181236,3825.1492,N,11046.9852,W,1,08,0.80,1379.93,M,-18.546,M,,*4C##1
$GPRMC,181236,A,3825.1492,N,11046.9852,W,0.0000,0.000,050610,,*34##1
$GPGSA,A,3,11,31,14,20,23,30,16,32,,,,,1.6,0.8,1.3*3E##1089
$GPGGA,181237,3825.1492,N,11046.9852,W,1,08,0.80,1379.93,M,-18.546,M,,*4D##0
$GPRMC,181237,A,3825.1492,N,11046.9852,W,0.0000,0.000,050610,,*35##1
$GPGSA,A,3,11,31,14,20,23,30,16,32,,,,,1.6,0.8,1.3*3E##1329
$GPGGA,181238,3825.1492,N,11046.9852,W,1,08,0.80,1379.93,M,-18.546,M,,*42##0
$GPRMC,181238,A,3825.1492,N,11046.9852,W,0.0000,0.000,050610,,*3A##1
$GPGSA,A,3,11,31,14,20,23,30,16,32,,,,,1.6,0.8,1.3*3E##0
$PGRME,0.00,M,0.00,M,6.25,M*1F##644
$GPGGA,181239,3825.1492,N,11046.9852,W,1,08,0.80,1379.93,M,-18.546,M,,*43##1
$GPRMC,181239,A,3825.1492,N,11046.9852,W,0.0000,0.000,050610,,*3B##0
$GPGSA,A,3,11,31,14,20,23,30,16,32,,,,,1.6,0.8,1.3*3E##974
$GPGGA,181240,3825.1492,N,11046.9852,W,1,08,0.80,1379.93,M,-18.546,M,,*4D##0
$GPRMC,181240,A,3825.1492,N,11046.9852,W,0.0000,0.000,050610,,*35##0
$GPGSA,A,3,11,31,14,20,23,30,16,32,,,,,1.6,0.8,1.3*3E##0
$PGRME,0.00,M,0.00,M,6.25,M*1F##1450
$GPGGA,181241,3825.1492,N,11046.9852,W,1,08,0.80,1379.93,M,-18.546,M,,*4C##0
$GPRMC,181241,A,3825.1492,N,11046.9852,W,0.0000,0.000,050610,,*34##1
$GPGSA,A,3,11,31,14,20,23,30,16,32,,,,,1.6,0.8,1.3*3E##635
$GPGGA,181242,3825.1492,N,11046.9852,W,1,08,0.80,1379.93,M,-18.546,M,,*4F##1
$GPRMC,181242,A,3825.1492,N,11046.9852,W,0.0000,0.000,050610,,*37##0
$GPGSA,A,3,11,31,14,20,23,30,16,32,,,,,1.6,0.8,1.3*3E##0
$PGRME,0.00,M,0.00,M,6.25,M*1F##905
$GPGGA,181243,3825.1492,N,11046.9852,W,1,08,0.80,1379.93,M,-18.546,M,,*4E##0
$GPRMC,181243,A,3825.1492,N,11046.9852,W,0.0000,0.000,050610,,*36##0
$GPGSA,A,3,11,31,14,20,23,30,16,32,,,,,1.6,0.8,1.3*3E##1411
$GPGGA,181244,3825.1492,N,11046.9852,W,1,08,0.80,1379.93,M,-18.546,M,,*49##0
$GPRMC,181244,A,3825.1492,N,11046.9852,W,0.0000,0.000,050610,,*31##1
$GPGSA,A,3,11,31,14,20,23,30,16,32,,,,,1.6,0.8,1.3*3E##668
$GPGGA,181245,3825.1492,N,11046.9852,W,1,08,0.80,1379.93,M,-18.546,M,,*48##1
$GPRMC,181245,A,3825.1492,N,11046.9852,W,0.0000,0.000,050610,,*30##0
$GPGSA,A,3,11,31,14,20,23,30,16,32,,,,,1.6,0.8,1.3*3E##955
$GPGGA,181246,3825.1492,N,11046.9852,W,1,08,0.80,1379.93,M,-18.546,M,,*4B##0
$GPRMC,181246,A,3825.1492,N,11046.9852,W,0.0000,0.000,050610,,*33##1
$GPGSA,A,3,11,31,14,20,23,30,16,32,,,,,1.6,0.8,1.3*3E##0
$PGRME,0.00,M,0.00,M,6.25,M*1F##1460
$GPGGA,181247,3825.1492,N,11046.9852,W,1,08,0.80,1379.93,M,-18.546,M,,*4A##0
$GPRMC,181247,A,3825.1492,N,11046.9852,W,0.0000,0.000,050610,,*32##1
$GPGSA,A,3,11,31,14,20,23,30,16,32,,,,,1.6,0.8,1.3*3E##480
$GPGGA,181248,3825.1492,N,11046.9852,W,1,08,0.80,1379.93,M,-18.546,M,,*45##1
$GPRMC,181248,A,3825.1492,N,11046.9852,W,0.0000,0.000,050610,,*3D##0
$GPGSA,A,3,11,31,14,20,23,30,16,32,,,,,1.6,0.8,1.3*3E##1
$PGRME,0.00,M,0.00,M,6.25,M*1F##961
$GPGGA,181249,3825.1492,N,11046.9852,W,1,08,0.80,1379.93,M,-18.546,M,,*44##0
$GPRMC,181249,A,3825.1492,N,11046.9852,W,0.0000,0.000,050610,,*3C##1
$GPGSA,A,3,11,31,14,20,23,30,16,32,,,,,1.6,0.8,1.3*3E##1431
$GPGSV,3,1,09,16,26,147,31,30,08,036,31,31,55,045,41,32,81,307,35*71##0
$GPGSV,3,2,09,11,20,240,29,23,26,285,33,14,16,078,36,20,52,306,33*7C##0
$GPGSV,3,3,09,13,04,274,30*44##188
$GPGGA,181250,3825.1492,N,11046.9852,W,1,08,0.80,1379.93,M,-18.546,M,,*4C##0
$GPRMC,181250,A,3825.1492,N,11046.9852,W,0.0000,0.000,050610,,*34##1
$GPGSA,A,3,11,31,14,20,23,30,16,32,,,,,1.6,0.8,1.3*3E##501
$GPGGA,181251,3825.1492,N,11046.9852,W,1,08,0.80,1379.93,M,-18.546,M,,*4D##0
$GPRMC,181251,A,3825.1492,N,11046.9852,W,0.0000,0.000,050610,,*35##1
$GPGSA,A,3,11,31,14,20,23,30,16,32,,,,,1.6,0.8,1.3*3E##986
$GPGGA,181252,3825.1492,N,11046.9852,W,1,08,0.80,1379.93,M,-18.546,M,,*4E##0
$GPRMC,181252,A,3825.1492,N,11046.9852,W,0.0000,0.000,050610,,*36##0
$GPGSA,A,3,11,31,14,20,23,30,16,32,,,,,1.6,0.8,1.3*3E##1
$PGRME,0.00,M,0.00,M,6.25,M*1F##1450
$GPGGA,181253,3825.1492,N,11046.9852,W,1,08,0.80,1379.93,M,-18.546,M,,*4F##0
$GPRMC,181253,A,3825.1492,N,11046.9852,W,0.0000,0.000,050610,,*37##1
$GPGSA,A,3,11,31,14,20,23,30,16,32,,,,,1.6,0.8,1.3*3E##509
$GPGGA,181254,3825.1492,N,11046.9852,W,1,08,0.80,1379.93,M,-18.546,M,,*48##0
$GPRMC,181254,A,3825.1492,N,11046.9852,W,0.0000,0.000,050610,,*30##1
$GPGSA,A,3,11,31,14,20,23,30,16,32,,,,,1.6,0.8,1.3*3E##0
$PGRME,0.00,M,0.00,M,6.25,M*1F##929
$GPGGA,181255,3825.1492,N,11046.9852,W,1,08,0.80,1379.93,M,-18.546,M,,*49##0
$GPRMC,181255,A,3825.1492,N,11046.9852,W,0.0000,0.000,050610,,*31##1
$GPGSA,A,3,11,31,14,20,23,30,16,32,,,,,1.6,0.8,1.3*3E##1523
$GPGGA,181256,3825.1492,N,11046.9852,W,1,08,0.80,1379.93,M,-18.546,M,,*4A##0
$GPRMC,181256,A,3825.1492,N,11046.9852,W,0.0000,0.000,050610,,*32##1
$GPGSA,A,3,11,31,14,20,23,30,16,32,,,,,1.6,0.8,1.3*3E##511
$GPGGA,181257,3825.1492,N,11046.9852,W,1,08,0.80,1379.93,M,-18.546,M,,*4B##0
$GPRMC,181257,A,3825.1492,N,11046.9852,W,0.0000,0.000,050610,,*33##1
$GPGSA,A,3,11,31,14,20,23,30,16,32,,,,,1.6,0.8,1.3*3E##0
$PGRME,0.00,M,0.00,M,6.25,M*1F##1091
$GPGGA,181258,3825.1492,N,11046.9852,W,1,08,0.80,1379.93,M,-18.546,M,,*44##1
$GPRMC,181258,A,3825.1492,N,11046.9852,W,0.0000,0.000,050610,,*3C##0
$GPGSA,A,3,11,31,14,20,23,30,16,32,,,,,1.6,0.8,1.3*3E##1
$PGRME,0.00,M,0.00,M,6.25,M*1F##1410
$GPGGA,181259,3825.1492,N,11046.9852,W,1,08,0.80,1379.93,M,-18.546,M,,*45##0
$GPRMC,181259,A,3825.1492,N,11046.9852,W,0.0000,0.000,050610,,*3D##1
$GPGSA,A,3,11,31,14,20,23,30,16,32,,,,,1.6,0.8,1.3*3E##1
$PGRME,0.00,M,0.00,M,6.25,M*1F##585
$GPGGA,181300,3825.1492,N,11046.9852,W,1,08,0.80,1379.93,M,-18.546,M,,*48##0
$GPRMC,181300,A,3825.1492,N,11046.9852,W,0.0000,0.000,050610,,*30##1
$GPGSA,A,3,11,31,14,20,23,30,16,32,,,,,1.6,0.8,1.3*3E##1031
$GPGGA,181301,3825.1492,N,11046.9852,W,1,08,0.80,1379.93,M,-18.546,M,,*49##1
$GPRMC,181301,A,3825.1492,N,11046.9852,W,0.0000,0.000,050610,,*31##0
$GPGSA,A,3,11,31,14,20,23,30,16,32,,,,,1.6,0.8,1.3*3E##1328
$GPGGA,181302,3825.1492,N,11046.9852,W,1,08,0.80,1379.93,M,-18.546,M,,*4A##0
$GPRMC,181302,A,3825.1492,N,11046.9852,W,0.0000,0.000,050610,,*32##1
$GPGSA,A,3,11,31,14,20,23,30,16,32,,,,,1.6,0.8,1.3*3E##0
$PGRME,0.00,M,0.00,M,6.25,M*1F##644
$GPGGA,181303,3825.1492,N,11046.9852,W,1,08,0.80,1379.93,M,-18.546,M,,*4B##0
$GPRMC,181303,A,3825.1492,N,11046.9852,W,0.0000,0.000,050610,,*33##1
$GPGSA,A,3,11,31,14,20,23,30,16,32,,,,,1.6,0.8,1.3*3E##998
$GPGGA,181304,3825.1492,N,11046.9852,W,1,08,0.80,1379.93,M,-18.546,M,,*4C##1
$GPRMC,181304,A,3825.1492,N,11046.9852,W,0.0000,0.000,050610,,*34##0
$GPGSA,A,3,11,31,14,20,23,30,16,32,,,,,1.6,0.8,1.3*3E##0
$PGRME,0.00,M,0.00,M,6.25,M*1F##1211
$GPGSV,3,1,09,16,27,147,31,30,07,036,31,31,53,045,41,32,82,304,36*7A##1
$GPGSV,3,2,09,11,19,240,29,23,27,286,33,14,15,079,37,20,54,306,33*71##0
$GPGSV,3,3,09,13,05,274,30*45##209
$GPGGA,181305,3825.1492,N,11046.9852,W,1,08,0.80,1379.93,M,-18.546,M,,*4D##1
$GPRMC,181305,A,3825.1492,N,11046.9852,W,0.0000,0.000,050610,,*35##1
$GPGSA,A,3,11,31,14,20,23,30,16,32,,,,,1.6,0.8,1.3*3E##470
$GPGGA,181306,3825.1492,N,11046.9852,W,1,08,0.80,1379.93,M,-18.546,M,,*4E##0
$GPRMC,181306,A,3825.1492,N,11046.9852,W,0.0000,0.000,050610,,*36##1
$GPGSA,A,3,11,31,14,20,23,30,16,32,,,,,1.6,0.8,1.3*3E##1029
$GPGGA,181307,3825.1492,N,11046.9852,W,1,08,0.80,1379.93,M,-18.546,M,,*4F##1
$GPRMC,181307,A,3825.1492,N,11046.9852,W,0.0000,0.000,050610,,*37##0
$GPGSA,A,3,11,31,14,20,23,30,16,32,,,,,1.6,0.8,1.3*3E##1
$PGRME,0.00,M,0.00,M,6.25,M*1F##1540
$GPGGA,181308,3825.1492,N,11046.9852,W,1,08,0.80,1379.93,M,-18.546,M,,*40##0
$GPRMC,181308,A,3825.1492,N,11046.9852,W,0.0000,0.000,050610,,*38##1
$GPGSA,A,3,11,31,14,20,23,30,16,32,,,,,1.6,0.8,1.3*3E##525
$GPGGA,181309,3825.1492,N,11046.9852,W,1,08,0.80,1379.93,M,-18.546,M,,*41##0
$GPRMC,181309,A,3825.1492,N,11046.9852,W,0.0000,0.000,050610,,*39##1
$GPGSA,A,3,11,31,14,20,23,30,16,32,,,,,1.6,0.8,1.3*3E##0
$PGRME,0.00,M,0.00,M,6.25,M*1F##1001
$GPGGA,181310,3825.1492,N,11046.9852,W,1,08,0.80,1379.93,M,-18.546,M,,*49##0
$GPRMC,181310,A,3825.1492,N,11046.9852,W,0.0000,0.000,050610,,*31##1
$GPGSA,A,3,11,31,14,20,23,30,16,32,,,,,1.6,0.8,1.3*3E##1430
$GPGGA,181311,3825.1492,N,11046.9852,W,1,08,0.80,1379.93,M,-18.546,M,,*48##0
$GPRMC,181311,A,3825.1492,N,11046.9852,W,0.0000,0.000,050610,,*30##1
$GPGSA,A,3,11,31,14,20,23,30,16,32,,,,,1.6,0.8,1.3*3E##498
$GPGGA,181312,3825.1492,N,11046.9852,W,1,08,0.80,1379.93,M,-18.546,M,,*4B##0
$GPRMC,181312,A,3825.1492,N,11046.9852,W,0.0000,0.000,050610,,*33##1
$GPGSA,A,3,11,31,14,20,23,30,16,32,,,,,1.6,0.8,1.3*3E##0
$PGRME,0.00,M,0.00,M,6.25,M*1F##1019
$GPGGA,181313,3825.1492,N,11046.9852,W,1,08,0.80,1379.93,M,-18.546,M,,*4A##1
$GPRMC,181313,A,3825.1492,N,11046.9852,W,0.0000,0.000,050610,,*32##0
$GPGSA,A,3,11,31,14,20,23,30,16,32,,,,,1.6,0.8,1.3*3E##1507
$GPGGA,181314,3825.1492,N,11046.9852,W,1,08,0.80,1379.93,M,-18.546,M,,*4D##0
$GPRMC,181314,A,3825.1492,N,11046.9852,W,0.0000,0.000,050610,,*35##1
$GPGSA,A,3,11,31,14,20,23,30,16,32,,,,,1.6,0.8,1.3*3E##0
$PGRME,0.00,M,0.00,M,6.25,M*1F##488
$GPGGA,181315,3825.1492,N,11046.9852,W,1,08,0.80,1379.93,M,-18.546,M,,*4C##0
$GPRMC,181315,A,3825.1492,N,11046.9852,W,0.0000,0.000,050610,,*34##1
$GPGSA,A,3,11,31,14,20,23,30,16,32,,,,,1.6,0.8,1.3*3E##946
$GPGGA,181316,3825.1492,N,11046.9852,W,1,08,0.80,1379.93,M,-18.546,M,,*4F##1
$GPRMC,181316,A,3825.1492,N,11046.9852,W,0.0000,0.000,050610,,*37##0
$GPGSA,A,3,11,31,14,20,23,30,16,32,,,,,1.6,0.8,1.3*3E##1
$PGRME,0.00,M,0.00,M,6.25,M*1F##1406
$GPGGA,181317,3825.1492,N,11046.9852,W,1,08,0.80,1379.93,M,-18.546,M,,*4E##0
$GPRMC,181317,A,3825.1492,N,11046.9852,W,0.0000,0.000,050610,,*36##1
$GPGSA,A,3,11,31,14,20,23,30,16,32,,,,,1.6,0.8,1.3*3E##678
$GPGGA,181318,3825.1492,N,11046.9852,W,1,08,0.80,1379.93,M,-18.546,M,,*41##0
$GPRMC,181318,A,3825.1492,N,11046.9852,W,0.0000,0.000,050610,,*39##0
$GPGSA,A,3,11,31,14,20,23,30,16,32,,,,,1.6,0.8,1.3*3E##1
$PGRME,0.00,M,0.00,M,6.25,M*1F##979
$GPGGA,181319,3825.1492,N,11046.9852,W,1,08,0.80,1379.93,M,-18.546,M,,*40##0
$GPRMC,181319,A,3825.1492,N,11046.9852,W,0.0000,0.000,050610,,*38##1
$GPGSA,A,3,11,31,14,20,23,30,16,32,,,,,1.6,0.8,1.3*3E##1310
$GPGSV,3,1,09,16,27,147,31,30,07,036,31,31,53,045,41,32,82,304,35*79##0
$GPGSV,3,2,09,11,19,240,29,23,27,286,33,14,15,079,37,20,54,306,33*71##1
$GPGSV,3,3,09,13,05,274,30*45##101
$GPGGA,181320,3825.1492,N,11046.9852,W,1,08,0.80,1379.93,M,-18.546,M,,*4A##1
$GPRMC,181320,A,3825.1492,N,11046.9852,W,0.0000,0.000,050610,,*32##0
$GPGSA,A,3,11,31,14,20,23,30,16,32,,,,,1.6,0.8,1.3*3E##535
$GPGGA,181321,3825.1492,N,11046.9852,W,1,08,0.80,1379.93,M,-18.546,M,,*4B##1
$GPRMC,181321,A,3825.1492,N,11046.9852,W,0.0000,0.000,050610,,*33##0
$GPGSA,A,3,11,31,14,20,23,30,16,32,,,,,1.6,0.8,1.3*3E##1
$PGRME,0.00,M,0.00,M,6.25,M*1F##1044
$GPGGA,181322,3825.1492,N,11046.9852,W,1,08,0.80,1379.93,M,-18.546,M,,*48##1
$GPRMC,181322,A,3825.1492,N,11046.9852,W,0.0000,0.000,050610,,*30##1
$GPGSA,A,3,11,31,14,20,23,30,16,32,,,,,1.6,0.8,1.3*3E##0
$PGRME,0.00,M,0.00,M,6.25,M*1F##1383
$GPGGA,181323,3825.1492,N,11046.9852,W,1,08,0.80,1379.93,M,-18.546,M,,*49##0
$GPRMC,181323,A,3825.1492,N,11046.9852,W,0.0000,0.000,050610,,*31##1
$GPGSA,A,3,11,31,14,20,23,30,16,32,,,,,1.6,0.8,1.3*3E##622
$GPGGA,181324,3825.1492,N,11046.9852,W,1,08,0.80,1379.93,M,-18.546,M,,*4E##0
$GPRMC,181324,A,3825.1492,N,11046.9852,W,0.0000,0.000,050610,,*36##1
$GPGSA,A,3,11,31,14,20,23,30,16,32,,,,,1.6,0.8,1.3*3E##0
$PGRME,0.00,M,0.00,M,6.25,M*1F##1040
$GPGGA,181325,3825.1492,N,11046.9852,W,1,08,0.80,1379.93,M,-18.546,M,,*4F##0
$GPRMC,181325,A,3825.1492,N,11046.9852,W,0.0000,0.000,050610,,*37##0
$GPGSA,A,3,11,31,14,20,23,30,16,32,,,,,1.6,0.8,1.3*3E##1342
$GPGGA,181326,3825.1492,N,11046.9852,W,1,08,0.80,1379.93,M,-18.546,M,,*4C##0
$GPRMC,181326,A,3825.1492,N,11046.9852,W,0.0000,0.000,050610,,*34##1
$GPGSA,A,3,11,31,14,20,23,30,16,32,,,,,1.6,0.8,1.3*3E##700
$GPGGA,181327,3825.1492,N,11046.9852,W,1,08,0.80,1379.93,M,-18.546,M,,*4D##0
$GPRMC,181327,A,3825.1492,N,11046.9852,W,0.0000,0.000,050610,,*35##1
$GPGSA,A,3,11,31,14,20,23,30,16,32,,,,,1.6,0.8,1.3*3E##0
$PGRME,0.00,M,0.00,M,6.25,M*1F##966
$GPGGA,181328,3825.1492,N,11046.9852,W,1,08,0.80,1379.93,M,-18.546,M,,*42##0
$GPRMC,181328,A,3825.1492,N,11046.9852,W,0.0000,0.000,050610,,*3A##0
$GPGSA,A,3,11,31,14,20,23,30,16,32,,,,,1.6,0.8,1.3*3E##0
$PGRME,0.00,M,0.00,M,6.25,M*1F##1319
$GPGGA,181329,3825.1492,N,11046.9852,W,1,08,0.80,1379.93,M,-18.546,M,,*43##1
$GPRMC,181329,A,3825.1492,N,11046.9852,W,0.0000,0.000,050610,,*3B##0
$GPGSA,A,3,11,31,14,20,23,30,16,32,,,,,1.6,0.8,1.3*3E##613
$GPGGA,181330,3825.1492,N,11046.9852,W,1,08,0.80,1379.93,M,-18.546,M,,*4B##0
$GPRMC,181330,A,3825.1492,N,11046.9852,W,0.0000,0.000,050610,,*33##0
$GPGSA,A,3,11,31,14,20,23,30,16,32,,,,,1.6,0.8,1.3*3E##1
$PGRME,0.00,M,0.00,M,6.25,M*1F##996
$GPGGA,181331,3825.1495,N,11046.9855,W,1,08,0.80,1379.20,M,-18.546,M,,*42##5
$GPRMC,181331,A,3825.1495,N,11046.9855,W,0.0000,0.000,050610,,*32##1
$GPGSA,A,3,11,31,14,20,23,30,16,32,,,,,1.6,0.8,1.3*3E##1439
$GPGGA,181332,3825.1495,N,11046.9855,W,1,08,0.80,1379.20,M,-18.546,M,,*41##0
$GPRMC,181332,A,3825.1495,N,11046.9855,W,0.0000,0.000,050610,,*31##1
$GPGSA,A,3,11,31,14,20,23,30,16,32,,,,,1.6,0.8,1.3*3E##517
$GPGGA,181333,3825.1495,N,11046.9855,W,1,08,0.80,1379.20,M,-18.546,M,,*40##0
$GPRMC,181333,A,3825.1495,N,11046.9855,W,0.0000,0.000,050610,,*30##1
$GPGSA,A,3,11,31,14,20,23,30,16,32,,,,,1.6,0.8,1.3*3E##0
$PGRME,0.00,M,0.00,M,6.25,M*1F##1057
$GPGGA,181334,3825.1495,N,11046.9855,W,1,08,0.80,1379.20,M,-18.546,M,,*47##0
$GPRMC,181334,A,3825.1495,N,11046.9855,W,0.0000,0.000,050610,,*37##1
$GPGSA,A,3,11,31,14,20,23,30,16,32,,,,,1.6,0.8,1.3*3E##0
$PGRME,0.00,M,0.00,M,6.25,M*1F##1322
$GPGSV,3,1,09,16,27,147,31,30,07,036,32,31,53,045,41,32,82,304,35*7A##0
$GPGSV,3,2,09,11,19,240,29,23,27,286,33,14,15,079,36,20,54,306,33*70##1
$GPGSV,3,3,09,13,05,274,30*45##188
$GPGGA,181335,3825.1495,N,11046.9855,W,1,08,0.80,1379.20,M,-18.546,M,,*46##0
$GPRMC,181335,A,3825.1495,N,11046.9855,W,0.0000,0.000,050610,,*36##1
$GPGSA,A,3,11,31,14,20,23,30,16,32,,,,,1.6,0.8,1.3*3E##494
$GPGGA,181336,3825.1495,N,11046.9855,W,1,08,0.80,1379.20,M,-18.546,M,,*45##1
$GPRMC,181336,A,3825.1495,N,11046.9855,W,0.0000,0.000,050610,,*35##0
$GPGSA,A,3,11,31,14,20,23,30,16,32,,,,,1.6,0.8,1.3*3E##0
$PGRME,0.00,M,0.00,M,6.25,M*1F##1045
$GPGGA,181337,3825.1495,N,11046.9855,W,1,08,0.80,1379.20,M,-18.546,M,,*44##0
$GPRMC,181337,A,3825.1495,N,11046.9855,W,0.0000,0.000,050610,,*34##1
$GPGSA,A,3,11,31,14,20,23,30,16,32,,,,,1.6,0.8,1.3*3E##1421
$GPGGA,181338,3825.1495,N,11046.9855,W,1,08,0.80,1379.20,M,-18.546,M,,*4B##0
$GPRMC,181338,A,3825.1495,N,11046.9855,W,0.0000,0.000,050610,,*3B##1
$GPGSA,A,3,11,31,14,20,23,30,16,32,,,,,1.6,0.8,1.3*3E##0
$PGRME,0.00,M,0.00,M,6.25,M*1F##555
$GPGGA,181339,3825.1495,N,11046.9855,W,1,08,0.80,1379.20,M,-18.546,M,,*4A##0
$GPRMC,181339,A,3825.1495,N,11046.9855,W,0.0000,0.000,050610,,*3A##1
$GPGSA,A,3,11,31,14,20,23,30,16,32,,,,,1.6,0.8,1.3*3E##984
$GPGGA,181340,3825.1495,N,11046.9855,W,1,08,0.80,1379.20,M,-18.546,M,,*44##0
$GPRMC,181340,A,3825.1495,N,11046.9855,W,0.0000,0.000,050610,,*34##1
$GPGSA,A,3,11,31,14,20,23,30,16,32,,,,,1.6,0.8,1.3*3E##1
$PGRME,0.00,M,0.00,M,6.25,M*1F##1348
$GPGGA,181341,3825.1495,N,11046.9855,W,1,08,0.80,1379.20,M,-18.546,M,,*45##0
$GPRMC,181341,A,3825.1495,N,11046.9855,W,0.0000,0.000,050610,,*35##0
$GPGSA,A,3,11,31,14,20,23,30,16,32,,,,,1.6,0.8,1.3*3E##0
$PGRME,0.00,M,0.00,M,6.25,M*1F##714
$GPGGA,181342,3825.1495,N,11046.9855,W,1,08,0.80,1379.20,M,-18.546,M,,*46##0
$GPRMC,181342,A,3825.1495,N,11046.9855,W,0.0000,0.000,050610,,*36##1
$GPGSA,A,3,11,31,14,20,23,30,16,32,,,,,1.6,0.8,1.3*3E##967
$GPGGA,181343,3825.1495,N,11046.9855,W,1,08,0.80,1379.20,M,-18.546,M,,*47##1
$GPRMC,181343,A,3825.1495,N,11046.9855,W,0.0000,0.000,050610,,*37##0
$GPGSA,A,3,11,31,14,20,23,30,16,32,,,,,1.6,0.8,1.3*3E##1
$PGRME,0.00,M,0.00,M,6.25,M*1F##1424
$GPGGA,181344,3825.1495,N,11046.9855,W,1,09,0.80,1379.20,M,-18.546,M,,*41##1
$GPRMC,181344,A,3825.1495,N,11046.9855,W,0.0000,0.000,050610,,*30##1
$GPGSA,A,3,11,31,14,20,23,30,16,32,13,,,,1.6,0.8,1.3*3C##549
$GPGGA,181345,3825.1495,N,11046.9855,W,1,09,0.80,1379.20,M,-18.546,M,,*40##0
$GPRMC,181345,A,3825.1495,N,11046.9855,W,0.0000,0.000,050610,,*31##1
$GPGSA,A,3,11,31,14,20,23,30,16,32,13,,,,1.6,0.8,1.3*3C##0
$PGRME,0.00,M,0.00,M,6.25,M*1F##921
$GPGGA,181346,3825.1495,N,11046.9855,W,1,09,0.80,1379.20,M,-18.546,M,,*43##0
$GPRMC,181346,A,3825.1495,N,11046.9855,W,0.0000,0.000,050610,,*32##0
$GPGSA,A,3,11,31,14,20,23,30,16,32,13,,,,1.6,0.8,1.3*3C##1427
$GPGGA,181347,3825.1495,N,11046.9855,W,1,09,0.80,1379.20,M,-18.546,M,,*42##1
$GPRMC,181347,A,3825.1495,N,11046.9855,W,0.0000,0.000,050610,,*33##0
$GPGSA,A,3,11,31,14,20,23,30,16,32,13,,,,1.6,0.8,1.3*3C##659
$GPGGA,181348,3825.1495,N,11046.9855,W,1,09,0.80,1379.20,M,-18.546,M,,*4D##1
$GPRMC,181348,A,3825.1495,N,11046.9855,W,0.0000,0.000,050610,,*3C##0
$GPGSA,A,3,11,31,14,20,23,30,16,32,13,,,,1.6,0.8,1.3*3C##975
$GPGGA,181349,3825.1495,N,11046.9855,W,1,09,0.80,1379.20,M,-18.546,M,,*4C##0
$GPRMC,181349,A,3825.1495,N,11046.9855,W,0.0000,0.000,050610,,*3D##1
$GPGSA,A,3,11,31,14,20,23,30,16,32,13,,,,1.6,0.8,1.3*3C##1269
$GPGSV,3,1,09,16,27,147,31,30,07,036,32,31,53,045,40,32,82,304,35*7B##0
$GPGSV,3,2,09,11,19,240,29,23,27,286,34,14,15,079,36,20,54,306,32*76##1
$GPGSV,3,3,09,13,05,274,28*4C##207
$GPGGA,181350,3825.1495,N,11046.9855,W,1,09,0.80,1379.20,M,-18.546,M,,*44##0
$GPRMC,181350,A,3825.1495,N,11046.9855,W,0.0000,0.000,050610,,*35##1
$GPGSA,A,3,11,31,14,20,23,30,16,32,13,,,,1.6,0.8,1.3*3C##504
$GPGGA,181351,3825.1499,N,11046.9855,W,1,09,0.80,1379.82,M,-18.546,M,,*41##4
$GPRMC,181351,A,3825.1499,N,11046.9855,W,0.0000,0.000,050610,,*38##0
$GPGSA,A,3,11,31,14,20,23,30,16,32,13,,,,1.6,0.8,1.3*3C##1
$PGRME,0.00,M,0.00,M,6.25,M*1F##938
$GPGGA,181352,3825.1499,N,11046.9855,W,1,09,0.80,1379.82,M,-18.546,M,,*42##0
$GPRMC,181352,A,3825.1499,N,11046.9855,W,0.0000,0.000,050610,,*3B##1
$GPGSA,A,3,11,31,14,20,23,30,16,32,13,,,,1.6,0.8,1.3*3C##1439
$GPGGA,181353,3825.1499,N,11046.9855,W,1,09,0.80,1379.82,M,-18.546,M,,*43##0
$GPRMC,181353,A,3825.1499,N,11046.9855,W,0.0000,0.000,050610,,*3A##1
$GPGSA,A,3,11,31,14,20,23,30,16,32,13,,,,1.6,0.8,1.3*3C##645
$GPGGA,181354,3825.1499,N,11046.9855,W,1,09,0.80,1379.82,M,-18.546,M,,*44##0
$GPRMC,181354,A,3825.1499,N,11046.9855,W,0.0000,0.000,050610,,*3D##1
$GPGSA,A,3,11,31,14,20,23,30,16,32,13,,,,1.6,0.8,1.3*3C##1014
$GPGGA,181355,3825.1499,N,11046.9855,W,1,09,0.80,1379.82,M,-18.546,M,,*45##1
$GPRMC,181355,A,3825.1499,N,11046.9855,W,0.0000,0.000,050610,,*3C##0
$GPGSA,A,3,11,31,14,20,23,30,16,32,13,,,,1.6,0.8,1.3*3C##0
$PGRME,0.00,M,0.00,M,6.25,M*1F##1457
$GPGGA,181356,3825.1499,N,11046.9855,W,1,09,0.80,1379.82,M,-18.546,M,,*46##0
$GPRMC,181356,A,3825.1499,N,11046.9855,W,0.0000,0.000,050610,,*3F##1
$GPGSA,A,3,11,31,14,20,23,30,16,32,13,,,,1.6,0.8,1.3*3C##513
$GPGGA,181357,3825.1499,N,11046.9855,W,1,09,0.80,1379.82,M,-18.546,M,,*47##0
$GPRMC,181357,A,3825.1499,N,11046.9855,W,0.0000,0.000,050610,,*3E##1
$GPGSA,A,3,11,31,14,20,23,30,16,32,13,,,,1.6,0.8,1.3*3C##0
$PGRME,0.00,M,0.00,M,6.25,M*1F##948
$GPGGA,181358,3825.1499,N,11046.9855,W,1,09,0.80,1379.82,M,-18.546,M,,*48##0
$GPRMC,181358,A,3825.1499,N,11046.9855,W,0.0000,0.000,050610,,*31##1
$GPGSA,A,3,11,31,14,20,23,30,16,32,13,,,,1.6,0.8,1.3*3C##1507
$GPGGA,181359,3825.1499,N,11046.9855,W,1,09,0.80,1379.82,M,-18.546,M,,*49##0
$GPRMC,181359,A,3825.1499,N,11046.9855,W,0.0000,0.000,050610,,*30##1
$GPGSA,A,3,11,31,14,20,23,30,16,32,13,,,,1.6,0.8,1.3*3C##498
$GPGGA,181400,3825.1499,N,11046.9855,W,1,09,0.80,1379.82,M,-18.546,M,,*42##0
$GPRMC,181400,A,3825.1499,N,11046.9855,W,0.0000,0.000,050610,,*3B##0
$GPGSA,A,3,11,31,14,20,23,30,16,32,13,,,,1.6,0.8,1.3*3C##0
$PGRME,0.00,M,0.00,M,6.25,M*1F##939
$GPGGA,181401,3825.1499,N,11046.9855,W,1,09,0.80,1379.82,M,-18.546,M,,*43##0
$GPRMC,181401,A,3825.1499,N,11046.9855,W,0.0000,0.000,050610,,*3A##1
$GPGSA,A,3,11,31,14,20,23,30,16,32,13,,,,1.6,0.8,1.3*3C##1555
$GPGGA,181402,3825.1499,N,11046.9855,W,1,09,0.80,1379.82,M,-18.546,M,,*40##1
$GPRMC,181402,A,3825.1499,N,11046.9855,W,0.0000,0.000,050610,,*39##0
$GPGSA,A,3,11,31,14,20,23,30,16,32,13,,,,1.6,0.8,1.3*3C##1
$PGRME,0.00,M,0.00,M,6.25,M*1F##588
$GPGGA,181403,3825.1499,N,11046.9855,W,1,09,0.80,1379.82,M,-18.546,M,,*41##0
$GPRMC,181403,A,3825.1499,N,11046.9855,W,0.0000,0.000,050610,,*38##1
$GPGSA,A,3,11,31,14,20,23,30,16,32,13,,,,1.6,0.8,1.3*3C##915
$GPGGA,181404,3825.1499,N,11046.9855,W,1,09,0.80,1379.82,M,-18.546,M,,*46##1
$GPRMC,181404,A,3825.1499,N,11046.9855,W,0.0000,0.000,050610,,*3F##1
$GPGSA,A,3,11,31,14,20,23,30,16,32,13,,,,1.6,0.8,1.3*3C##0
$PGRME,0.00,M,0.00,M,6.25,M*1F##1376
$GPGSV,3,1,09,16,27,147,31,30,07,036,30,31,53,045,40,32,82,304,35*79##0
$GPGSV,3,2,09,11,19,240,28,23,27,286,34,14,15,079,36,20,54,306,32*77##0
$GPGSV,3,3,09,13,05,274,27*43##130
$GPGGA,181405,3825.1499,N,11046.9855,W,1,09,0.80,1379.82,M,-18.546,M,,*47##0
$GPRMC,181405,A,3825.1499,N,11046.9855,W,0.0000,0.000,050610,,*3E##0
$GPGSA,A,3,11,31,14,20,23,30,16,32,13,,,,1.6,0.8,1.3*3C##612
$GPGGA,181406,3825.1499,N,11046.9855,W,1,09,0.80,1379.82,M,-18.546,M,,*44##0
$GPRMC,181406,A,3825.1499,N,11046.9855,W,0.0000,0.000,050610,,*3D##0
$GPGSA,A,3,11,31,14,20,23,30,16,32,13,,,,1.6,0.8,1.3*3C##0
$PGRME,0.00,M,0.00,M,6.25,M*1F##956
$GPGGA,181407,3825.1499,N,11046.9855,W,1,09,0.80,1379.82,M,-18.546,M,,*45##0
$GPRMC,181407,A,3825.1499,N,11046.9855,W,0.0000,0.000,050610,,*3C##0
$GPGSA,A,3,11,31,14,20,23,30,16,32,13,,,,1.6,0.8,1.3*3C##1428
$GPGGA,181408,3825.1499,N,11046.9855,W,1,09,0.80,1379.82,M,-18.546,M,,*4A##0
$GPRMC,181408,A,3825.1499,N,11046.9855,W,0.0000,0.000,050610,,*33##1
$GPGSA,A,3,11,31,14,20,23,30,16,32,13,,,,1.6,0.8,1.3*3C##581
$GPGGA,181409,3825.1499,N,11046.9855,W,1,09,0.80,1379.82,M,-18.546,M,,*4B##0
$GPRMC,181409,A,3825.1499,N,11046.9855,W,0.0000,0.000,050610,,*32##1
$GPGSA,A,3,11,31,14,20,23,30,16,32,13,,,,1.6,0.8,1.3*3C##983
$GPGGA,181410,3825.1499,N,11046.9855,W,1,09,0.80,1379.82,M,-18.546,M,,*43##1
$GPRMC,181410,A,3825.1499,N,11046.9855,W,0.0000,0.000,050610,,*3A##0
$GPGSA,A,3,11,31,14,20,23,30,16,32,13,,,,1.6,0.8,1.3*3C##1442
$GPGGA,181411,3825.1499,N,11046.9855,W,1,09,0.80,1379.82,M,-18.546,M,,*42##0
$GPRMC,181411,A,3825.1499,N,11046.9855,W,0.0000,0.000,050610,,*3B##1
$GPGSA,A,3,11,31,14,20,23,30,16,32,13,,,,1.6,0.8,1.3*3C##0
$PGRME,0.00,M,0.00,M,6.25,M*1F##480
$GPGGA,181412,3825.1499,N,11046.9855,W,1,09,0.80,1379.82,M,-18.546,M,,*41##0
$GPRMC,181412,A,3825.1499,N,11046.9855,W,0.0000,0.000,050610,,*38##1
$GPGSA,A,3,11,31,14,20,23,30,16,32,13,,,,1.6,0.8,1.3*3C##1028
$GPGGA,181413,3825.1495,N,11046.9855,W,1,09,0.80,1379.20,M,-18.546,M,,*44##3
$GPRMC,181413,A,3825.1495,N,11046.9855,W,0.0000,0.000,050610,,*35##0
$GPGSA,A,3,11,31,14,20,23,30,16,32,13,,,,1.6,0.8,1.3*3C##0
$PGRME,0.00,M,0.00,M,6.25,M*1F##1464
$GPGGA,181414,3825.1495,N,11046.9855,W,1,09,0.80,1379.20,M,-18.546,M,,*43##1
$GPRMC,181414,A,3825.1495,N,11046.9855,W,0.0000,0.000,050610,,*32##0
$GPGSA,A,3,11,31,14,20,23,30,16,32,13,,,,1.6,0.8,1.3*3C##0
$PGRME,0.00,M,0.00,M,6.25,M*1F##505
$GPGGA,181415,3825.1495,N,11046.9855,W,1,09,0.80,1379.20,M,-18.546,M,,*42##0
$GPRMC,181415,A,3825.1495,N,11046.9855,W,0.0000,0.000,050610,,*33##1
$GPGSA,A,3,11,31,14,20,23,30,16,32,13,,,,1.6,0.8,1.3*3C##0
$PGRME,0.00,M,0.00,M,6.25,M*1F##1066
$GPGGA,181416,3825.1495,N,11046.9855,W,1,09,0.80,1379.20,M,-18.546,M,,*41##0
$GPRMC,181416,A,3825.1495,N,11046.9855,W,0.0000,0.000,050610,,*30##1
$GPGSA,A,3,11,31,14,20,23,30,16,32,13,,,,1.6,0.8,1.3*3C##1473
$GPGGA,181417,3825.1495,N,11046.9855,W,1,09,0.80,1379.20,M,-18.546,M,,*40##0
$GPRMC,181417,A,3825.1495,N,11046.9855,W,0.0000,0.000,050610,,*31##1
$GPGSA,A,3,11,31,14,20,23,30,16,32,13,,,,1.6,0.8,1.3*3C##0
$PGRME,0.00,M,0.00,M,6.25,M*1F##543
$GPGGA,181418,3825.1495,N,11046.9855,W,1,09,0.80,1379.20,M,-18.546,M,,*4F##0
$GPRMC,181418,A,3825.1495,N,11046.9855,W,0.0000,0.000,050610,,*3E##1
$GPGSA,A,3,11,31,14,20,23,30,16,32,13,,,,1.6,0.8,1.3*3C##1003
$GPGGA,181419,3825.1495,N,11046.9855,W,1,09,0.80,1379.20,M,-18.546,M,,*4E##0
$GPRMC,181419,A,3825.1495,N,11046.9855,W,0.0000,0.000,050610,,*3F##0
$GPGSA,A,3,11,31,14,20,23,30,16,32,13,,,,1.6,0.8,1.3*3C##1
$PGRME,0.00,M,0.00,M,6.25,M*1F##1224
$GPGSV,3,1,09,16,27,147,32,30,07,036,29,31,53,045,40,32,82,304,35*72##0
$GPGSV,3,2,09,11,19,240,28,23,27,286,35,14,15,079,35,20,54,306,31*76##1
$GPGSV,3,3,09,13,05,274,26*42##186
$GPGGA,181420,3825.1495,N,11046.9855,W,1,09,0.80,1379.20,M,-18.546,M,,*44##0
$GPRMC,181420,A,3825.1495,N,11046.9855,W,0.0000,0.000,050610,,*35##0
$GPGSA,A,3,11,31,14,20,23,30,16,32,13,,,,1.6,0.8,1.3*3C##497
$GPGGA,181421,3825.1495,N,11046.9855,W,1,09,0.80,1379.20,M,-18.546,M,,*45##1
$GPRMC,181421,A,3825.1495,N,11046.9855,W,0.0000,0.000,050610,,*34##0
$GPGSA,A,3,11,31,14,20,23,30,16,32,13,,,,1.6,0.8,1.3*3C##980
$GPGGA,181422,3825.1495,N,11046.9855,W,1,09,0.80,1379.20,M,-18.546,M,,*46##0
$GPRMC,181422,A,3825.1495,N,11046.9855,W,0.0000,0.000,050610,,*37##1
$GPGSA,A,3,11,31,14,20,23,30,16,32,13,,,,1.6,0.8,1.3*3C##0
$PGRME,0.00,M,0.00,M,6.25,M*1F##1500
$GPGGA,181423,3825.1495,N,11046.9855,W,1,09,0.80,1379.20,M,-18.546,M,,*47##0
$GPRMC,181423,A,3825.1495,N,11046.9855,W,0.0000,0.000,050610,,*36##1
$GPGSA,A,3,11,31,14,20,23,30,16,32,13,,,,1.6,0.8,1.3*3C##508
$GPGGA,181424,3825.1495,N,11046.9855,W,1,09,0.80,1379.20,M,-18.546,M,,*40##0
$GPRMC,181424,A,3825.1495,N,11046.9855,W,0.0000,0.000,050610,,*31##1
$GPGSA,A,3,11,31,14,20,23,30,16,32,13,,,,1.6,0.8,1.3*3C##1084
$GPGGA,181425,3825.1494,N,11046.9861,W,1,09,0.80,1379.47,M,-18.546,M,,*46##4
$GPRMC,181425,A,3825.1494,N,11046.9861,W,1.3080,240.272,050610,,*3D##2
$GPGSA,A,3,11,31,14,20,23,30,16,32,13,,,,1.6,0.8,1.3*3C##0
$PGRME,0.00,M,0.00,M,6.25,M*1F##1430
$GPGGA,181426,3825.1489,N,11046.9868,W,1,09,0.80,1379.13,M,-18.546,M,,*41##3
$GPRMC,181426,A,3825.1489,N,11046.9868,W,2.3985,234.734,050610,,*30##2
$GPGSA,A,3,11,31,14,20,23,30,16,32,13,,,,1.6,0.8,1.3*3C##0
$PGRME,0.00,M,0.00,M,6.25,M*1F##551
$GPGGA,181427,3825.1487,N,11046.9874,W,1,09,0.80,1379.41,M,-18.546,M,,*44##3
$GPRMC,181427,A,3825.1487,N,11046.9874,W,2.7257,233.304,050610,,*32##1
$GPGSA,A,3,11,31,14,20,23,30,16,32,13,,,,1.6,0.8,1.3*3C##0
$PGRME,0.00,M,0.00,M,6.25,M*1F##965
$GPGGA,181428,3825.1482,N,11046.9881,W,1,09,0.80,1379.06,M,-18.546,M,,*47##4
$GPRMC,181428,A,3825.1482,N,11046.9881,W,2.7257,233.304,050610,,*32##1
$GPGSA,A,3,11,31,14,20,23,30,16,32,13,,,,1.6,0.8,1.3*3C##0
$PGRME,0.00,M,0.00,M,6.25,M*1F##1395
$GPGGA,181429,3825.1477,N,11046.9887,W,1,09,0.80,1378.72,M,-18.546,M,,*48##3
$GPRMC,181429,A,3825.1477,N,11046.9887,W,2.7154,236.781,050610,,*33##1
$GPGSA,A,3,11,31,14,20,23,30,16,32,13,,,,1.6,0.8,1.3*3C##0
$PGRME,0.00,M,0.00,M,6.25,M*1F##684
$GPGGA,181430,3825.1474,N,11046.9900,W,1,09,0.80,1379.28,M,-18.546,M,,*43##3
$GPRMC,181430,A,3825.1474,N,11046.9900,W,2.7154,236.781,050610,,*36##1
$GPGSA,A,3,11,31,14,20,23,30,16,32,13,,,,1.6,0.8,1.3*3C##0
$PGRME,0.00,M,0.00,M,6.25,M*1F##970
$GPGGA,181431,3825.1469,N,11046.9906,W,1,09,0.80,1378.93,M,-18.546,M,,*49##4
$GPRMC,181431,A,3825.1469,N,11046.9906,W,2.7154,236.781,050610,,*3D##0
$GPGSA,A,3,11,31,14,20,23,30,16,32,13,,,,1.6,0.8,1.3*3C##0
$PGRME,0.00,M,0.00,M,6.25,M*1F##1427
$GPGGA,181432,3825.1463,N,11046.9913,W,1,09,0.80,1378.59,M,-18.546,M,,*42##3
$GPRMC,181432,A,3825.1463,N,11046.9913,W,2.8541,244.923,050610,,*3C##1
$GPGSA,A,3,11,31,14,20,23,30,16,32,13,,,,1.6,0.8,1.3*3C##0
$PGRME,0.00,M,0.00,M,6.25,M*1F##505
$GPGGA,181433,3825.1461,N,11046.9925,W,1,09,0.80,1379.15,M,-18.546,M,,*4D##5
$GPRMC,181433,A,3825.1461,N,11046.9925,W,2.9359,238.335,050610,,*32##1
$GPGSA,A,3,11,31,14,20,23,30,16,32,13,,,,1.6,0.8,1.3*3C##1
$PGRME,0.00,M,0.00,M,6.25,M*1F##950
$GPGGA,181434,3825.1455,N,11046.9932,W,1,09,0.80,1378.80,M,-18.546,M,,*46##2
$GPRMC,181434,A,3825.1455,N,11046.9932,W,2.6160,240.271,050610,,*3D##2
$GPGSA,A,3,11,31,14,20,23,30,16,32,13,,,,1.6,0.8,1.3*3C##0
$PGRME,0.00,M,0.00,M,6.25,M*1F##1376
$GPGSV,3,1,09,16,27,147,32,30,07,036,34,31,53,045,40,32,82,304,34*7F##1
$GPGSV,3,2,09,11,19,240,23,23,27,286,33,14,15,079,27,20,54,306,32*7B##0
$GPGSV,3,3,09,13,05,274,28*4C##90
$GPGGA,181435,3825.1454,N,11046.9938,W,1,09,0.80,1379.08,M,-18.546,M,,*4D##4
$GPRMC,181435,A,3825.1454,N,11046.9938,W,2.8541,244.923,050610,,*36##1
$GPGSA,A,3,11,31,14,20,23,30,16,32,13,,,,1.6,0.8,1.3*3C##595
$GPGGA,181436,3825.1449,N,11046.9945,W,1,09,0.80,1378.74,M,-18.546,M,,*42##3
$GPRMC,181436,A,3825.1449,N,11046.9945,W,2.6160,240.271,050610,,*32##2
$GPGSA,A,3,11,31,14,20,23,30,16,32,13,,,,1.6,0.8,1.3*3C##930
$GPGGA,181437,3825.1442,N,11046.9958,W,1,09,0.80,1378.67,M,-18.546,M,,*46##3
$GPRMC,181437,A,3825.1442,N,11046.9958,W,2.6160,240.271,050610,,*34##1
$GPGSA,A,3,11,31,14,20,23,30,16,32,13,,,,1.6,0.8,1.3*3C##1515
$GPGGA,181438,3825.1441,N,11046.9964,W,1,09,0.80,1378.95,M,-18.546,M,,*48##3
$GPRMC,181438,A,3825.1441,N,11046.9964,W,2.7154,236.781,050610,,*3A##1
$GPGSA,A,3,11,31,14,20,23,30,16,32,13,,,,1.6,0.8,1.3*3C##494
$GPGGA,181439,3825.1436,N,11046.9970,W,1,09,0.80,1378.61,M,-18.546,M,,*47##2
$GPRMC,181439,A,3825.1436,N,11046.9970,W,2.6160,240.271,050610,,*33##1
$GPGSA,A,3,11,31,14,20,23,30,16,32,13,,,,1.6,0.8,1.3*3C##957
$GPGGA,181440,3825.1433,N,11046.9983,W,1,09,0.80,1379.16,M,-18.546,M,,*41##3
$GPRMC,181440,A,3825.1433,N,11046.9983,W,2.6160,240.271,050610,,*34##1
$GPGSA,A,3,11,31,14,20,23,30,16,32,13,,,,1.6,0.8,1.3*3C##1500
$GPGGA,181441,3825.1428,N,11046.9990,W,1,09,0.80,1378.82,M,-18.546,M,,*44##3
$GPRMC,181441,A,3825.1428,N,11046.9990,W,2.6160,240.271,050610,,*3D##1
$GPGSA,A,3,11,31,14,20,23,30,16,32,13,,,,1.6,0.8,1.3*3C##609
$GPGGA,181442,3825.1427,N,11046.9996,W,1,09,0.80,1379.10,M,-18.546,M,,*44##3
$GPRMC,181442,A,3825.1427,N,11046.9996,W,2.7257,233.304,050610,,*36##2
$GPGSA,A,3,11,31,14,20,23,30,16,32,13,,,,1.6,0.8,1.3*3C##964
$GPGGA,181443,3825.1421,N,11047.0003,W,1,09,0.80,1378.75,M,-18.546,M,,*4C##3
$GPRMC,181443,A,3825.1421,N,11047.0003,W,2.6164,236.648,050610,,*36##1
$GPGSA,A,3,11,31,14,20,23,30,16,32,13,,,,1.6,0.8,1.3*3C##1417
$GPGGA,181444,3825.1415,N,11047.0015,W,1,09,0.80,1378.69,M,-18.546,M,,*46##4
$GPRMC,181444,A,3825.1415,N,11047.0015,W,2.6160,240.271,050610,,*3A##1
$GPGSA,A,3,11,31,14,20,23,30,16,32,13,,,,1.6,0.8,1.3*3C##566
$GPGGA,181445,3825.1413,N,11047.0022,W,1,09,0.80,1378.97,M,-18.546,M,,*44##3
$GPRMC,181445,A,3825.1413,N,11047.0022,W,2.6160,240.271,050610,,*39##0
$GPGSA,A,3,11,31,14,20,23,30,16,32,13,,,,1.6,0.8,1.3*3C##902
$GPGGA,181446,3825.1408,N,11047.0028,W,1,09,0.80,1378.62,M,-18.546,M,,*4D##3
$GPRMC,181446,A,3825.1408,N,11047.0028,W,2.8406,241.605,050610,,*37##2
$GPGSA,A,3,11,31,14,20,23,30,16,32,13,,,,1.6,0.8,1.3*3C##1482
$GPGGA,181447,3825.1406,N,11047.0041,W,1,08,0.80,1379.18,M,-18.546,M,,*40##2
$GPRMC,181447,A,3825.1406,N,11047.0041,W,2.9413,235.111,050610,,*33##1
$GPGSA,A,3,11,31,20,23,30,16,32,13,,,,,1.6,0.8,1.3*39##627
$GPGGA,181448,3825.1400,N,11047.0047,W,1,09,0.80,1378.84,M,-18.546,M,,*4A##4
$GPRMC,181448,A,3825.1400,N,11047.0047,W,2.9413,235.111,050610,,*3C##1
$GPGSA,A,3,11,31,14,20,23,30,16,32,13,,,,1.6,0.8,1.3*3C##943
$GPGGA,181449,3825.1394,N,11047.0060,W,1,09,0.80,1378.77,M,-18.546,M,,*48##5
$GPRMC,181449,A,3825.1394,N,11047.0060,W,2.9359,238.335,050610,,*32##1
$GPGSA,A,3,11,31,14,20,23,30,16,32,13,,,,1.6,0.8,1.3*3C##1288
$GPGSV,3,1,09,16,27,147,31,30,07,036,38,31,53,045,41,32,82,304,35*70##1
$GPGSV,3,2,09,11,19,240,27,23,27,286,33,14,15,079,32,20,54,306,33*7A##0
$GPGSV,3,3,09,13,05,274,27*43##186
$GPGGA,181450,3825.1388,N,11047.0067,W,1,09,0.80,1378.43,M,-18.546,M,,*4D##3
$GPRMC,181450,A,3825.1388,N,11047.0067,W,2.9359,238.335,050610,,*30##1
$GPGSA,A,3,11,31,14,20,23,30,16,32,13,,,,1.6,0.8,1.3*3C##551
$GPGGA,181451,3825.1387,N,11047.0073,W,1,09,0.80,1378.71,M,-18.546,M,,*47##3
$GPRMC,181451,A,3825.1387,N,11047.0073,W,2.9359,238.335,050610,,*3B##1
$GPGSA,A,3,11,31,14,20,23,30,16,32,13,,,,1.6,0.8,1.3*3C##975
$GPGGA,181452,3825.1380,N,11047.0086,W,1,09,0.80,1378.64,M,-18.546,M,,*4D##4
$GPRMC,181452,A,3825.1380,N,11047.0086,W,2.7154,236.781,050610,,*31##1
$GPGSA,A,3,11,31,14,20,23,30,16,32,13,,,,1.6,0.8,1.3*3C##1465
$GPGGA,181453,3825.1379,N,11047.0092,W,1,09,0.80,1378.92,M,-18.546,M,,*46##1
$GPRMC,181453,A,3825.1379,N,11047.0092,W,2.6261,243.881,050610,,*3A##1
$GPGSA,A,3,11,31,14,20,23,30,16,32,13,,,,1.6,0.8,1.3*3C##541
$GPGGA,181454,3825.1374,N,11047.0099,W,1,09,0.80,1378.57,M,-18.546,M,,*4E##3
$GPRMC,181454,A,3825.1374,N,11047.0099,W,2.4973,234.954,050610,,*38##1
$GPGSA,A,3,11,31,14,20,23,30,16,32,13,,,,1.6,0.8,1.3*3C##982
$GPGGA,181455,3825.1368,N,11047.0105,W,1,09,0.80,1378.23,M,-18.546,M,,*45##3
$GPRMC,181455,A,3825.1368,N,11047.0105,W,2.6160,240.271,050610,,*37##2
$GPGSA,A,3,11,31,14,20,23,30,16,32,13,,,,1.6,0.8,1.3*3C##1372
$GPGGA,181456,3825.1366,N,11047.0118,W,1,09,0.80,1378.79,M,-18.546,M,,*4B##3
$GPRMC,181456,A,3825.1366,N,11047.0118,W,2.8406,241.605,050610,,*3B##2
$GPGSA,A,3,11,31,14,20,23,30,16,32,13,,,,1.6,0.8,1.3*3C##552
$GPGGA,181457,3825.1364,N,11047.0127,W,1,09,0.80,1377.71,M,-18.546,M,,*43##3
$GPRMC,181457,A,3825.1364,N,11047.0127,W,2.8406,241.605,050610,,*34##1
$GPGSA,A,3,11,31,14,20,23,30,16,32,13,,,,1.6,0.8,1.3*3C##1014
$GPGGA,181458,3825.1357,N,11047.0140,W,1,09,0.80,1377.65,M,-18.546,M,,*48##3
$GPRMC,181458,A,3825.1357,N,11047.0140,W,2.9359,238.335,050610,,*3E##1
$GPGSA,A,3,11,31,14,20,23,30,16,32,13,,,,1.6,0.8,1.3*3C##1512
$GPGGA,181459,3825.1356,N,11047.0146,W,1,09,0.80,1377.92,M,-18.546,M,,*46##3
$GPRMC,181459,A,3825.1356,N,11047.0146,W,2.7154,236.781,050610,,*3C##1
$GPGSA,A,3,11,31,14,20,23,30,16,32,13,,,,1.6,0.8,1.3*3C##563
$GPGGA,181500,3825.1350,N,11047.0153,W,1,09,0.80,1377.58,M,-18.546,M,,*4F##3
$GPRMC,181500,A,3825.1350,N,11047.0153,W,2.1724,236.781,050610,,*34##1
$GPGSA,A,3,11,31,14,20,23,30,16,32,13,,,,1.6,0.8,1.3*3C##926
$GPGGA,181501,3825.1350,N,11047.0153,W,1,09,0.80,1377.58,M,-18.546,M,,*4E##1
$GPRMC,181501,A,3825.1350,N,11047.0153,W,0.5431,236.781,050610,,*34##1
$GPGSA,A,3,11,31,14,20,23,30,16,32,13,,,,1.6,0.8,1.3*3C##1458
$GPGGA,181502,3825.1346,N,11047.0153,W,1,09,0.80,1376.96,M,-18.546,M,,*49##3
$GPRMC,181502,A,3825.1346,N,11047.0153,W,0.0000,0.000,050610,,*3A##1
$GPGSA,A,3,11,31,14,20,23,30,16,32,13,,,,1.6,0.8,1.3*3C##530
$GPGGA,181503,3825.1346,N,11047.0153,W,1,09,0.80,1376.96,M,-18.546,M,,*48##1
$GPRMC,181503,A,3825.1346,N,11047.0153,W,0.2334,76.729,050610,,*00##1
$GPGSA,A,3,11,31,14,20,23,30,16,32,13,,,,1.6,0.8,1.3*3C##999
$GPGGA,181504,3825.1346,N,11047.0153,W,1,09,0.80,1376.96,M,-18.546,M,,*4F##1
$GPRMC,181504,A,3825.1346,N,11047.0153,W,0.0000,0.000,050610,,*3C##1
$GPGSA,A,3,11,31,14,20,23,30,16,32,13,,,,1.6,0.8,1.3*3C##1327
$GPGSV,3,1,09,16,28,147,31,30,07,036,39,31,53,045,42,32,83,300,34*79##0
$GPGSV,3,2,09,11,19,238,23,23,27,286,33,14,14,079,30,20,54,304,34*77##0
$GPGSV,3,3,09,13,05,276,26*40##172
$GPGGA,181505,3825.1346,N,11047.0153,W,1,09,0.80,1376.96,M,-18.546,M,,*4E##1
$GPRMC,181505,A,3825.1346,N,11047.0153,W,0.0000,0.000,050610,,*3D##0
$GPGSA,A,3,11,31,14,20,23,30,16,32,13,,,,1.6,0.8,1.3*3C##581
$GPGGA,181506,3825.1346,N,11047.0153,W,1,09,0.80,1376.96,M,-18.546,M,,*4D##0
$GPRMC,181506,A,3825.1346,N,11047.0153,W,0.0000,0.000,050610,,*3E##1
$GPGSA,A,3,11,31,14,20,23,30,16,32,13,,,,1.6,0.8,1.3*3C##923
$GPGGA,181507,3825.1346,N,11047.0153,W,1,09,0.80,1376.96,M,-18.546,M,,*4C##1
$GPRMC,181507,A,3825.1346,N,11047.0153,W,0.0000,0.000,050610,,*3F##0
$GPGSA,A,3,11,31,14,20,23,30,16,32,13,,,,1.6,0.8,1.3*3C##1516
$GPGGA,181508,3825.1346,N,11047.0153,W,1,09,0.80,1376.96,M,-18.546,M,,*43##0
$GPRMC,181508,A,3825.1346,N,11047.0153,W,0.0000,0.000,050610,,*30##1
$GPGSA,A,3,11,31,14,20,23,30,16,32,13,,,,1.6,0.8,1.3*3C##486
$GPGGA,181509,3825.1342,N,11047.0153,W,1,09,0.80,1376.34,M,-18.546,M,,*4E##1
$GPRMC,181509,A,3825.1342,N,11047.0153,W,0.0000,0.000,050610,,*35##1
$GPGSA,A,3,11,31,14,20,23,30,16,32,13,,,,1.6,0.8,1.3*3C##974
$GPGGA,181510,3825.1341,N,11047.0159,W,1,09,0.80,1376.62,M,-18.546,M,,*4C##2
$GPRMC,181510,A,3825.1341,N,11047.0159,W,0.4189,311.571,050610,,*30##0
$GPGSA,A,3,11,31,14,20,23,30,16,32,13,,,,1.6,0.8,1.3*3C##1536
$GPGGA,181511,3825.1341,N,11047.0159,W,1,09,0.80,1376.62,M,-18.546,M,,*4D##1
$GPRMC,181511,A,3825.1341,N,11047.0159,W,0.0000,0.000,050610,,*35##1
$GPGSA,A,3,11,31,14,20,23,30,16,32,13,,,,1.6,0.8,1.3*3C##508
$GPGGA,181512,3825.1341,N,11047.0159,W,1,09,0.80,1376.62,M,-18.546,M,,*4E##0
$GPRMC,181512,A,3825.1341,N,11047.0159,W,0.0000,0.000,050610,,*36##1
$GPGSA,A,3,11,31,14,20,23,30,16,32,13,,,,1.6,0.8,1.3*3C##988
$GPGGA,181513,3825.1341,N,11047.0159,W,1,09,0.80,1376.62,M,-18.546,M,,*4F##1
$GPRMC,181513,A,3825.1341,N,11047.0159,W,0.0000,0.000,050610,,*37##1
$GPGSA,A,3,11,31,14,20,23,30,16,32,13,,,,1.6,0.8,1.3*3C##1476
$GPGGA,181514,3825.1341,N,11047.0159,W,1,09,0.80,1376.62,M,-18.546,M,,*48##0
$GPRMC,181514,A,3825.1341,N,11047.0159,W,0.0000,0.000,050610,,*30##1
$GPGSA,A,3,11,31,14,20,23,30,16,32,13,,,,1.6,0.8,1.3*3C##574
$GPGGA,181515,3825.1341,N,11047.0159,W,1,09,0.80,1376.62,M,-18.546,M,,*49##1
$GPRMC,181515,A,3825.1341,N,11047.0159,W,0.6851,165.423,050610,,*3C##1
$GPGSA,A,3,11,31,14,20,23,30,16,32,13,,,,1.6,0.8,1.3*3C##939
$GPGGA,181516,3825.1333,N,11047.0157,W,1,09,0.80,1376.73,M,-18.546,M,,*41##4
$GPRMC,181516,A,3825.1333,N,11047.0157,W,1.9125,173.879,050610,,*34##2
$GPGSA,A,3,11,31,14,20,23,30,16,32,13,,,,1.6,0.8,1.3*3C##1466
$GPGGA,181517,3825.1329,N,11047.0157,W,1,09,0.80,1376.11,M,-18.546,M,,*4F##3
$GPRMC,181517,A,3825.1329,N,11047.0157,W,2.0554,165.423,050610,,*32##1
$GPGSA,A,3,11,31,14,20,23,30,16,32,13,,,,1.6,0.8,1.3*3C##627
$GPGGA,181518,3825.1322,N,11047.0154,W,1,09,0.80,1376.22,M,-18.546,M,,*48##4
$GPRMC,181518,A,3825.1322,N,11047.0154,W,2.0633,171.916,050610,,*39##1
$GPGSA,A,3,11,31,14,20,23,30,16,32,13,,,,1.6,0.8,1.3*3C##832
$GPGGA,181519,3825.1314,N,11047.0152,W,1,09,0.80,1376.33,M,-18.546,M,,*4A##3
$GPRMC,181519,A,3825.1314,N,11047.0152,W,1.9125,173.879,050610,,*3B##0
$GPGSA,A,3,11,31,14,20,23,30,16,32,13,,,,1.6,0.8,1.3*3C##1416
$GPGSV,3,1,09,16,28,147,25,30,07,036,42,31,53,045,40,32,83,300,36*70##0
$GPGSV,3,2,09,11,19,238,22,23,27,286,39,14,14,079,33,20,54,304,41*7D##1
$GPGSV,3,3,09,13,05,276,38*4F##170
$GPGGA,181520,3825.1310,N,11047.0152,W,1,09,0.80,1375.71,M,-18.546,M,,*41##4
$GPRMC,181520,A,3825.1310,N,11047.0152,W,2.2876,178.423,050610,,*3A##1
$GPGSA,A,3,11,31,14,20,23,30,16,32,13,,,,1.6,0.8,1.3*3C##440
$GPGGA,181521,3825.1302,N,11047.0156,W,1,09,0.80,1376.10,M,-18.546,M,,*43##2
$GPRMC,181521,A,3825.1302,N,11047.0156,W,2.6225,176.739,050610,,*32##1
$GPGSA,A,3,11,31,14,20,23,30,16,32,13,,,,1.6,0.8,1.3*3C##1015
$GPGGA,181522,3825.1294,N,11047.0153,W,1,09,0.80,1376.21,M,-18.546,M,,*49##3
$GPRMC,181522,A,3825.1294,N,11047.0153,W,2.8126,176.959,050610,,*3C##2
$GPGSA,A,3,11,31,14,20,23,30,16,32,13,,,,1.6,0.8,1.3*3C##1434
$GPGGA,181523,3825.1287,N,11047.0151,W,1,09,0.80,1376.32,M,-18.546,M,,*4A##3
$GPRMC,181523,A,3825.1287,N,11047.0151,W,2.9592,175.437,050610,,*31##2
$GPGSA,A,3,11,31,14,20,23,30,16,32,13,,,,1.6,0.8,1.3*3C##592
$GPGGA,181524,3825.1279,N,11047.0148,W,1,09,0.80,1376.43,M,-18.546,M,,*42##4
$GPRMC,181524,A,3825.1279,N,11047.0148,W,3.1211,171.477,050610,,*3A##1
$GPGSA,A,3,11,31,14,20,23,30,16,32,13,,,,1.6,0.8,1.3*3C##965
$GPGGA,181525,3825.1272,N,11047.0146,W,1,09,0.80,1376.54,M,-18.546,M,,*40##1
$GPRMC,181525,A,3825.1272,N,11047.0146,W,2.9330,170.925,050610,,*3E##0
$GPGSA,A,3,11,31,14,20,23,30,16,32,13,,,,1.6,0.8,1.3*3C##1444
$GPGGA,181526,3825.1259,N,11047.0150,W,1,09,0.80,1376.31,M,-18.547,M,,*4F##3
$GPRMC,181526,A,3825.1259,N,11047.0150,W,2.7807,172.221,050610,,*3F##1
$GPGSA,A,3,11,31,14,20,23,30,16,32,13,,,,1.6,0.8,1.3*3C##626
$GPGGA,181527,3825.1252,N,11047.0148,W,1,09,0.80,1376.42,M,-18.547,M,,*48##3
$GPRMC,181527,A,3825.1252,N,11047.0148,W,2.6225,176.739,050610,,*3F##1
$GPGSA,A,3,11,31,14,20,23,30,16,32,13,,,,1.6,0.8,1.3*3C##978
$GPGGA,181528,3825.1248,N,11047.0148,W,1,09,0.80,1375.80,M,-18.547,M,,*41##4
$GPRMC,181528,A,3825.1248,N,11047.0148,W,2.8126,176.959,050610,,*3D##1
$GPGSA,A,3,11,31,14,20,23,30,16,32,13,,,,1.6,0.8,1.3*3C##1404
$GPGGA,181529,3825.1240,N,11047.0145,W,1,09,0.80,1375.91,M,-18.547,M,,*45##3
$GPRMC,181529,A,3825.1240,N,11047.0145,W,2.8126,176.959,050610,,*39##0
$GPGSA,A,3,11,31,14,20,23,30,16,32,13,,,,1.6,0.8,1.3*3C##597
$GPGGA,181530,3825.1232,N,11047.0149,W,1,09,0.80,1376.30,M,-18.547,M,,*4C##1
$GPRMC,181530,A,3825.1232,N,11047.0149,W,2.8126,176.959,050610,,*38##1
$GPGSA,A,3,11,31,14,20,23,30,16,32,13,,,,1.6,0.8,1.3*3C##931
$GPGGA,181531,3825.1224,N,11047.0147,W,1,09,0.80,1376.41,M,-18.547,M,,*42##2
$GPRMC,181531,A,3825.1224,N,11047.0147,W,2.8126,176.959,050610,,*30##0
$GPGSA,A,3,11,31,14,20,23,30,16,32,13,,,,1.6,0.8,1.3*3C##1432
$GPGGA,181532,3825.1217,N,11047.0144,W,1,09,0.80,1376.52,M,-18.547,M,,*40##1
$GPRMC,181532,A,3825.1217,N,11047.0144,W,2.7807,172.221,050610,,*35##1
$GPGSA,A,3,11,31,14,20,23,30,16,32,13,,,,1.6,0.8,1.3*3C##590
$GPGGA,181533,3825.1205,N,11047.0142,W,1,09,0.80,1376.01,M,-18.547,M,,*42##4
$GPRMC,181533,A,3825.1205,N,11047.0142,W,2.8126,176.959,050610,,*34##1
$GPGSA,A,3,11,31,14,20,23,30,16,32,13,,,,1.6,0.8,1.3*3C##985
$GPGGA,181534,3825.1197,N,11047.0146,W,1,09,0.80,1376.40,M,-18.547,M,,*4C##5
$GPRMC,181534,A,3825.1197,N,11047.0146,W,2.8126,176.959,050610,,*3F##0
$GPGSA,A,3,11,31,14,20,23,30,16,32,13,,,,1.6,0.8,1.3*3C##1301
$GPGSV,3,1,09,16,28,147,24,30,07,036,41,31,53,045,37,32,83,300,36*72##0
$GPGSV,3,2,09,11,19,238,23,23,27,286,38,14,14,079,30,20,54,304,40*7F##0
$GPGSV,3,3,09,13,05,276,36*41##126
$GPGGA,181535,3825.1193,N,11047.0146,W,1,09,0.80,1375.78,M,-18.547,M,,*41##2
$GPRMC,181535,A,3825.1193,N,11047.0146,W,2.5360,183.712,050610,,*3C##1
$GPGSA,A,3,11,31,14,20,23,30,16,32,13,,,,1.6,0.8,1.3*3C##577
$GPGGA,181536,3825.1185,N,11047.0143,W,1,09,0.80,1375.89,M,-18.547,M,,*4E##3
$GPRMC,181536,A,3825.1185,N,11047.0143,W,2.3461,184.013,050610,,*3C##1
$GPGSA,A,3,11,31,14,20,23,30,16,32,13,,,,1.6,0.8,1.3*3C##1013
$GPGGA,181537,3825.1177,N,11047.0147,W,1,09,0.80,1376.28,M,-18.547,M,,*4E##3
$GPRMC,181537,A,3825.1177,N,11047.0147,W,2.4779,178.544,050610,,*3D##1
$GPGSA,A,3,11,31,14,20,23,30,16,32,13,,,,1.6,0.8,1.3*3C##1410
$GPGGA,181538,3825.1169,N,11047.0145,W,1,09,0.80,1376.39,M,-18.547,M,,*4C##3
$GPRMC,181538,A,3825.1169,N,11047.0145,W,2.5360,183.712,050610,,*37##2
$GPGSA,A,3,11,31,14,20,23,30,16,32,13,,,,1.6,0.8,1.3*3C##608
$GPGGA,181539,3825.1162,N,11047.0142,W,1,09,0.80,1376.50,M,-18.547,M,,*4E##2
$GPRMC,181539,A,3825.1162,N,11047.0142,W,2.9592,175.437,050610,,*30##2
$GPGSA,A,3,11,31,14,20,23,30,16,32,13,,,,1.6,0.8,1.3*3C##998
$GPGGA,181540,3825.1153,N,11047.0146,W,1,09,0.80,1376.89,M,-18.547,M,,*42##4
$GPRMC,181540,A,3825.1153,N,11047.0146,W,2.8126,176.959,050610,,*34##2
$GPGSA,A,3,11,31,14,20,23,30,16,32,13,,,,1.6,0.8,1.3*3C##1398
$GPGGA,181541,3825.1146,N,11047.0144,W,1,09,0.80,1377.00,M,-18.547,M,,*45##1
$GPRMC,181541,A,3825.1146,N,11047.0144,W,2.8126,176.959,050610,,*33##1
$GPGSA,A,3,11,31,14,20,23,30,16,32,13,,,,1.6,0.8,1.3*3C##541
$GPGGA,181542,3825.1142,N,11047.0144,W,1,09,0.80,1376.38,M,-18.547,M,,*48##4
$GPRMC,181542,A,3825.1142,N,11047.0144,W,2.6730,181.672,050610,,*35##2
$GPGSA,A,3,11,31,14,20,23,30,16,32,13,,,,1.6,0.8,1.3*3C##953
$GPGGA,181543,3825.1133,N,11047.0148,W,1,09,0.80,1376.77,M,-18.547,M,,*48##3
$GPRMC,181543,A,3825.1133,N,11047.0148,W,2.3461,184.013,050610,,*38##2
$GPGSA,A,3,11,31,14,20,23,30,16,32,13,,,,1.6,0.8,1.3*3C##1533
$GPGGA,181544,3825.1126,N,11047.0146,W,1,09,0.80,1376.88,M,-18.547,M,,*45##3
$GPRMC,181544,A,3825.1126,N,11047.0146,W,2.6137,188.611,050610,,*3E##1
$GPGSA,A,3,11,31,14,20,23,30,16,32,13,,,,1.6,0.8,1.3*3C##463
$GPGGA,181545,3825.1117,N,11047.0150,W,1,09,0.80,1377.27,M,-18.547,M,,*45##2
$GPRMC,181545,A,3825.1117,N,11047.0150,W,2.6137,188.611,050610,,*3A##1
$GPGSA,A,3,11,31,14,20,23,30,16,32,13,,,,1.6,0.8,1.3*3C##1052
$GPGGA,181546,3825.1113,N,11047.0150,W,1,09,0.80,1376.65,M,-18.547,M,,*45##2
$GPRMC,181546,A,3825.1113,N,11047.0150,W,2.5942,195.763,050610,,*3C##1
$GPGSA,A,3,11,31,14,20,23,30,16,32,13,,,,1.6,0.8,1.3*3C##1379
$GPGGA,181547,3825.1104,N,11047.0154,W,1,09,0.80,1377.04,M,-18.547,M,,*40##3
$GPRMC,181547,A,3825.1104,N,11047.0154,W,2.5942,195.763,050610,,*3F##1
$GPGSA,A,3,11,31,14,20,23,30,16,32,13,,,,1.6,0.8,1.3*3C##600
$GPGGA,181548,3825.1096,N,11047.0158,W,1,09,0.80,1377.43,M,-18.547,M,,*4A##3
$GPRMC,181548,A,3825.1096,N,11047.0158,W,2.4894,191.061,050610,,*3C##1
$GPGSA,A,3,11,31,14,20,23,30,16,32,13,,,,1.6,0.8,1.3*3C##880
$GPGGA,181549,3825.1092,N,11047.0158,W,1,09,0.80,1376.80,M,-18.547,M,,*41##3
$GPRMC,181549,A,3825.1092,N,11047.0158,W,2.2134,186.496,050610,,*36##1
$GPGSA,A,3,11,31,14,20,23,30,16,32,13,,,,1.6,0.8,1.3*3C##1374
$GPGSV,3,1,09,16,28,147,20,30,07,036,38,31,53,045,37,32,83,300,36*78##0
$GPGSV,3,2,09,11,19,238,23,23,27,286,35,14,14,079,34,20,54,304,39*78##0
$GPGSV,3,3,09,13,05,276,31*46##176
$GPGGA,181550,3825.1083,N,11047.0161,W,1,09,0.80,1377.19,M,-18.547,M,,*42##4
$GPRMC,181550,A,3825.1083,N,11047.0161,W,2.3461,184.013,050610,,*3B##1
$GPGSA,A,3,11,31,14,20,23,30,16,32,13,,,,1.6,0.8,1.3*3C##597
$GPGGA,181551,3825.1076,N,11047.0159,W,1,09,0.80,1377.30,M,-18.547,M,,*49##3
$GPRMC,181551,A,3825.1076,N,11047.0159,W,2.6730,181.672,050610,,*3D##2
$GPGSA,A,3,11,31,14,20,23,30,16,32,13,,,,1.6,0.8,1.3*3C##992
$GPGGA,181552,3825.1068,N,11047.0157,W,1,09,0.80,1377.42,M,-18.547,M,,*4E##6
$GPRMC,181552,A,3825.1068,N,11047.0157,W,2.6730,181.672,050610,,*3F##1
$GPGSA,A,3,11,31,14,20,23,30,16,32,13,,,,1.6,0.8,1.3*3C##1342
$GPGGA,181553,3825.1060,N,11047.0161,W,1,09,0.80,1377.80,M,-18.547,M,,*4C##4
$GPRMC,181553,A,3825.1060,N,11047.0161,W,2.6225,176.739,050610,,*34##1
$GPGSA,A,3,11,31,14,20,23,30,16,32,13,,,,1.6,0.8,1.3*3C##0
$PGRME,0.00,M,0.00,M,6.25,M*1F##600
$GPGGA,181554,3825.1055,N,11047.0161,W,1,09,0.80,1377.18,M,-18.547,M,,*4C##3
$GPRMC,181554,A,3825.1055,N,11047.0161,W,2.4779,178.544,050610,,*3D##2
$GPGSA,A,3,11,31,14,20,23,30,16,32,13,,,,1.6,0.8,1.3*3C##854
$GPGGA,181555,3825.1048,N,11047.0158,W,1,09,0.80,1377.29,M,-18.547,M,,*49##8
$GPRMC,181555,A,3825.1048,N,11047.0158,W,2.4408,173.173,050610,,*34##2
$GPGSA,A,3,11,31,14,20,23,30,16,32,13,,,,1.6,0.8,1.3*3C##0
$PGRME,0.00,M,0.00,M,6.25,M*1F##1577
$GPGGA,181556,3825.1041,N,11047.0156,W,1,09,0.80,1377.41,M,-18.547,M,,*43##3
$GPRMC,181556,A,3825.1041,N,11047.0156,W,2.7807,172.221,050610,,*35##2
$GPGSA,A,3,11,31,14,20,23,30,16,32,13,,,,1.6,0.8,1.3*3C##529
$GPGGA,181557,3825.1033,N,11047.0153,W,1,09,0.80,1377.52,M,-18.547,M,,*40##3
$GPRMC,181557,A,3825.1033,N,11047.0153,W,2.7807,172.221,050610,,*34##0
$GPGSA,A,3,11,31,14,20,23,30,16,32,13,,,,1.6,0.8,1.3*3C##0
$PGRME,0.00,M,0.00,M,6.25,M*1F##981
$GPGGA,181558,3825.1025,N,11047.0157,W,1,09,0.80,1377.91,M,-18.547,M,,*43##3
$GPRMC,181558,A,3825.1025,N,11047.0157,W,2.5922,171.652,050610,,*3F##2
$GPGSA,A,3,11,31,14,20,23,30,16,32,13,,,,1.6,0.8,1.3*3C##1468
$GPGGA,181559,3825.1017,N,11047.0155,W,1,09,0.80,1378.02,M,-18.547,M,,*44##4
$GPRMC,181559,A,3825.1017,N,11047.0155,W,2.5922,171.652,050610,,*3D##1
$GPGSA,A,3,11,31,14,20,23,30,16,32,13,,,,1.6,0.8,1.3*3C##0
$PGRME,0.00,M,0.00,M,6.25,M*1F##603
$GPGGA,181600,3825.1010,N,11047.0152,W,1,09,0.80,1378.13,M,-18.547,M,,*4B##4
$GPRMC,181600,A,3825.1010,N,11047.0152,W,2.5922,171.652,050610,,*32##1
$GPGSA,A,3,11,31,14,20,23,30,16,32,13,,,,1.6,0.8,1.3*3C##0
$PGRME,0.00,M,0.00,M,6.25,M*1F##888
$GPGGA,181601,3825.1003,N,11047.0150,W,1,09,0.80,1378.24,M,-18.547,M,,*4E##3
$GPRMC,181601,A,3825.1003,N,11047.0150,W,2.4325,176.484,050610,,*31##1
$GPGSA,A,3,11,31,14,20,23,30,16,32,13,,,,1.6,0.8,1.3*3C##0
$PGRME,0.00,M,0.00,M,6.25,M*1F##1555
$GPGGA,181602,3825.0997,N,11047.0156,W,1,09,0.80,1377.90,M,-18.547,M,,*4E##2
$GPRMC,181602,A,3825.0997,N,11047.0156,W,2.6225,176.739,050610,,*37##1
$GPGSA,A,3,11,31,14,20,23,30,16,32,13,,,,1.6,0.8,1.3*3C##1
$PGRME,0.00,M,0.00,M,6.25,M*1F##542
$GPGGA,181603,3825.0990,N,11047.0154,W,1,09,0.80,1378.01,M,-18.547,M,,*4D##3
$GPRMC,181603,A,3825.0990,N,11047.0154,W,2.2876,178.423,050610,,*3D##0
$GPGSA,A,3,11,31,14,20,23,30,16,32,13,,,,1.6,0.8,1.3*3C##0
$PGRME,0.00,M,0.00,M,6.25,M*1F##893
$GPGGA,181604,3825.0983,N,11047.0152,W,1,09,0.80,1378.12,M,-18.547,M,,*4C##3
$GPRMC,181604,A,3825.0983,N,11047.0152,W,2.5826,166.486,050610,,*3C##1
$GPGSA,A,3,11,31,14,20,23,30,16,32,13,,,,1.6,0.8,1.3*3C##0
$PGRME,0.00,M,0.00,M,6.25,M*1F##1406
$GPGSV,3,1,10,16,28,147,28,30,07,036,43,31,53,045,38,32,83,300,36*7B##1
$GPGSV,3,2,10,11,19,238,27,23,27,286,38,14,14,079,23,20,54,304,41*70##0
$GPGSV,3,3,10,13,05,276,38,138,45,174,33*4E##95
$GPGGA,181605,3825.0975,N,11047.0149,W,1,09,0.80,1378.23,M,-18.547,M,,*4C##4
$GPRMC,181605,A,3825.0975,N,11047.0149,W,2.7557,160.565,050610,,*3D##2
$GPGSA,A,3,11,31,14,20,23,30,16,32,13,,,,1.6,0.8,1.3*3C##552
$GPGGA,181606,3825.0968,N,11047.0147,W,1,09,0.80,1378.34,M,-18.547,M,,*4B##2
$GPRMC,181606,A,3825.0968,N,11047.0147,W,2.5826,166.486,050610,,*3F##1
$GPGSA,A,3,11,31,14,20,23,30,16,32,13,,,,1.6,0.8,1.3*3C##1032
$GPGGA,181607,3825.0960,N,11047.0144,W,1,09,0.80,1378.45,M,-18.547,M,,*47##3
$GPRMC,181607,A,3825.0960,N,11047.0144,W,2.5826,166.486,050610,,*35##2
$GPGSA,A,3,11,31,14,20,23,30,16,32,13,,,,1.6,0.8,1.3*3C##1439
$GPGGA,181608,3825.0953,N,11047.0142,W,1,09,0.80,1378.56,M,-18.547,M,,*4C##3
$GPRMC,181608,A,3825.0953,N,11047.0142,W,2.5922,171.652,050610,,*34##2
$GPGSA,A,3,11,31,14,20,23,30,16,32,13,,,,1.6,0.8,1.3*3C##469
$GPGGA,181609,3825.0946,N,11047.0139,W,1,09,0.80,1378.67,M,-18.547,M,,*47##2
$GPRMC,181609,A,3825.0946,N,11047.0139,W,3.2677,166.263,050610,,*34##1
$GPGSA,A,3,11,31,14,20,23,30,16,32,13,,,,1.6,0.8,1.3*3C##1016
$GPGGA,181610,3825.0938,N,11047.0137,W,1,09,0.80,1378.78,M,-18.547,M,,*46##2
$GPRMC,181610,A,3825.0938,N,11047.0137,W,2.9252,166.361,050610,,*31##1
$GPGSA,A,3,11,31,14,20,23,30,16,32,13,,,,1.6,0.8,1.3*3C##1482
$GPGGA,181611,3825.0927,N,11047.0134,W,1,09,0.80,1378.27,M,-18.547,M,,*40##3
$GPRMC,181611,A,3825.0927,N,11047.0134,W,3.1211,171.477,050610,,*35##2
$GPGSA,A,3,11,31,14,20,23,30,16,32,13,,,,1.6,0.8,1.3*3C##560
$GPGGA,181612,3825.0919,N,11047.0132,W,1,09,0.80,1378.39,M,-18.547,M,,*47##3
$GPRMC,181612,A,3825.0919,N,11047.0132,W,3.1938,179.852,050610,,*3E##1
$GPGSA,A,3,11,31,14,20,23,30,16,32,13,,,,1.6,0.8,1.3*3C##977
$GPGGA,181613,3825.0906,N,11047.0136,W,1,09,0.80,1378.15,M,-18.547,M,,*42##3
$GPRMC,181613,A,3825.0906,N,11047.0136,W,3.7716,182.016,050610,,*3D##2
$GPGSA,A,3,11,31,14,20,23,30,16,32,13,,,,1.6,0.8,1.3*3C##1409
$GPGGA,181614,3825.0899,N,11047.0134,W,1,09,0.80,1378.26,M,-18.547,M,,*40##6
$GPRMC,181614,A,3825.0899,N,11047.0134,W,3.7169,178.544,050610,,*36##1
$GPGSA,A,3,11,31,14,20,23,30,16,32,13,,,,1.6,0.8,1.3*3C##579
$GPGGA,181615,3825.0887,N,11047.0135,W,1,09,0.80,1379.39,M,-18.547,M,,*40##4
$GPRMC,181615,A,3825.0887,N,11047.0135,W,3.4866,174.707,050610,,*35##1
$GPGSA,A,3,11,31,14,20,23,30,16,32,13,,,,1.6,0.8,1.3*3C##977
$GPGGA,181616,3825.0876,N,11047.0133,W,1,09,0.80,1378.88,M,-18.547,M,,*40##1
$GPRMC,181616,A,3825.0876,N,11047.0133,W,3.4866,174.707,050610,,*3E##1
$GPGSA,A,3,11,31,14,20,23,30,16,32,13,,,,1.6,0.8,1.3*3C##1437
$GPGGA,181617,3825.0868,N,11047.0130,W,1,09,0.80,1378.99,M,-18.547,M,,*4D##3
$GPRMC,181617,A,3825.0868,N,11047.0130,W,3.1938,179.852,050610,,*3E##2
$GPGSA,A,3,11,31,14,20,23,30,16,32,13,,,,1.6,0.8,1.3*3C##592
$GPGGA,181618,3825.0860,N,11047.0134,W,1,09,0.80,1379.38,M,-18.547,M,,*44##2
$GPRMC,181618,A,3825.0860,N,11047.0134,W,3.4447,183.644,050610,,*31##1
$GPGSA,A,3,11,31,14,20,23,30,16,32,13,,,,1.6,0.8,1.3*3C##973
$GPGGA,181619,3825.0848,N,11047.0132,W,1,09,0.80,1378.87,M,-18.547,M,,*4C##1
$GPRMC,181619,A,3825.0848,N,11047.0132,W,3.3842,179.860,050610,,*3F##1
$GPGSA,A,3,11,31,14,20,23,30,16,32,13,,,,1.6,0.8,1.3*3C##1283
$GPGSV,3,1,10,16,28,147,22,30,07,036,40,31,53,045,37,32,83,300,36*7D##1
$GPGSV,3,2,10,11,19,238,18,23,27,286,37,14,14,079,27,20,54,304,40*76##0
$GPGSV,3,3,10,13,05,276,33,138,45,174,25*42##173
$GPGGA,181620,3825.0840,N,11047.0136,W,1,09,0.80,1379.26,M,-18.547,M,,*40##2
$GPRMC,181620,A,3825.0840,N,11047.0136,W,3.1490,175.713,050610,,*3F##1
$GPGSA,A,3,11,31,14,20,23,30,16,32,13,,,,1.6,0.8,1.3*3C##594
$GPGGA,181621,3825.0832,N,11047.0133,W,1,09,0.80,1379.37,M,-18.547,M,,*41##4
$GPRMC,181621,A,3825.0832,N,11047.0133,W,2.6137,188.611,050610,,*31##1
$GPGSA,A,3,11,31,14,20,23,30,16,32,13,,,,1.6,0.8,1.3*3C##891
$GPGGA,181622,3825.0827,N,11047.0140,W,1,09,0.80,1379.02,M,-18.547,M,,*44##3
$GPRMC,181622,A,3825.0827,N,11047.0140,W,2.5372,201.549,050610,,*3E##1
$GPGSA,A,3,11,31,14,20,23,30,16,32,13,,,,1.6,0.8,1.3*3C##1509
$GPGGA,181623,3825.0820,N,11047.0137,W,1,09,0.80,1379.13,M,-18.548,M,,*4D##4
$GPRMC,181623,A,3825.0820,N,11047.0137,W,3.0167,190.163,050610,,*3D##1
$GPGSA,A,3,11,31,14,20,23,30,16,32,13,,,,1.6,0.8,1.3*3C##572
$GPGGA,181624,3825.0811,N,11047.0141,W,1,09,0.80,1379.52,M,-18.548,M,,*4C##3
$GPRMC,181624,A,3825.0811,N,11047.0141,W,3.2547,183.857,050610,,*31##2
$GPGSA,A,3,11,31,14,20,23,30,16,32,13,,,,1.6,0.8,1.3*3C##993
$GPGGA,181625,3825.0798,N,11047.0145,W,1,09,0.80,1379.29,M,-18.548,M,,*4B##4
