# NMEA GPS data followed by ## then the time in ms before next message was sent
$GPGSV,3,2,09,24,29,159,27,19,19,249,33,30,06,100,30,18,15,100,29*7B##0
$GPGSV,3,3,09,11,20,310,32*41##104
$GPGGA,153907,3823.5222,N,11047.3313,W,1,07,1.20,1351.57,M,-18.586,M,,*4A##4
$GPRMC,153907,A,3823.5222,N,11047.3313,W,0.0000,0.000,040610,,*39##2
$GPGSA,A,3,31,22,14,24,19,30,18,,,,,,0.0,1.2,1.2*31##974
$GPGGA,153908,3823.5214,N,11047.3311,W,1,07,1.20,1351.68,M,-18.586,M,,*4E##2
$GPRMC,153908,A,3823.5214,N,11047.3311,W,0.0000,0.000,040610,,*31##1
$GPGSA,A,3,31,22,14,24,19,30,18,,,,,,0.0,1.2,1.2*31##601
$GPGGA,153909,3823.5217,N,11047.3313,W,1,07,1.20,1350.95,M,-18.586,M,,*4D##2
$GPRMC,153909,A,3823.5217,N,11047.3313,W,0.0000,0.000,040610,,*31##1
$GPGSA,A,3,31,22,14,24,19,30,18,,,,,,0.0,1.2,1.2*31##0
$PGRME,0.00,M,0.00,M,0.00,M*1E##1429
$GPGGA,153910,3823.5214,N,11047.3311,W,1,07,1.20,1351.68,M,-18.586,M,,*47##3
$GPRMC,153910,A,3823.5214,N,11047.3311,W,0.0000,0.000,040610,,*38##3
$GPGSA,A,3,31,22,14,24,19,30,18,,,,,,0.0,1.2,1.2*31##574
$GPGGA,153911,3823.5217,N,11047.3313,W,1,07,1.20,1350.95,M,-18.586,M,,*44##3
$GPRMC,153911,A,3823.5217,N,11047.3313,W,0.0000,0.000,040610,,*38##1
$GPGSA,A,3,31,22,14,24,19,30,18,,,,,,0.0,1.2,1.2*31##1
$PGRME,0.00,M,0.00,M,0.00,M*1E##955
$GPGGA,153912,3823.5217,N,11047.3313,W,1,07,1.20,1350.95,M,-18.586,M,,*47##1
$GPRMC,153912,A,3823.5217,N,11047.3313,W,0.0000,0.000,040610,,*3B##1
$GPGSA,A,3,31,22,14,24,19,30,18,,,,,,0.0,1.2,1.2*31##1447
$GPGGA,153913,3823.5214,N,11047.3311,W,1,07,1.20,1351.68,M,-18.586,M,,*44##3
$GPRMC,153913,A,3823.5214,N,11047.3311,W,0.0000,0.000,040610,,*3B##1
$GPGSA,A,3,31,22,14,24,19,30,18,,,,,,0.0,1.2,1.2*31##0
$PGRME,0.00,M,0.00,M,0.00,M*1E##576
$GPGGA,153914,3823.5222,N,11047.3313,W,1,07,1.20,1351.57,M,-18.586,M,,*48##3
$GPRMC,153914,A,3823.5222,N,11047.3313,W,0.0000,0.000,040610,,*3B##1
$GPGSA,A,3,31,22,14,24,19,30,18,,,,,,0.0,1.2,1.2*31##964
$GPGGA,153915,3823.5222,N,11047.3313,W,1,07,1.20,1351.57,M,-18.586,M,,*49##0
$GPRMC,153915,A,3823.5222,N,11047.3313,W,0.0000,0.000,040610,,*3A##1
$GPGSA,A,3,31,22,14,24,19,30,18,,,,,,0.0,1.2,1.2*31##1
$PGRME,0.00,M,0.00,M,0.00,M*1E##1466
$GPGGA,153916,3823.5222,N,11047.3313,W,1,07,1.20,1351.57,M,-18.586,M,,*4A##0
$GPRMC,153916,A,3823.5222,N,11047.3313,W,0.0000,0.000,040610,,*39##1
$GPGSA,A,3,31,22,14,24,19,30,18,,,,,,0.0,1.2,1.2*31##1
$PGRME,0.00,M,0.00,M,0.00,M*1E##738
$GPGGA,153917,3823.5222,N,11047.3313,W,1,07,1.20,1351.57,M,-18.586,M,,*4B##1
$GPRMC,153917,A,3823.5222,N,11047.3313,W,0.0000,0.000,040610,,*38##1
$GPGSA,A,3,31,22,14,24,19,30,18,,,,,,0.0,1.2,1.2*31##796
$GPGGA,153918,3823.5222,N,11047.3313,W,1,07,1.20,1351.57,M,-18.586,M,,*44##0
$GPRMC,153918,A,3823.5222,N,11047.3313,W,0.0000,0.000,040610,,*37##1
$GPGSA,A,3,31,22,14,24,19,30,18,,,,,,0.0,1.2,1.2*31##1
$PGRME,0.00,M,0.00,M,0.00,M*1E##1441
$GPGGA,153919,3823.5222,N,11047.3313,W,1,07,1.20,1351.57,M,-18.586,M,,*45##0
$GPRMC,153919,A,3823.5222,N,11047.3313,W,0.0000,0.000,040610,,*36##1
$GPGSA,A,3,31,22,14,24,19,30,18,,,,,,0.0,1.2,1.2*31##0
$PGRME,0.00,M,0.00,M,0.00,M*1E##579
$GPGGA,153920,3823.5222,N,11047.3313,W,1,07,1.20,1351.57,M,-18.586,M,,*4F##1
$GPRMC,153920,A,3823.5222,N,11047.3313,W,0.0000,0.000,040610,,*3C##0
$GPGSA,A,3,31,22,14,24,19,30,18,,,,,,0.0,1.2,1.2*31##976
$GPGGA,153921,3823.5222,N,11047.3313,W,1,07,1.20,1351.57,M,-18.586,M,,*4E##1
$GPRMC,153921,A,3823.5222,N,11047.3313,W,0.0000,0.000,040610,,*3D##0
$GPGSA,A,3,31,22,14,24,19,30,18,,,,,,0.0,1.2,1.2*31##1342
$GPGSV,3,1,09,03,04,223,37,22,48,087,36,31,38,171,33,14,70,018,29*7A##0
$GPGSV,3,2,09,24,29,159,30,19,19,249,34,30,06,100,30,18,15,100,31*73##1
$GPGSV,3,3,09,11,20,310,24*46##128
$GPGGA,153922,3823.5223,N,11047.3307,W,1,07,1.20,1351.29,M,-18.586,M,,*40##4
$GPRMC,153922,A,3823.5223,N,11047.3307,W,0.0000,0.000,040610,,*3A##1
$GPGSA,A,3,31,22,14,24,19,30,18,,,,,,0.0,1.2,1.2*31##715
$GPGGA,153923,3823.5223,N,11047.3307,W,1,07,1.20,1351.29,M,-18.586,M,,*41##0
$GPRMC,153923,A,3823.5223,N,11047.3307,W,0.0000,0.000,040610,,*3B##1
$GPGSA,A,3,31,22,14,24,19,30,18,,,,,,0.0,1.2,1.2*31##810
$GPGGA,153924,3823.5222,N,11047.3313,W,1,07,1.20,1351.57,M,-18.586,M,,*4B##3
$GPRMC,153924,A,3823.5222,N,11047.3313,W,0.0000,0.000,040610,,*38##1
$GPGSA,A,3,31,22,14,24,19,30,18,,,,,,0.0,1.2,1.2*31##1441
$GPGGA,153925,3823.5222,N,11047.3313,W,1,07,1.20,1351.57,M,-18.586,M,,*4A##1
$GPRMC,153925,A,3823.5222,N,11047.3313,W,0.0000,0.000,040610,,*39##1
$GPGSA,A,3,31,22,14,24,19,30,18,,,,,,0.0,1.2,1.2*31##0
$PGRME,0.00,M,0.00,M,0.00,M*1E##578
$GPGGA,153926,3823.5222,N,11047.3313,W,1,07,1.20,1351.57,M,-18.586,M,,*49##0
$GPRMC,153926,A,3823.5222,N,11047.3313,W,0.0000,0.000,040610,,*3A##1
$GPGSA,A,3,31,22,14,24,19,30,18,,,,,,0.0,1.2,1.2*31##963
$GPGGA,153927,3823.5222,N,11047.3313,W,1,07,1.20,1351.57,M,-18.586,M,,*48##1
$GPRMC,153927,A,3823.5222,N,11047.3313,W,0.0000,0.000,040610,,*3B##1
$GPGSA,A,3,31,22,14,24,19,30,18,,,,,,0.0,1.2,1.2*31##0
$PGRME,0.00,M,0.00,M,0.00,M*1E##1454
$GPGGA,153928,3823.5222,N,11047.3313,W,1,06,1.40,1351.57,M,-18.586,M,,*40##1
$GPRMC,153928,A,3823.5222,N,11047.3313,W,0.0000,0.000,040610,,*34##1
$GPGSA,A,3,31,22,14,19,30,18,,,,,,,0.0,1.4,1.2*31##1
$PGRME,0.00,M,0.00,M,0.00,M*1E##573
$GPGGA,153929,3823.5222,N,11047.3313,W,1,06,1.40,1351.57,M,-18.586,M,,*41##1
$GPRMC,153929,A,3823.5222,N,11047.3313,W,0.0000,0.000,040610,,*35##0
$GPGSA,A,3,31,22,14,19,30,18,,,,,,,0.0,1.4,1.2*31##0
$PGRME,0.00,M,0.00,M,0.00,M*1E##968
$GPGGA,153930,3823.5222,N,11047.3313,W,1,06,1.40,1351.57,M,-18.586,M,,*49##0
$GPRMC,153930,A,3823.5222,N,11047.3313,W,0.0000,0.000,040610,,*3D##0
$GPGSA,A,3,31,22,14,19,30,18,,,,,,,0.0,1.4,1.2*31##1452
$GPGGA,153931,3823.5222,N,11047.3313,W,1,06,1.40,1351.57,M,-18.586,M,,*48##0
$GPRMC,153931,A,3823.5222,N,11047.3313,W,0.0000,0.000,040610,,*3C##0
$GPGSA,A,3,31,22,14,19,30,18,,,,,,,0.0,1.4,1.2*31##0
$PGRME,0.00,M,0.00,M,0.00,M*1E##572
$GPGGA,153932,3823.5218,N,11047.3311,W,1,06,1.40,1352.30,M,-18.586,M,,*42##1
$GPRMC,153932,A,3823.5218,N,11047.3311,W,0.0000,0.000,040610,,*34##0
$GPGSA,A,3,31,22,14,19,30,18,,,,,,,0.0,1.4,1.2*31##975
$GPGGA,153933,3823.5218,N,11047.3311,W,1,06,1.40,1352.30,M,-18.586,M,,*43##0
$GPRMC,153933,A,3823.5218,N,11047.3311,W,0.0000,0.000,040610,,*35##1
$GPGSA,A,3,31,22,14,19,30,18,,,,,,,0.0,1.4,1.2*31##0
$PGRME,0.00,M,0.00,M,0.00,M*1E##1451
$GPGGA,153934,3823.5218,N,11047.3311,W,1,07,1.20,1352.30,M,-18.586,M,,*43##1
$GPRMC,153934,A,3823.5218,N,11047.3311,W,0.1904,0.000,040610,,*3E##0
$GPGSA,A,3,31,22,14,24,19,30,18,,,,,,0.0,1.2,1.2*31##579
$GPGGA,153935,3823.5218,N,11047.3311,W,1,07,1.20,1352.30,M,-18.586,M,,*42##1
$GPRMC,153935,A,3823.5218,N,11047.3311,W,0.0000,0.000,040610,,*33##0
$GPGSA,A,3,31,22,14,24,19,30,18,,,,,,0.0,1.2,1.2*31##1
$PGRME,0.00,M,0.00,M,0.00,M*1E##967
$GPGGA,153936,3823.5218,N,11047.3311,W,1,07,1.20,1352.30,M,-18.586,M,,*41##0
$GPRMC,153936,A,3823.5218,N,11047.3311,W,0.0000,0.000,040610,,*30##0
$GPGSA,A,3,31,22,14,24,19,30,18,,,,,,0.0,1.2,1.2*31##1352
$GPGSV,3,1,09,03,04,223,37,22,48,087,36,31,38,171,33,14,70,018,29*7A##1
$GPGSV,3,2,09,24,29,159,29,19,19,249,35,30,06,100,30,18,15,100,31*7A##0
$GPGSV,3,3,09,11,20,310,32*41##124
$GPGGA,153937,3823.5218,N,11047.3311,W,1,07,1.20,1352.30,M,-18.586,M,,*40##1
$GPRMC,153937,A,3823.5218,N,11047.3311,W,0.0000,0.000,040610,,*31##0
$GPGSA,A,3,31,22,14,24,19,30,18,,,,,,0.0,1.2,1.2*31##574
$GPGGA,153938,3823.5218,N,11047.3311,W,1,07,1.20,1352.30,M,-18.586,M,,*4F##0
$GPRMC,153938,A,3823.5218,N,11047.3311,W,0.0000,0.000,040610,,*3E##1
$GPGSA,A,3,31,22,14,24,19,30,18,,,,,,0.0,1.2,1.2*31##0
$PGRME,0.00,M,0.00,M,0.00,M*1E##948
$GPGGA,153939,3823.5218,N,11047.3311,W,1,07,1.20,1352.30,M,-18.586,M,,*4E##0
$GPRMC,153939,A,3823.5218,N,11047.3311,W,0.0000,0.000,040610,,*3F##0
$GPGSA,A,3,31,22,14,24,19,30,18,,,,,,0.0,1.2,1.2*31##1477
$GPGGA,153940,3823.5218,N,11047.3311,W,1,07,1.20,1352.30,M,-18.586,M,,*40##0
$GPRMC,153940,A,3823.5218,N,11047.3311,W,0.0000,0.000,040610,,*31##0
$GPGSA,A,3,31,22,14,24,19,30,18,,,,,,0.0,1.2,1.2*31##727
$GPGGA,153941,3823.5218,N,11047.3311,W,1,07,1.20,1352.30,M,-18.586,M,,*41##0
$GPRMC,153941,A,3823.5218,N,11047.3311,W,0.0000,0.000,040610,,*30##0
$GPGSA,A,3,31,22,14,24,19,30,18,,,,,,0.0,1.2,1.2*31##796
$GPGGA,153942,3823.5218,N,11047.3311,W,1,06,3.20,1352.30,M,-18.586,M,,*41##1
$GPRMC,153942,A,3823.5218,N,11047.3311,W,0.0000,0.000,040610,,*33##1
$GPGSA,A,3,31,22,14,24,30,18,,,,,,,0.0,3.2,1.2*3B##1446
$GPGGA,153943,3823.5218,N,11047.3311,W,1,07,1.20,1352.30,M,-18.586,M,,*43##0
$GPRMC,153943,A,3823.5218,N,11047.3311,W,0.0000,0.000,040610,,*32##0
$GPGSA,A,3,31,22,14,24,19,30,18,,,,,,0.0,1.2,1.2*31##576
$GPGGA,153944,3823.5220,N,11047.3304,W,1,07,1.20,1352.03,M,-18.586,M,,*4B##1
$GPRMC,153944,A,3823.5220,N,11047.3304,W,0.2334,76.734,040610,,*0D##0
$GPGSA,A,3,31,22,14,24,19,30,18,,,,,,0.0,1.2,1.2*31##976
$GPGGA,153945,3823.5220,N,11047.3304,W,1,07,1.20,1352.03,M,-18.586,M,,*4A##0
$GPRMC,153945,A,3823.5220,N,11047.3304,W,0.1653,328.563,040610,,*33##0
$GPGSA,A,3,31,22,14,24,19,30,18,,,,,,0.0,1.2,1.2*31##1460
$GPGGA,153946,3823.5220,N,11047.3304,W,1,07,1.20,1352.03,M,-18.586,M,,*49##0
$GPRMC,153946,A,3823.5220,N,11047.3304,W,0.1653,328.563,040610,,*30##1
$GPGSA,A,3,31,22,14,24,19,30,18,,,,,,0.0,1.2,1.2*31##0
$PGRME,0.00,M,0.00,M,0.00,M*1E##749
$GPGGA,153947,3823.5220,N,11047.3304,W,1,07,1.20,1352.03,M,-18.586,M,,*48##0
$GPRMC,153947,A,3823.5220,N,11047.3304,W,0.1653,328.563,040610,,*31##1
$GPGSA,A,3,31,22,14,24,19,30,18,,,,,,0.0,1.2,1.2*31##794
$GPGGA,153948,3823.5220,N,11047.3304,W,1,06,1.40,1352.03,M,-18.586,M,,*40##0
$GPRMC,153948,A,3823.5220,N,11047.3304,W,0.0000,0.000,040610,,*36##1
$GPGSA,A,3,31,22,14,19,30,18,,,,,,,0.0,1.4,1.2*31##0
$PGRME,0.00,M,0.00,M,0.00,M*1E##1449
$GPGGA,153949,3823.5220,N,11047.3304,W,1,07,1.20,1352.03,M,-18.586,M,,*46##1
$GPRMC,153949,A,3823.5220,N,11047.3304,W,0.0000,0.000,040610,,*37##0
$GPGSA,A,3,31,22,14,24,19,30,18,,,,,,0.0,1.2,1.2*31##572
$GPGGA,153950,3823.5220,N,11047.3304,W,1,07,1.20,1352.03,M,-18.586,M,,*4E##0
$GPRMC,153950,A,3823.5220,N,11047.3304,W,0.1653,148.563,040610,,*33##1
$GPGSA,A,3,31,22,14,24,19,30,18,,,,,,0.0,1.2,1.2*31##0
$PGRME,0.00,M,0.00,M,0.00,M*1E##981
$GPGGA,153951,3823.5220,N,11047.3304,W,1,07,1.20,1352.03,M,-18.586,M,,*4F##1
$GPRMC,153951,A,3823.5220,N,11047.3304,W,0.1653,148.563,040610,,*32##0
$GPGSA,A,3,31,22,14,24,19,30,18,,,,,,0.0,1.2,1.2*31##1339
$GPGSV,3,1,09,03,04,223,33,22,47,087,30,31,38,171,32,14,70,018,24*7B##0
$GPGSV,3,2,09,24,29,159,28,19,18,249,00,30,06,100,30,18,15,100,30*7D##0
$GPGSV,3,3,09,11,20,310,29*4B##107
$GPGGA,153952,3823.5220,N,11047.3304,W,1,07,1.00,1352.03,M,-18.586,M,,*4E##1
$GPRMC,153952,A,3823.5220,N,11047.3304,W,0.0000,0.000,040610,,*3D##1
$GPGSA,A,3,31,22,14,24,30,18,11,,,,,,0.0,1.0,1.2*3B##726
$GPGGA,153953,3823.5220,N,11047.3304,W,1,08,0.80,1352.03,M,-18.586,M,,*49##0
$GPRMC,153953,A,3823.5220,N,11047.3304,W,0.0000,0.000,040610,,*3C##0
$GPGSA,A,3,31,22,14,24,19,30,18,11,,,,,0.0,0.8,1.2*3A##812
$GPGGA,153954,3823.5220,N,11047.3304,W,1,07,1.00,1352.03,M,-18.586,M,,*48##0
$GPRMC,153954,A,3823.5220,N,11047.3304,W,0.3334,42.953,040610,,*05##1
$GPGSA,A,3,31,22,14,19,30,18,11,,,,,,0.0,1.0,1.2*35##1472
$GPGGA,153955,3823.5220,N,11047.3304,W,1,08,0.80,1352.03,M,-18.586,M,,*4F##1
$GPRMC,153955,A,3823.5220,N,11047.3304,W,0.3426,165.419,040610,,*37##0
$GPGSA,A,3,31,22,14,24,19,30,18,11,,,,,0.0,0.8,1.2*3A##1
$PGRME,0.00,M,0.00,M,0.00,M*1E##560
$GPGGA,153956,3823.5215,N,11047.3304,W,1,08,0.80,1351.40,M,-18.586,M,,*4E##3
$GPRMC,153956,A,3823.5215,N,11047.3304,W,0.4101,200.100,040610,,*38##1
$GPGSA,A,3,31,22,14,24,19,30,18,11,,,,,0.0,0.8,1.2*3A##966
$GPGGA,153957,3823.5215,N,11047.3304,W,1,08,0.80,1351.40,M,-18.586,M,,*4F##0
$GPRMC,153957,A,3823.5215,N,11047.3304,W,0.1653,328.563,040610,,*36##1
$GPGSA,A,3,31,22,14,24,19,30,18,11,,,,,0.0,0.8,1.2*3A##0
$PGRME,0.00,M,0.00,M,0.00,M*1E##1455
$GPGGA,153958,3823.5215,N,11047.3304,W,1,07,1.00,1351.40,M,-18.586,M,,*46##1
$GPRMC,153958,A,3823.5215,N,11047.3304,W,0.0000,0.000,040610,,*31##1
$GPGSA,A,3,22,14,24,19,30,18,11,,,,,,0.0,1.0,1.2*31##1
$PGRME,0.00,M,0.00,M,0.00,M*1E##733
$GPGGA,153959,3823.5215,N,11047.3304,W,1,08,0.80,1351.40,M,-18.586,M,,*41##0
$GPRMC,153959,A,3823.5215,N,11047.3304,W,0.0000,0.000,040610,,*30##1
$GPGSA,A,3,31,22,14,24,19,30,18,11,,,,,0.0,0.8,1.2*3A##1
$PGRME,0.00,M,0.00,M,0.00,M*1E##811
$GPGGA,154000,3823.5215,N,11047.3304,W,1,08,0.80,1351.40,M,-18.586,M,,*43##0
$GPRMC,154000,A,3823.5215,N,11047.3304,W,0.0000,0.000,040610,,*32##1
$GPGSA,A,3,31,22,14,24,19,30,18,11,,,,,0.0,0.8,1.2*3A##1442
$GPGGA,154001,3823.5215,N,11047.3304,W,1,07,1.20,1351.40,M,-18.586,M,,*46##1
$GPRMC,154001,A,3823.5215,N,11047.3304,W,0.0000,0.000,040610,,*33##1
$GPGSA,A,3,31,22,14,24,19,30,18,,,,,,0.0,1.2,1.2*31##0
$PGRME,0.00,M,0.00,M,0.00,M*1E##599
$GPGGA,154002,3823.5215,N,11047.3304,W,1,08,0.80,1351.40,M,-18.586,M,,*41##0
$GPRMC,154002,A,3823.5215,N,11047.3304,W,0.0000,0.000,040610,,*30##0
$GPGSA,A,3,31,22,14,24,19,30,18,11,,,,,0.0,0.8,1.2*3A##952
$GPGGA,154003,3823.5215,N,11047.3304,W,1,08,0.80,1351.40,M,-18.586,M,,*40##0
$GPRMC,154003,A,3823.5215,N,11047.3304,W,0.0000,0.000,040610,,*31##1
$GPGSA,A,3,31,22,14,24,19,30,18,11,,,,,0.0,0.8,1.2*3A##0
$PGRME,0.00,M,0.00,M,0.00,M*1E##1459
$GPGGA,154004,3823.5215,N,11047.3304,W,1,08,0.80,1351.40,M,-18.586,M,,*47##0
$GPRMC,154004,A,3823.5215,N,11047.3304,W,0.0000,0.000,040610,,*36##1
$GPGSA,A,3,31,22,14,24,19,30,18,11,,,,,0.0,0.8,1.2*3A##727
$GPGGA,154005,3823.5218,N,11047.3307,W,1,08,0.80,1350.67,M,-18.586,M,,*4C##3
$GPRMC,154005,A,3823.5218,N,11047.3307,W,0.0000,0.000,040610,,*39##1
$GPGSA,A,3,31,22,14,24,19,30,18,11,,,,,0.0,0.8,1.2*3A##806
$GPGGA,154006,3823.5218,N,11047.3307,W,1,08,0.80,1350.67,M,-18.586,M,,*4F##1
$GPRMC,154006,A,3823.5218,N,11047.3307,W,0.0000,0.000,040610,,*3A##1
$GPGSA,A,3,31,22,14,24,19,30,18,11,,,,,0.0,0.8,1.2*3A##0
$PGRME,0.00,M,0.00,M,0.00,M*1E##1332
$GPGSV,3,1,09,03,04,223,34,22,47,087,34,31,38,171,34,14,70,018,24*7E##1
$GPGSV,3,2,09,24,29,159,26,19,18,249,28,30,06,100,28,18,15,100,28*79##0
$GPGSV,3,3,09,11,20,309,28*42##114
$GPGGA,154007,3823.5218,N,11047.3307,W,1,08,0.80,1350.67,M,-18.586,M,,*4E##0
$GPRMC,154007,A,3823.5218,N,11047.3307,W,0.0000,0.000,040610,,*3B##1
$GPGSA,A,3,31,22,14,24,19,30,18,11,,,,,0.0,0.8,1.2*3A##577
$GPGGA,154008,3823.5218,N,11047.3307,W,1,08,0.80,1350.67,M,-18.586,M,,*41##0
$GPRMC,154008,A,3823.5218,N,11047.3307,W,0.0000,0.000,040610,,*34##1
$GPGSA,A,3,31,22,14,24,19,30,18,11,,,,,0.0,0.8,1.2*3A##0
$PGRME,0.00,M,0.00,M,0.00,M*1E##989
$GPGGA,154009,3823.5218,N,11047.3307,W,1,08,0.80,1350.67,M,-18.586,M,,*40##1
$GPRMC,154009,A,3823.5218,N,11047.3307,W,0.0000,0.000,040610,,*35##0
$GPGSA,A,3,31,22,14,24,19,30,18,11,,,,,0.0,0.8,1.2*3A##1435
$GPGGA,154010,3823.5218,N,11047.3307,W,1,08,0.80,1350.67,M,-18.586,M,,*48##0
$GPRMC,154010,A,3823.5218,N,11047.3307,W,0.0000,0.000,040610,,*3D##1
$GPGSA,A,3,31,22,14,24,19,30,18,11,,,,,0.0,0.8,1.2*3A##1
$PGRME,0.00,M,0.00,M,0.00,M*1E##572
$GPGGA,154011,3823.5218,N,11047.3307,W,1,08,0.80,1350.67,M,-18.586,M,,*49##0
$GPRMC,154011,A,3823.5218,N,11047.3307,W,0.0000,0.000,040610,,*3C##1
$GPGSA,A,3,31,22,14,24,19,30,18,11,,,,,0.0,0.8,1.2*3A##983
$GPGGA,154012,3823.5218,N,11047.3307,W,1,08,0.80,1350.67,M,-18.586,M,,*4A##1
$GPRMC,154012,A,3823.5218,N,11047.3307,W,0.0000,0.000,040610,,*3F##1
$GPGSA,A,3,31,22,14,24,19,30,18,11,,,,,0.0,0.8,1.2*3A##1454
$GPGGA,154013,3823.5217,N,11047.3313,W,1,08,0.80,1350.95,M,-18.586,M,,*4C##3
$GPRMC,154013,A,3823.5217,N,11047.3313,W,0.0000,0.000,040610,,*34##1
$GPGSA,A,3,31,22,14,24,19,30,18,11,,,,,0.0,0.8,1.2*3A##1
$PGRME,0.00,M,0.00,M,0.00,M*1E##582
$GPGGA,154014,3823.5217,N,11047.3313,W,1,08,0.80,1350.95,M,-18.586,M,,*4B##1
$GPRMC,154014,A,3823.5217,N,11047.3313,W,0.2334,256.734,040610,,*34##1
$GPGSA,A,3,31,22,14,24,19,30,18,11,,,,,0.0,0.8,1.2*3A##944
$GPGGA,154015,3823.5217,N,11047.3313,W,1,08,0.80,1350.95,M,-18.586,M,,*4A##0
$GPRMC,154015,A,3823.5217,N,11047.3313,W,0.2334,256.734,040610,,*35##1
$GPGSA,A,3,31,22,14,24,19,30,18,11,,,,,0.0,0.8,1.2*3A##0
$PGRME,0.00,M,0.00,M,0.00,M*1E##1443
$GPGGA,154016,3823.5217,N,11047.3313,W,1,07,1.00,1350.95,M,-18.586,M,,*4F##1
$GPRMC,154016,A,3823.5217,N,11047.3313,W,0.1653,148.562,040610,,*3C##1
$GPGSA,A,3,22,14,24,19,30,18,11,,,,,,0.0,1.0,1.2*31##578
$GPGGA,154017,3823.5217,N,11047.3313,W,1,08,0.80,1350.95,M,-18.586,M,,*48##1
$GPRMC,154017,A,3823.5217,N,11047.3313,W,0.0000,0.000,040610,,*30##1
$GPGSA,A,3,31,22,14,24,19,30,18,11,,,,,0.0,0.8,1.2*3A##1
$PGRME,0.00,M,0.00,M,0.00,M*1E##970
$GPGGA,154018,3823.5217,N,11047.3313,W,1,08,0.80,1350.95,M,-18.586,M,,*47##0
$GPRMC,154018,A,3823.5217,N,11047.3313,W,0.0000,0.000,040610,,*3F##0
$GPGSA,A,3,31,22,14,24,19,30,18,11,,,,,0.0,0.8,1.2*3A##1448
$GPGGA,154019,3823.5217,N,11047.3313,W,1,08,0.80,1350.95,M,-18.586,M,,*46##0
$GPRMC,154019,A,3823.5217,N,11047.3313,W,0.0000,0.000,040610,,*3E##1
$GPGSA,A,3,31,22,14,24,19,30,18,11,,,,,0.0,0.8,1.2*3A##0
$PGRME,0.00,M,0.00,M,0.00,M*1E##593
$GPGGA,154020,3823.5217,N,11047.3313,W,1,08,0.80,1350.95,M,-18.586,M,,*4C##0
$GPRMC,154020,A,3823.5217,N,11047.3313,W,0.0000,0.000,040610,,*34##1
$GPGSA,A,3,31,22,14,24,19,30,18,11,,,,,0.0,0.8,1.2*3A##965
$GPGGA,154021,3823.5217,N,11047.3313,W,1,08,0.80,1350.95,M,-18.586,M,,*4D##1
$GPRMC,154021,A,3823.5217,N,11047.3313,W,0.0000,0.000,040610,,*35##0
$GPGSA,A,3,31,22,14,24,19,30,18,11,,,,,0.0,0.8,1.2*3A##0
$PGRME,0.00,M,0.00,M,0.00,M*1E##1327
$GPGSV,3,1,09,03,04,223,34,22,47,087,35,31,38,171,35,14,70,018,27*7D##0
$GPGSV,3,2,09,24,29,159,26,19,18,249,27,30,06,100,28,18,15,100,27*79##1
$GPGSV,3,3,09,11,20,309,29*43##125
$GPGGA,154022,3823.5217,N,11047.3313,W,1,08,0.80,1350.95,M,-18.586,M,,*4E##1
$GPRMC,154022,A,3823.5217,N,11047.3313,W,0.0000,0.000,040610,,*36##0
$GPGSA,A,3,31,22,14,24,19,30,18,11,,,,,0.0,0.8,1.2*3A##565
$GPGGA,154023,3823.5217,N,11047.3313,W,1,08,0.80,1350.95,M,-18.586,M,,*4F##1
$GPRMC,154023,A,3823.5217,N,11047.3313,W,0.0000,0.000,040610,,*37##1
$GPGSA,A,3,31,22,14,24,19,30,18,11,,,,,0.0,0.8,1.2*3A##0
$PGRME,0.00,M,0.00,M,0.00,M*1E##991
$GPGGA,154024,3823.5217,N,11047.3313,W,1,07,1.00,1350.95,M,-18.586,M,,*4E##0
$GPRMC,154024,A,3823.5217,N,11047.3313,W,0.0000,0.000,040610,,*30##1
$GPGSA,A,3,31,14,24,19,30,18,11,,,,,,0.0,1.0,1.2*33##1
$PGRME,0.00,M,0.00,M,0.00,M*1E##1440
$GPGGA,154025,3823.5217,N,11047.3313,W,1,07,1.00,1350.95,M,-18.586,M,,*4F##0
$GPRMC,154025,A,3823.5217,N,11047.3313,W,0.0000,0.000,040610,,*31##0
$GPGSA,A,3,31,14,24,19,30,18,11,,,,,,0.0,1.0,1.2*33##1
$PGRME,0.00,M,0.00,M,0.00,M*1E##567
$GPGGA,154026,3823.5217,N,11047.3313,W,1,07,1.00,1350.95,M,-18.586,M,,*4C##1
$GPRMC,154026,A,3823.5217,N,11047.3313,W,0.0000,0.000,040610,,*32##0
$GPGSA,A,3,31,14,24,19,30,18,11,,,,,,0.0,1.0,1.2*33##975
$GPGGA,154027,3823.5217,N,11047.3313,W,1,07,1.00,1350.95,M,-18.586,M,,*4D##0
$GPRMC,154027,A,3823.5217,N,11047.3313,W,0.5031,159.950,040610,,*35##1
$GPGSA,A,3,31,14,24,19,30,18,11,,,,,,0.0,1.0,1.2*33##1
$PGRME,0.00,M,0.00,M,0.00,M*1E##1464
$GPGGA,154028,3823.5217,N,11047.3313,W,1,07,1.00,1350.95,M,-18.586,M,,*42##0
$GPRMC,154028,A,3823.5217,N,11047.3313,W,0.5031,159.950,040610,,*3A##0
$GPGSA,A,3,31,14,24,19,30,18,11,,,,,,0.0,1.0,1.2*33##574
$GPGGA,154029,3823.5217,N,11047.3313,W,1,07,1.00,1350.95,M,-18.586,M,,*43##0
$GPRMC,154029,A,3823.5217,N,11047.3313,W,0.1653,148.562,040610,,*30##2
$GPGSA,A,3,31,14,24,19,30,18,11,,,,,,0.0,1.0,1.2*33##0
$PGRME,0.00,M,0.00,M,0.00,M*1E##953
$GPGGA,154030,3823.5214,N,11047.3311,W,1,07,1.00,1351.68,M,-18.586,M,,*49##2
$GPRMC,154030,A,3823.5214,N,11047.3311,W,0.1653,148.563,040610,,*38##1
$GPGSA,A,3,31,14,24,19,30,18,11,,,,,,0.0,1.0,1.2*33##1452
$GPGGA,154031,3823.5214,N,11047.3311,W,1,07,1.00,1351.68,M,-18.586,M,,*48##1
$GPRMC,154031,A,3823.5214,N,11047.3311,W,0.0000,0.000,040610,,*35##2
$GPGSA,A,3,31,14,24,19,30,18,11,,,,,,0.0,1.0,1.2*33##0
$PGRME,0.00,M,0.00,M,0.00,M*1E##583
$GPGGA,154032,3823.5214,N,11047.3311,W,1,08,0.80,1351.68,M,-18.586,M,,*4D##1
$GPRMC,154032,A,3823.5214,N,11047.3311,W,0.0000,0.000,040610,,*36##1
$GPGSA,A,3,31,22,14,24,19,30,18,11,,,,,0.0,0.8,1.2*3A##957
$GPGGA,154033,3823.5214,N,11047.3311,W,1,08,0.80,1351.68,M,-18.586,M,,*4C##0
$GPRMC,154033,A,3823.5214,N,11047.3311,W,0.0000,0.000,040610,,*37##1
$GPGSA,A,3,31,22,14,24,19,30,18,11,,,,,0.0,0.8,1.2*3A##0
$PGRME,0.00,M,0.00,M,0.00,M*1E##1447
$GPGGA,154034,3823.5217,N,11047.3313,W,1,08,0.80,1350.95,M,-18.586,M,,*49##2
$GPRMC,154034,A,3823.5217,N,11047.3313,W,0.0000,0.000,040610,,*31##1
$GPGSA,A,3,31,22,14,24,19,30,18,11,,,,,0.0,0.8,1.2*3A##599
$GPGGA,154035,3823.5217,N,11047.3313,W,1,08,0.80,1350.95,M,-18.586,M,,*48##0
$GPRMC,154035,A,3823.5217,N,11047.3313,W,0.0000,0.000,040610,,*30##1
$GPGSA,A,3,31,22,14,24,19,30,18,11,,,,,0.0,0.8,1.2*3A##0
$PGRME,0.00,M,0.00,M,0.00,M*1E##950
$GPGGA,154036,3823.5217,N,11047.3313,W,1,08,0.80,1350.95,M,-18.586,M,,*4B##0
$GPRMC,154036,A,3823.5217,N,11047.3313,W,0.0000,0.000,040610,,*33##1
$GPGSA,A,3,31,22,14,24,19,30,18,11,,,,,0.0,0.8,1.2*3A##1335
$GPGSV,3,1,10,03,04,223,22,22,47,087,35,31,38,171,34,14,70,018,27*73##0
$GPGSV,3,2,10,24,29,159,27,19,18,249,26,30,06,100,31,18,15,100,28*76##1
$GPGSV,3,3,10,11,20,309,29,09,27,048,22*7B##111
$GPGGA,154037,3823.5217,N,11047.3313,W,1,08,0.80,1350.95,M,-18.586,M,,*4A##0
$GPRMC,154037,A,3823.5217,N,11047.3313,W,0.0000,0.000,040610,,*32##1
$GPGSA,A,3,31,22,14,24,19,30,18,11,,,,,0.0,0.8,1.2*3A##579
$GPGGA,154038,3823.5217,N,11047.3313,W,1,08,0.80,1350.95,M,-18.586,M,,*45##0
$GPRMC,154038,A,3823.5217,N,11047.3313,W,0.0000,0.000,040610,,*3D##1
$GPGSA,A,3,31,22,14,24,19,30,18,11,,,,,0.0,0.8,1.2*3A##0
$PGRME,0.00,M,0.00,M,0.00,M*1E##971
$GPGGA,154039,3823.5217,N,11047.3313,W,1,08,0.80,1350.95,M,-18.586,M,,*44##1
$GPRMC,154039,A,3823.5217,N,11047.3313,W,0.0000,0.000,040610,,*3C##0
$GPGSA,A,3,31,22,14,24,19,30,18,11,,,,,0.0,0.8,1.2*3A##1448
$GPGGA,154040,3823.5217,N,11047.3313,W,1,08,0.80,1350.95,M,-18.586,M,,*4A##0
$GPRMC,154040,A,3823.5217,N,11047.3313,W,0.0000,0.000,040610,,*32##1
$GPGSA,A,3,31,22,14,24,19,30,18,11,,,,,0.0,0.8,1.2*3A##0
$PGRME,0.00,M,0.00,M,0.00,M*1E##579
$GPGGA,154041,3823.5217,N,11047.3313,W,1,08,0.80,1350.95,M,-18.586,M,,*4B##0
$GPRMC,154041,A,3823.5217,N,11047.3313,W,0.0000,0.000,040610,,*33##1
$GPGSA,A,3,31,22,14,24,19,30,18,11,,,,,0.0,0.8,1.2*3A##985
$GPGGA,154042,3823.5217,N,11047.3313,W,1,08,0.80,1350.95,M,-18.586,M,,*48##0
$GPRMC,154042,A,3823.5217,N,11047.3313,W,0.0000,0.000,040610,,*30##1
$GPGSA,A,3,31,22,14,24,19,30,18,11,,,,,0.0,0.8,1.2*3A##1
$PGRME,0.00,M,0.00,M,0.00,M*1E##1445
$GPGGA,154043,3823.5217,N,11047.3313,W,1,08,0.80,1350.95,M,-18.586,M,,*49##0
$GPRMC,154043,A,3823.5217,N,11047.3313,W,0.0000,0.000,040610,,*31##1
$GPGSA,A,3,31,22,14,24,19,30,18,11,,,,,0.0,0.8,1.2*3A##563
$GPGGA,154044,3823.5213,N,11047.3313,W,1,08,0.80,1350.33,M,-18.586,M,,*46##2
$GPRMC,154044,A,3823.5213,N,11047.3313,W,0.0000,0.000,040610,,*32##1
$GPGSA,A,3,31,22,14,24,19,30,18,11,,,,,0.0,0.8,1.2*3A##0
$PGRME,0.00,M,0.00,M,0.00,M*1E##968
$GPGGA,154045,3823.5213,N,11047.3313,W,1,08,0.80,1350.33,M,-18.586,M,,*47##1
$GPRMC,154045,A,3823.5213,N,11047.3313,W,0.0000,0.000,040610,,*33##0
$GPGSA,A,3,31,22,14,24,19,30,18,11,,,,,0.0,0.8,1.2*3A##1448
$GPGGA,154046,3823.5213,N,11047.3313,W,1,08,0.80,1350.33,M,-18.586,M,,*44##0
$GPRMC,154046,A,3823.5213,N,11047.3313,W,0.0000,0.000,040610,,*30##1
$GPGSA,A,3,31,22,14,24,19,30,18,11,,,,,0.0,0.8,1.2*3A##579
$GPGGA,154047,3823.5213,N,11047.3313,W,1,08,0.80,1350.33,M,-18.586,M,,*45##0
$GPRMC,154047,A,3823.5213,N,11047.3313,W,0.0000,0.000,040610,,*31##1
$GPGSA,A,3,31,22,14,24,19,30,18,11,,,,,0.0,0.8,1.2*3A##0
$PGRME,0.00,M,0.00,M,0.00,M*1E##979
$GPGGA,154048,3823.5213,N,11047.3313,W,1,08,0.80,1350.33,M,-18.586,M,,*4A##0
$GPRMC,154048,A,3823.5213,N,11047.3313,W,0.0000,0.000,040610,,*3E##1
$GPGSA,A,3,31,22,14,24,19,30,18,11,,,,,0.0,0.8,1.2*3A##1447
$GPGGA,154049,3823.5213,N,11047.3313,W,1,08,0.80,1350.33,M,-18.586,M,,*4B##0
$GPRMC,154049,A,3823.5213,N,11047.3313,W,0.0000,0.000,040610,,*3F##1
$GPGSA,A,3,31,22,14,24,19,30,18,11,,,,,0.0,0.8,1.2*3A##579
$GPGGA,154050,3823.5213,N,11047.3313,W,1,08,0.80,1350.33,M,-18.586,M,,*43##1
$GPRMC,154050,A,3823.5213,N,11047.3313,W,0.0000,0.000,040610,,*37##1
$GPGSA,A,3,31,22,14,24,19,30,18,11,,,,,0.0,0.8,1.2*3A##0
$PGRME,0.00,M,0.00,M,0.00,M*1E##959
$GPGGA,154051,3823.5213,N,11047.3313,W,1,08,0.80,1350.33,M,-18.586,M,,*42##0
$GPRMC,154051,A,3823.5213,N,11047.3313,W,0.0000,0.000,040610,,*36##1
$GPGSA,A,3,31,22,14,24,19,30,18,11,,,,,0.0,0.8,1.2*3A##1339
$GPGSV,3,1,09,03,04,223,34,22,47,087,35,31,38,171,32,14,70,018,28*75##0
$GPGSV,3,2,09,24,29,159,27,19,18,249,28,30,06,100,31,18,15,100,30*79##0
$GPGSV,3,3,09,11,20,309,30*4B##112
$GPGGA,154052,3823.5213,N,11047.3313,W,1,08,0.80,1350.33,M,-18.586,M,,*41##0
$GPRMC,154052,A,3823.5213,N,11047.3313,W,0.0000,0.000,040610,,*35##1
$GPGSA,A,3,31,22,14,24,19,30,18,11,,,,,0.0,0.8,1.2*3A##599
$GPGGA,154053,3823.5213,N,11047.3313,W,1,08,0.80,1350.33,M,-18.586,M,,*40##0
$GPRMC,154053,A,3823.5213,N,11047.3313,W,0.0000,0.000,040610,,*34##1
$GPGSA,A,3,31,22,14,24,19,30,18,11,,,,,0.0,0.8,1.2*3A##0
$PGRME,0.00,M,0.00,M,0.00,M*1E##949
$GPGGA,154054,3823.5213,N,11047.3313,W,1,07,1.20,1350.33,M,-18.586,M,,*43##1
$GPRMC,154054,A,3823.5213,N,11047.3313,W,0.0000,0.000,040610,,*33##0
$GPGSA,A,3,31,22,14,24,19,30,18,,,,,,0.0,1.2,1.2*31##1
$PGRME,0.00,M,0.00,M,0.00,M*1E##1445
$GPGGA,154055,3823.5213,N,11047.3313,W,1,08,0.80,1350.33,M,-18.586,M,,*46##1
$GPRMC,154055,A,3823.5213,N,11047.3313,W,0.3426,165.419,040610,,*3F##1
$GPGSA,A,3,31,22,14,24,19,30,18,11,,,,,0.0,0.8,1.2*3A##578
$GPGGA,154056,3823.5213,N,11047.3313,W,1,08,0.80,1350.33,M,-18.586,M,,*45##0
$GPRMC,154056,A,3823.5213,N,11047.3313,W,0.0000,0.000,040610,,*31##1
$GPGSA,A,3,31,22,14,24,19,30,18,11,,,,,0.0,0.8,1.2*3A##0
$PGRME,0.00,M,0.00,M,0.00,M*1E##992
$GPGGA,154057,3823.5213,N,11047.3313,W,1,08,0.80,1350.33,M,-18.586,M,,*44##1
$GPRMC,154057,A,3823.5213,N,11047.3313,W,0.0000,0.000,040610,,*30##0
$GPGSA,A,3,31,22,14,24,19,30,18,11,,,,,0.0,0.8,1.2*3A##1442
$GPGGA,154058,3823.5213,N,11047.3313,W,1,08,0.80,1350.33,M,-18.586,M,,*4B##1
$GPRMC,154058,A,3823.5213,N,11047.3313,W,0.0000,0.000,040610,,*3F##0
$GPGSA,A,3,31,22,14,24,19,30,18,11,,,,,0.0,0.8,1.2*3A##563
$GPGGA,154059,3823.5213,N,11047.3313,W,1,08,0.80,1350.33,M,-18.586,M,,*4A##0
$GPRMC,154059,A,3823.5213,N,11047.3313,W,0.0000,0.000,040610,,*3E##1
$GPGSA,A,3,31,22,14,24,19,30,18,11,,,,,0.0,0.8,1.2*3A##995
$GPGGA,154100,3823.5213,N,11047.3313,W,1,08,0.80,1350.33,M,-18.586,M,,*47##0
$GPRMC,154100,A,3823.5213,N,11047.3313,W,0.0000,0.000,040610,,*33##1
$GPGSA,A,3,31,22,14,24,19,30,18,11,,,,,0.0,0.8,1.2*3A##1441
$GPGGA,154101,3823.5213,N,11047.3313,W,1,08,0.80,1350.33,M,-18.586,M,,*46##1
$GPRMC,154101,A,3823.5213,N,11047.3313,W,0.0000,0.000,040610,,*32##0
$GPGSA,A,3,31,22,14,24,19,30,18,11,,,,,0.0,0.8,1.2*3A##566
$GPGGA,154102,3823.5213,N,11047.3313,W,1,08,0.80,1350.33,M,-18.586,M,,*45##0
$GPRMC,154102,A,3823.5213,N,11047.3313,W,0.0000,0.000,040610,,*31##1
$GPGSA,A,3,31,22,14,24,19,30,18,11,,,,,0.0,0.8,1.2*3A##971
$GPGGA,154103,3823.5213,N,11047.3313,W,1,08,0.80,1350.33,M,-18.586,M,,*44##0
$GPRMC,154103,A,3823.5213,N,11047.3313,W,0.0000,0.000,040610,,*30##1
$GPGSA,A,3,31,22,14,24,19,30,18,11,,,,,0.0,0.8,1.2*3A##0
$PGRME,0.00,M,0.00,M,0.00,M*1E##1454
$GPGGA,154104,3823.5213,N,11047.3313,W,1,08,0.80,1350.33,M,-18.586,M,,*43##0
$GPRMC,154104,A,3823.5213,N,11047.3313,W,0.0000,0.000,040610,,*37##0
$GPGSA,A,3,31,22,14,24,19,30,18,11,,,,,0.0,0.8,1.2*3A##577
$GPGGA,154105,3823.5213,N,11047.3313,W,1,08,0.80,1350.33,M,-18.586,M,,*42##1
$GPRMC,154105,A,3823.5213,N,11047.3313,W,0.0000,0.000,040610,,*36##0
$GPGSA,A,3,31,22,14,24,19,30,18,11,,,,,0.0,0.8,1.2*3A##0
$PGRME,0.00,M,0.00,M,0.00,M*1E##959
$GPGGA,154106,3823.5213,N,11047.3313,W,1,07,1.00,1350.33,M,-18.586,M,,*47##1
$GPRMC,154106,A,3823.5213,N,11047.3313,W,0.0000,0.000,040610,,*35##0
$GPGSA,A,3,31,14,24,19,30,18,11,,,,,,0.0,1.0,1.2*33##1352
$GPGSV,3,1,09,03,04,223,33,22,47,087,36,31,38,171,31,14,70,018,27*7D##0
$GPGSV,3,2,09,24,29,159,25,19,18,249,27,30,06,100,29,18,15,100,30*7D##1
$GPGSV,3,3,09,11,20,309,29*43##95
$GPGGA,154107,3823.5213,N,11047.3313,W,1,07,1.00,1350.33,M,-18.586,M,,*46##0
$GPRMC,154107,A,3823.5213,N,11047.3313,W,0.0000,0.000,040610,,*34##0
$GPGSA,A,3,31,14,24,19,30,18,11,,,,,,0.0,1.0,1.2*33##596
$GPGGA,154108,3823.5213,N,11047.3313,W,1,07,1.00,1350.33,M,-18.586,M,,*49##1
$GPRMC,154108,A,3823.5213,N,11047.3313,W,0.0000,0.000,040610,,*3B##0
$GPGSA,A,3,31,14,24,19,30,18,11,,,,,,0.0,1.0,1.2*33##0
$PGRME,0.00,M,0.00,M,0.00,M*1E##955
$GPGGA,154109,3823.5213,N,11047.3313,W,1,07,1.00,1350.33,M,-18.586,M,,*48##0
$GPRMC,154109,A,3823.5213,N,11047.3313,W,0.0000,0.000,040610,,*3A##1
$GPGSA,A,3,31,14,24,19,30,18,11,,,,,,0.0,1.0,1.2*33##1463
$GPGGA,154110,3823.5213,N,11047.3313,W,1,07,1.00,1350.33,M,-18.586,M,,*40##1
$GPRMC,154110,A,3823.5213,N,11047.3313,W,0.0000,0.000,040610,,*32##0
$GPGSA,A,3,31,14,24,19,30,18,11,,,,,,0.0,1.0,1.2*33##0
$PGRME,0.00,M,0.00,M,0.00,M*1E##727
$GPGGA,154111,3823.5213,N,11047.3313,W,1,07,1.00,1350.33,M,-18.586,M,,*41##1
$GPRMC,154111,A,3823.5213,N,11047.3313,W,0.0000,0.000,040610,,*33##0
$GPGSA,A,3,31,14,24,19,30,18,11,,,,,,0.0,1.0,1.2*33##1
$PGRME,0.00,M,0.00,M,0.00,M*1E##807
$GPGGA,154112,3823.5213,N,11047.3313,W,1,06,1.20,1350.33,M,-18.586,M,,*41##0
$GPRMC,154112,A,3823.5213,N,11047.3313,W,0.0000,0.000,040610,,*30##1
$GPGSA,A,3,31,14,24,30,18,11,,,,,,,0.0,1.2,1.2*39##1451
$GPGGA,154113,3823.5213,N,11047.3313,W,1,06,1.20,1350.33,M,-18.586,M,,*40##0
$GPRMC,154113,A,3823.5213,N,11047.3313,W,0.0000,0.000,040610,,*31##1
$GPGSA,A,3,31,14,24,30,18,11,,,,,,,0.0,1.2,1.2*39##0
$PGRME,0.00,M,0.00,M,0.00,M*1E##579
$GPGGA,154114,3823.5213,N,11047.3313,W,1,07,1.00,1350.33,M,-18.586,M,,*44##0
$GPRMC,154114,A,3823.5213,N,11047.3313,W,0.3334,42.953,040610,,*08##2
$GPGSA,A,3,31,14,24,19,30,18,11,,,,,,0.0,1.0,1.2*33##976
$GPGGA,154115,3823.5213,N,11047.3313,W,1,07,1.00,1350.33,M,-18.586,M,,*45##0
$GPRMC,154115,A,3823.5213,N,11047.3313,W,0.0000,0.000,040610,,*37##2
$GPGSA,A,3,31,14,24,19,30,18,11,,,,,,0.0,1.0,1.2*33##0
$PGRME,0.00,M,0.00,M,0.00,M*1E##1460
$GPGGA,154116,3823.5213,N,11047.3313,W,1,07,1.00,1350.33,M,-18.586,M,,*46##1
$GPRMC,154116,A,3823.5213,N,11047.3313,W,0.0000,0.000,040610,,*34##0
$GPGSA,A,3,31,14,24,19,30,18,11,,,,,,0.0,1.0,1.2*33##0
$PGRME,0.00,M,0.00,M,0.00,M*1E##747
$GPGGA,154117,3823.5213,N,11047.3313,W,1,07,1.00,1350.33,M,-18.586,M,,*47##0
$GPRMC,154117,A,3823.5213,N,11047.3313,W,0.0000,0.000,040610,,*35##1
$GPGSA,A,3,31,14,24,19,30,18,11,,,,,,0.0,1.0,1.2*33##0
$PGRME,0.00,M,0.00,M,0.00,M*1E##792
$GPGGA,154118,3823.5213,N,11047.3313,W,1,08,0.80,1350.33,M,-18.586,M,,*4E##0
$GPRMC,154118,A,3823.5213,N,11047.3313,W,0.1904,0.000,040610,,*36##2
$GPGSA,A,3,31,22,14,24,19,30,18,11,,,,,0.0,0.8,1.2*3A##0
$PGRME,0.00,M,0.00,M,0.00,M*1E##1439
$GPGGA,154119,3823.5213,N,11047.3313,W,1,08,0.80,1350.33,M,-18.586,M,,*4F##0
$GPRMC,154119,A,3823.5213,N,11047.3313,W,0.0000,0.000,040610,,*3B##1
$GPGSA,A,3,31,22,14,24,19,30,18,11,,,,,0.0,0.8,1.2*3A##578
$GPGGA,154120,3823.5213,N,11047.3313,W,1,08,0.80,1350.33,M,-18.586,M,,*45##0
$GPRMC,154120,A,3823.5213,N,11047.3313,W,0.0000,0.000,040610,,*31##1
$GPGSA,A,3,31,22,14,24,19,30,18,11,,,,,0.0,0.8,1.2*3A##0
$PGRME,0.00,M,0.00,M,0.00,M*1E##995
$GPGGA,154121,3823.5213,N,11047.3313,W,1,08,0.80,1350.33,M,-18.586,M,,*44##0
$GPRMC,154121,A,3823.5213,N,11047.3313,W,0.0000,0.000,040610,,*30##0
$GPGSA,A,3,31,22,14,24,19,30,18,11,,,,,0.0,0.8,1.2*3A##1315
$GPGSV,3,1,09,03,04,223,33,22,47,088,35,31,39,171,27,14,69,019,27*7E##0
$GPGSV,3,2,09,24,28,159,28,19,18,247,28,30,07,099,23,18,14,100,29*73##0
$GPGSV,3,3,09,11,21,309,30*4A##118
$GPGGA,154122,3823.5213,N,11047.3313,W,1,08,0.80,1350.33,M,-18.586,M,,*47##0
$GPRMC,154122,A,3823.5213,N,11047.3313,W,0.0000,0.000,040610,,*33##1
$GPGSA,A,3,31,22,14,24,19,30,18,11,,,,,0.0,0.8,1.2*3A##583
$GPGGA,154123,3823.5220,N,11047.3316,W,1,08,0.80,1350.22,M,-18.586,M,,*43##2
$GPRMC,154123,A,3823.5220,N,11047.3316,W,0.0000,0.000,040610,,*37##1
$GPGSA,A,3,31,22,14,24,19,30,18,11,,,,,0.0,0.8,1.2*3A##953
$GPGGA,154124,3823.5220,N,11047.3316,W,1,08,0.80,1350.22,M,-18.586,M,,*44##0
$GPRMC,154124,A,3823.5220,N,11047.3316,W,0.0000,0.000,040610,,*30##1
$GPGSA,A,3,31,22,14,24,19,30,18,11,,,,,0.0,0.8,1.2*3A##1467
$GPGGA,154125,3823.5220,N,11047.3316,W,1,08,0.80,1350.22,M,-18.586,M,,*45##0
$GPRMC,154125,A,3823.5220,N,11047.3316,W,0.2334,256.734,040610,,*36##1
$GPGSA,A,3,31,22,14,24,19,30,18,11,,,,,0.0,0.8,1.2*3A##1
$PGRME,0.00,M,0.00,M,0.00,M*1E##570
$GPGGA,154126,3823.5217,N,11047.3313,W,1,08,0.80,1350.95,M,-18.586,M,,*4B##2
$GPRMC,154126,A,3823.5217,N,11047.3313,W,0.0000,0.000,040610,,*33##2
$GPGSA,A,3,31,22,14,24,19,30,18,11,,,,,0.0,0.8,1.2*3A##952
$GPGGA,154127,3823.5217,N,11047.3313,W,1,08,0.80,1350.95,M,-18.586,M,,*4A##1
$GPRMC,154127,A,3823.5217,N,11047.3313,W,0.0000,0.000,040610,,*32##0
$GPGSA,A,3,31,22,14,24,19,30,18,11,,,,,0.0,0.8,1.2*3A##0
$PGRME,0.00,M,0.00,M,0.00,M*1E##1461
$GPGGA,154128,3823.5217,N,11047.3313,W,1,07,1.00,1350.95,M,-18.586,M,,*43##1
$GPRMC,154128,A,3823.5217,N,11047.3313,W,0.1653,148.562,040610,,*30##1
$GPGSA,A,3,31,22,14,19,30,18,11,,,,,,0.0,1.0,1.2*35##0
$PGRME,0.00,M,0.00,M,0.00,M*1E##573
$GPGGA,154129,3823.5217,N,11047.3313,W,1,08,0.80,1350.95,M,-18.586,M,,*44##0
$GPRMC,154129,A,3823.5217,N,11047.3313,W,0.2403,215.906,040610,,*30##1
$GPGSA,A,3,31,22,14,24,19,30,18,11,,,,,0.0,0.8,1.2*3A##969
$GPGGA,154130,3823.5217,N,11047.3313,W,1,08,0.80,1350.95,M,-18.586,M,,*4C##0
$GPRMC,154130,A,3823.5217,N,11047.3313,W,0.2334,256.734,040610,,*33##1
$GPGSA,A,3,31,22,14,24,19,30,18,11,,,,,0.0,0.8,1.2*3A##0
$PGRME,0.00,M,0.00,M,0.00,M*1E##1441
$GPGGA,154131,3823.5217,N,11047.3313,W,1,08,0.80,1350.95,M,-18.586,M,,*4D##0
$GPRMC,154131,A,3823.5217,N,11047.3313,W,0.2334,76.734,040610,,*02##1
$GPGSA,A,3,31,22,14,24,19,30,18,11,,,,,0.0,0.8,1.2*3A##579
$GPGGA,154132,3823.5217,N,11047.3313,W,1,08,0.80,1350.95,M,-18.586,M,,*4E##0
$GPRMC,154132,A,3823.5217,N,11047.3313,W,0.1904,0.000,040610,,*3A##2
$GPGSA,A,3,31,22,14,24,19,30,18,11,,,,,0.0,0.8,1.2*3A##0
$PGRME,0.00,M,0.00,M,0.00,M*1E##986
$GPGGA,154133,3823.5217,N,11047.3313,W,1,08,0.80,1350.95,M,-18.586,M,,*4F##0
$GPRMC,154133,A,3823.5217,N,11047.3313,W,0.1904,0.000,040610,,*3B##1
$GPGSA,A,3,31,22,14,24,19,30,18,11,,,,,0.0,0.8,1.2*3A##1440
$GPGGA,154134,3823.5217,N,11047.3313,W,1,08,0.80,1350.95,M,-18.586,M,,*48##0
$GPRMC,154134,A,3823.5217,N,11047.3313,W,0.3299,71.819,040610,,*07##1
$GPGSA,A,3,31,22,14,24,19,30,18,11,,,,,0.0,0.8,1.2*3A##0
$PGRME,0.00,M,0.00,M,0.00,M*1E##579
$GPGGA,154135,3823.5217,N,11047.3313,W,1,08,0.80,1350.95,M,-18.586,M,,*49##0
$GPRMC,154135,A,3823.5217,N,11047.3313,W,0.3299,71.819,040610,,*06##1
$GPGSA,A,3,31,22,14,24,19,30,18,11,,,,,0.0,0.8,1.2*3A##972
$GPGGA,154136,3823.5217,N,11047.3313,W,1,07,1.20,1350.95,M,-18.586,M,,*4E##1
$GPRMC,154136,A,3823.5217,N,11047.3313,W,0.1904,0.000,040610,,*3E##1
$GPGSA,A,3,31,22,14,24,19,30,18,,,,,,0.0,1.2,1.2*31##1329
$GPGSV,3,1,09,03,04,223,23,22,47,088,35,31,39,171,34,14,69,019,27*7D##0
$GPGSV,3,2,09,24,28,159,31,19,18,247,23,30,07,099,25,18,14,100,28*77##0
$GPGSV,3,3,09,11,21,309,31*4B##123
$GPGGA,154137,3823.5222,N,11047.3313,W,1,08,0.80,1351.57,M,-18.586,M,,*42##3
$GPRMC,154137,A,3823.5222,N,11047.3313,W,0.4189,311.570,040610,,*30##1
$GPGSA,A,3,31,22,14,24,19,30,18,11,,,,,0.0,0.8,1.2*3A##561
$GPGGA,154138,3823.5222,N,11047.3313,W,1,08,0.80,1351.57,M,-18.586,M,,*4D##1
$GPRMC,154138,A,3823.5222,N,11047.3313,W,0.2334,256.734,040610,,*3D##1
$GPGSA,A,3,31,22,14,24,19,30,18,11,,,,,0.0,0.8,1.2*3A##990
$GPGGA,154139,3823.5222,N,11047.3313,W,1,08,0.80,1351.57,M,-18.586,M,,*4C##1
$GPRMC,154139,A,3823.5222,N,11047.3313,W,0.0000,0.000,040610,,*3B##1
$GPGSA,A,3,31,22,14,24,19,30,18,11,,,,,0.0,0.8,1.2*3A##0
$PGRME,0.00,M,0.00,M,0.00,M*1E##1447
$GPGGA,154140,3823.5222,N,11047.3313,W,1,08,0.80,1351.57,M,-18.586,M,,*42##0
$GPRMC,154140,A,3823.5222,N,11047.3313,W,0.0000,0.000,040610,,*35##1
$GPGSA,A,3,31,22,14,24,19,30,18,11,,,,,0.0,0.8,1.2*3A##578
$GPGGA,154141,3823.5222,N,11047.3313,W,1,08,0.80,1351.57,M,-18.586,M,,*43##0
$GPRMC,154141,A,3823.5222,N,11047.3313,W,0.0000,0.000,040610,,*34##1
$GPGSA,A,3,31,22,14,24,19,30,18,11,,,,,0.0,0.8,1.2*3A##0
$PGRME,0.00,M,0.00,M,0.00,M*1E##952
$GPGGA,154142,3823.5222,N,11047.3313,W,1,08,0.80,1351.57,M,-18.586,M,,*40##0
$GPRMC,154142,A,3823.5222,N,11047.3313,W,0.0000,0.000,040610,,*37##1
$GPGSA,A,3,31,22,14,24,19,30,18,11,,,,,0.0,0.8,1.2*3A##1467
$GPGGA,154143,3823.5222,N,11047.3313,W,1,08,0.80,1351.57,M,-18.586,M,,*41##0
$GPRMC,154143,A,3823.5222,N,11047.3313,W,0.0000,0.000,040610,,*36##1
$GPGSA,A,3,31,22,14,24,19,30,18,11,,,,,0.0,0.8,1.2*3A##570
$GPGGA,154144,3823.5222,N,11047.3313,W,1,08,0.80,1351.57,M,-18.586,M,,*46##0
$GPRMC,154144,A,3823.5222,N,11047.3313,W,0.0000,0.000,040610,,*31##1
$GPGSA,A,3,31,22,14,24,19,30,18,11,,,,,0.0,0.8,1.2*3A##963
$GPGGA,154145,3823.5222,N,11047.3313,W,1,08,0.80,1351.57,M,-18.586,M,,*47##1
$GPRMC,154145,A,3823.5222,N,11047.3313,W,0.0000,0.000,040610,,*30##3
$GPGSA,A,3,31,22,14,24,19,30,18,11,,,,,0.0,0.8,1.2*3A##1454
$GPGGA,154146,3823.5222,N,11047.3313,W,1,07,1.00,1351.57,M,-18.586,M,,*42##1
$GPRMC,154146,A,3823.5222,N,11047.3313,W,0.0000,0.000,040610,,*33##0
$GPGSA,A,3,22,14,24,19,30,18,11,,,,,,0.0,1.0,1.2*31##1
$PGRME,0.00,M,0.00,M,0.00,M*1E##714
$GPGGA,154147,3823.5222,N,11047.3313,W,1,08,0.80,1351.57,M,-18.586,M,,*45##1
$GPRMC,154147,A,3823.5222,N,11047.3313,W,0.0000,0.000,040610,,*32##0
$GPGSA,A,3,31,22,14,24,19,30,18,11,,,,,0.0,0.8,1.2*3A##828
$GPGGA,154148,3823.5222,N,11047.3313,W,1,07,1.00,1351.57,M,-18.586,M,,*4C##1
$GPRMC,154148,A,3823.5222,N,11047.3313,W,0.0000,0.000,040610,,*3D##0
$GPGSA,A,3,22,14,24,19,30,18,11,,,,,,0.0,1.0,1.2*31##1
$PGRME,0.00,M,0.00,M,0.00,M*1E##1450
$GPGGA,154149,3823.5222,N,11047.3313,W,1,08,0.80,1351.57,M,-18.586,M,,*4B##0
$GPRMC,154149,A,3823.5222,N,11047.3313,W,0.3426,165.419,040610,,*31##3
$GPGSA,A,3,31,22,14,24,19,30,18,11,,,,,0.0,0.8,1.2*3A##569
$GPGGA,154150,3823.5222,N,11047.3313,W,1,07,1.20,1351.57,M,-18.586,M,,*47##0
$GPRMC,154150,A,3823.5222,N,11047.3313,W,0.3426,345.419,040610,,*39##1
$GPGSA,A,3,31,22,14,24,19,30,18,,,,,,0.0,1.2,1.2*31##0
$PGRME,0.00,M,0.00,M,0.00,M*1E##979
$GPGGA,154151,3823.5222,N,11047.3313,W,1,07,1.00,1351.57,M,-18.586,M,,*44##0
$GPRMC,154151,A,3823.5222,N,11047.3313,W,0.0000,0.000,040610,,*35##2
$GPGSA,A,3,22,14,24,19,30,18,11,,,,,,0.0,1.0,1.2*31##1326
$GPGSV,3,1,09,03,04,223,29,22,47,088,28,31,39,171,32,14,69,019,27*7D##0
$GPGSV,3,2,09,24,28,159,21,19,18,247,28,30,07,099,17,18,14,100,25*71##0
$GPGSV,3,3,09,11,21,309,33*49##112
$GPGGA,154152,3823.5222,N,11047.3313,W,1,08,0.80,1351.57,M,-18.586,M,,*41##0
$GPRMC,154152,A,3823.5222,N,11047.3313,W,0.3334,42.953,040610,,*08##2
$GPGSA,A,3,31,22,14,24,19,30,18,11,,,,,0.0,0.8,1.2*3A##578
$GPGGA,154153,3823.5222,N,11047.3313,W,1,08,0.80,1351.57,M,-18.586,M,,*40##0
$GPRMC,154153,A,3823.5222,N,11047.3313,W,0.0000,0.000,040610,,*37##4
$GPGSA,A,3,31,22,14,24,19,30,18,11,,,,,0.0,0.8,1.2*3A##1
$PGRME,0.00,M,0.00,M,0.00,M*1E##988
$GPGGA,154154,3823.5222,N,11047.3313,W,1,08,0.80,1351.57,M,-18.586,M,,*47##0
$GPRMC,154154,A,3823.5222,N,11047.3313,W,0.0000,0.000,040610,,*30##1
$GPGSA,A,3,31,22,14,24,19,30,18,11,,,,,0.0,0.8,1.2*3A##0
$PGRME,0.00,M,0.00,M,0.00,M*1E##1424
$GPGGA,154155,3823.5222,N,11047.3313,W,1,08,0.80,1351.57,M,-18.586,M,,*46##0
$GPRMC,154155,A,3823.5222,N,11047.3313,W,0.0000,0.000,040610,,*31##1
$GPGSA,A,3,31,22,14,24,19,30,18,11,,,,,0.0,0.8,1.2*3A##588
$GPGGA,154156,3823.5222,N,11047.3313,W,1,07,1.00,1351.57,M,-18.586,M,,*43##1
$GPRMC,154156,A,3823.5222,N,11047.3313,W,0.0000,0.000,040610,,*32##1
$GPGSA,A,3,31,22,14,24,19,30,11,,,,,,0.0,1.0,1.2*3A##0
$PGRME,0.00,M,0.00,M,0.00,M*1E##982
$GPGGA,154157,3823.5222,N,11047.3313,W,1,07,1.00,1351.57,M,-18.586,M,,*42##0
$GPRMC,154157,A,3823.5222,N,11047.3313,W,0.0000,0.000,040610,,*33##1
$GPGSA,A,3,31,22,14,24,19,30,11,,,,,,0.0,1.0,1.2*3A##0
$PGRME,0.00,M,0.00,M,0.00,M*1E##1431
$GPGGA,154158,3823.5222,N,11047.3313,W,1,08,0.80,1351.57,M,-18.586,M,,*4B##0
$GPRMC,154158,A,3823.5222,N,11047.3313,W,0.2334,256.734,040610,,*3B##1
$GPGSA,A,3,31,22,14,24,19,30,18,11,,,,,0.0,0.8,1.2*3A##577
$GPGGA,154159,3823.5222,N,11047.3313,W,1,08,0.80,1351.57,M,-18.586,M,,*4A##1
$GPRMC,154159,A,3823.5222,N,11047.3313,W,0.0000,0.000,040610,,*3D##1
$GPGSA,A,3,31,22,14,24,19,30,18,11,,,,,0.0,0.8,1.2*3A##0
$PGRME,0.00,M,0.00,M,0.00,M*1E##966
$GPGGA,154200,3823.5222,N,11047.3313,W,1,07,1.00,1351.57,M,-18.586,M,,*43##1
$GPRMC,154200,A,3823.5222,N,11047.3313,W,0.0000,0.000,040610,,*32##0
$GPGSA,A,3,31,22,14,24,30,18,11,,,,,,0.0,1.0,1.2*3B##1468
$GPGGA,154201,3823.5222,N,11047.3313,W,1,07,1.00,1351.57,M,-18.586,M,,*42##0
$GPRMC,154201,A,3823.5222,N,11047.3313,W,0.3334,42.953,040610,,*0D##1
$GPGSA,A,3,22,14,24,19,30,18,11,,,,,,0.0,1.0,1.2*31##576
$GPGGA,154202,3823.5226,N,11047.3313,W,1,07,1.00,1352.19,M,-18.586,M,,*4C##2
$GPRMC,154202,A,3823.5226,N,11047.3313,W,0.1653,148.563,040610,,*38##2
$GPGSA,A,3,22,14,24,19,30,18,11,,,,,,0.0,1.0,1.2*31##951
$GPGGA,154203,3823.5226,N,11047.3313,W,1,07,1.00,1352.19,M,-18.586,M,,*4D##0
$GPRMC,154203,A,3823.5226,N,11047.3313,W,0.1653,148.563,040610,,*39##1
$GPGSA,A,3,22,14,24,19,30,18,11,,,,,,0.0,1.0,1.2*31##1451
$GPGGA,154204,3823.5226,N,11047.3313,W,1,08,0.80,1352.19,M,-18.586,M,,*4C##1
$GPRMC,154204,A,3823.5226,N,11047.3313,W,0.1904,0.000,040610,,*3E##1
$GPGSA,A,3,31,22,14,24,19,30,18,11,,,,,0.0,0.8,1.2*3A##575
$GPGGA,154205,3823.5226,N,11047.3313,W,1,08,0.80,1352.19,M,-18.586,M,,*4D##0
$GPRMC,154205,A,3823.5226,N,11047.3313,W,0.0000,0.000,040610,,*33##1
$GPGSA,A,3,31,22,14,24,19,30,18,11,,,,,0.0,0.8,1.2*3A##988
$GPGGA,154206,3823.5223,N,11047.3311,W,1,08,0.80,1352.93,M,-18.586,M,,*4B##3
$GPRMC,154206,A,3823.5223,N,11047.3311,W,0.1653,148.563,040610,,*3B##2
$GPGSA,A,3,31,22,14,24,19,30,18,11,,,,,0.0,0.8,1.2*3A##1314
$GPGSV,3,1,09,03,04,223,35,22,47,088,32,31,39,171,27,14,69,019,27*7F##0
$GPGSV,3,2,09,24,28,159,27,19,18,247,31,30,07,099,27,18,14,100,30*78##0
$GPGSV,3,3,09,11,21,309,33*49##112
$GPGGA,154207,3823.5223,N,11047.3311,W,1,08,0.80,1352.93,M,-18.586,M,,*4A##0
$GPRMC,154207,A,3823.5223,N,11047.3311,W,0.0000,0.000,040610,,*36##2
$GPGSA,A,3,31,22,14,24,19,30,18,11,,,,,0.0,0.8,1.2*3A##580
$GPGGA,154208,3823.5223,N,11047.3311,W,1,07,1.00,1352.93,M,-18.586,M,,*43##0
$GPRMC,154208,A,3823.5223,N,11047.3311,W,0.0000,0.000,040610,,*39##1
$GPGSA,A,3,22,14,24,19,30,18,11,,,,,,0.0,1.0,1.2*31##0
$PGRME,0.00,M,0.00,M,0.00,M*1E##983
$GPGGA,154209,3823.5223,N,11047.3311,W,1,07,1.00,1352.93,M,-18.586,M,,*42##0
$GPRMC,154209,A,3823.5223,N,11047.3311,W,0.0000,0.000,040610,,*38##1
$GPGSA,A,3,22,14,24,19,30,18,11,,,,,,0.0,1.0,1.2*31##1434
$GPGGA,154210,3823.5223,N,11047.3311,W,1,07,1.00,1352.93,M,-18.586,M,,*4A##0
$GPRMC,154210,A,3823.5223,N,11047.3311,W,0.0000,0.000,040610,,*30##1
$GPGSA,A,3,22,14,24,19,30,18,11,,,,,,0.0,1.0,1.2*31##727
$GPGGA,154211,3823.5223,N,11047.3311,W,1,08,0.80,1352.93,M,-18.586,M,,*4D##0
$GPRMC,154211,A,3823.5223,N,11047.3311,W,0.2403,215.906,040610,,*3D##2
$GPGSA,A,3,31,22,14,24,19,30,18,11,,,,,0.0,0.8,1.2*3A##841
$GPGGA,154212,3823.5223,N,11047.3311,W,1,08,0.80,1352.93,M,-18.586,M,,*4E##0
$GPRMC,154212,A,3823.5223,N,11047.3311,W,0.1653,148.563,040610,,*3E##2
$GPGSA,A,3,31,22,14,24,19,30,18,11,,,,,0.0,0.8,1.2*3A##0
$PGRME,0.00,M,0.00,M,0.00,M*1E##1427
$GPGGA,154213,3823.5223,N,11047.3311,W,1,08,0.80,1352.93,M,-18.586,M,,*4F##0
$GPRMC,154213,A,3823.5223,N,11047.3311,W,0.0000,0.000,040610,,*33##2
$GPGSA,A,3,31,22,14,24,19,30,18,11,,,,,0.0,0.8,1.2*3A##578
$GPGGA,154214,3823.5223,N,11047.3311,W,1,08,0.80,1352.93,M,-18.586,M,,*48##0
$GPRMC,154214,A,3823.5223,N,11047.3311,W,0.2334,256.734,040610,,*33##2
$GPGSA,A,3,31,22,14,24,19,30,18,11,,,,,0.0,0.8,1.2*3A##0
$PGRME,0.00,M,0.00,M,0.00,M*1E##984
$GPGGA,154215,3823.5223,N,11047.3311,W,1,08,0.80,1352.93,M,-18.586,M,,*49##0
$GPRMC,154215,A,3823.5223,N,11047.3311,W,0.2403,215.906,040610,,*39##1
$GPGSA,A,3,31,22,14,24,19,30,18,11,,,,,0.0,0.8,1.2*3A##1448
$GPGGA,154216,3823.5221,N,11047.3317,W,1,08,0.80,1353.20,M,-18.586,M,,*47##3
$GPRMC,154216,A,3823.5221,N,11047.3317,W,0.1653,148.562,040610,,*3F##2
$GPGSA,A,3,31,22,14,24,19,30,18,11,,,,,0.0,0.8,1.2*3A##0
$PGRME,0.00,M,0.00,M,0.00,M*1E##721
$GPGGA,154217,3823.5221,N,11047.3317,W,1,08,0.80,1353.20,M,-18.586,M,,*46##0
$GPRMC,154217,A,3823.5221,N,11047.3317,W,0.1653,148.562,040610,,*3E##1
$GPGSA,A,3,31,22,14,24,19,30,18,11,,,,,0.0,0.8,1.2*3A##0
$PGRME,0.00,M,0.00,M,0.00,M*1E##811
$GPGGA,154218,3823.5221,N,11047.3317,W,1,08,0.80,1353.20,M,-18.586,M,,*49##0
$GPRMC,154218,A,3823.5221,N,11047.3317,W,0.0000,0.000,040610,,*3C##2
$GPGSA,A,3,31,22,14,24,19,30,18,11,,,,,0.0,0.8,1.2*3A##1442
$GPGGA,154219,3823.5221,N,11047.3317,W,1,08,0.80,1353.20,M,-18.586,M,,*48##0
$GPRMC,154219,A,3823.5221,N,11047.3317,W,0.0000,0.000,040610,,*3D##1
$GPGSA,A,3,31,22,14,24,19,30,18,11,,,,,0.0,0.8,1.2*3A##0
$PGRME,0.00,M,0.00,M,0.00,M*1E##588
$GPGGA,154220,3823.5221,N,11047.3317,W,1,08,0.80,1353.20,M,-18.586,M,,*42##1
$GPRMC,154220,A,3823.5221,N,11047.3317,W,0.0000,0.000,040610,,*37##1
$GPGSA,A,3,31,22,14,24,19,30,18,11,,,,,0.0,0.8,1.2*3A##965
$GPGGA,154221,3823.5221,N,11047.3317,W,1,08,0.80,1353.20,M,-18.586,M,,*43##1
$GPRMC,154221,A,3823.5221,N,11047.3317,W,0.0000,0.000,040610,,*36##0
$GPGSA,A,3,31,22,14,24,19,30,18,11,,,,,0.0,0.8,1.2*3A##0
$PGRME,0.00,M,0.00,M,0.00,M*1E##1355
$GPGSV,3,1,09,03,03,222,29,22,47,088,33,31,40,171,23,14,69,019,27*7F##0
$GPGSV,3,2,09,24,28,159,29,19,18,247,30,30,07,099,27,18,14,100,30*77##0
$GPGSV,3,3,09,11,21,309,34*4E##101
$GPGGA,154222,3823.5221,N,11047.3317,W,1,08,0.80,1353.20,M,-18.586,M,,*40##0
$GPRMC,154222,A,3823.5221,N,11047.3317,W,0.0000,0.000,040610,,*35##1
$GPGSA,A,3,31,22,14,24,19,30,18,11,,,,,0.0,0.8,1.2*3A##591
$GPGGA,154223,3823.5218,N,11047.3315,W,1,07,1.00,1353.94,M,-18.586,M,,*40##3
$GPRMC,154223,A,3823.5218,N,11047.3315,W,0.0000,0.000,040610,,*3C##1
$GPGSA,A,3,31,22,24,19,30,18,11,,,,,,0.0,1.0,1.2*36##0
$PGRME,0.00,M,0.00,M,0.00,M*1E##940
$GPGGA,154224,3823.5218,N,11047.3315,W,1,06,1.00,1353.94,M,-18.586,M,,*46##0
$GPRMC,154224,A,3823.5218,N,11047.3315,W,0.4101,200.100,040610,,*3C##1
$GPGSA,A,3,22,24,19,30,18,11,,,,,,,0.0,1.0,1.2*34##1455
$GPGGA,154225,3823.5218,N,11047.3315,W,1,08,0.80,1353.94,M,-18.586,M,,*40##1
$GPRMC,154225,A,3823.5218,N,11047.3315,W,0.0000,0.000,040610,,*3A##1
$GPGSA,A,3,14,22,31,24,19,30,18,11,,,,,0.0,0.8,1.2*3A##1
$PGRME,0.00,M,0.00,M,0.00,M*1E##577
$GPGGA,154226,3823.5218,N,11047.3315,W,1,08,0.80,1353.94,M,-18.586,M,,*43##1
$GPRMC,154226,A,3823.5218,N,11047.3315,W,0.1653,148.562,040610,,*34##1
$GPGSA,A,3,14,22,31,24,19,30,18,11,,,,,0.0,0.8,1.2*3A##972
$GPGGA,154227,3823.5218,N,11047.3315,W,1,08,0.80,1353.94,M,-18.586,M,,*42##0
$GPRMC,154227,A,3823.5218,N,11047.3315,W,0.0000,0.000,040610,,*38##1
$GPGSA,A,3,14,22,31,24,19,30,18,11,,,,,0.0,0.8,1.2*3A##1
$PGRME,0.00,M,0.00,M,0.00,M*1E##1451
$GPGGA,154228,3823.5218,N,11047.3315,W,1,08,0.80,1353.94,M,-18.586,M,,*4D##1
$GPRMC,154228,A,3823.5218,N,11047.3315,W,0.0000,0.000,040610,,*37##0
$GPGSA,A,3,14,22,31,24,19,30,18,11,,,,,0.0,0.8,1.2*3A##573
$GPGGA,154229,3823.5218,N,11047.3315,W,1,08,0.80,1353.94,M,-18.586,M,,*4C##1
$GPRMC,154229,A,3823.5218,N,11047.3315,W,0.0000,0.000,040610,,*36##0
$GPGSA,A,3,14,22,31,24,19,30,18,11,,,,,0.0,0.8,1.2*3A##1
$PGRME,0.00,M,0.00,M,0.00,M*1E##970
$GPGGA,154230,3823.5218,N,11047.3315,W,1,08,0.80,1353.94,M,-18.586,M,,*44##1
$GPRMC,154230,A,3823.5218,N,11047.3315,W,0.0000,0.000,040610,,*3E##0
$GPGSA,A,3,14,22,31,24,19,30,18,11,,,,,0.0,0.8,1.2*3A##1461
$GPGGA,154231,3823.5218,N,11047.3315,W,1,08,0.80,1353.94,M,-18.586,M,,*45##0
$GPRMC,154231,A,3823.5218,N,11047.3315,W,0.0000,0.000,040610,,*3F##1
$GPGSA,A,3,14,22,31,24,19,30,18,11,,,,,0.0,0.8,1.2*3A##562
$GPGGA,154232,3823.5218,N,11047.3315,W,1,08,0.80,1353.94,M,-18.586,M,,*46##0
$GPRMC,154232,A,3823.5218,N,11047.3315,W,0.0000,0.000,040610,,*3C##0
$GPGSA,A,3,14,22,31,24,19,30,18,11,,,,,0.0,0.8,1.2*3A##1
$PGRME,0.00,M,0.00,M,0.00,M*1E##993
$GPGGA,154233,3823.5218,N,11047.3315,W,1,08,0.80,1353.94,M,-18.586,M,,*47##9
$GPRMC,154233,A,3823.5218,N,11047.3315,W,0.0000,0.000,040610,,*3D##1
$GPGSA,A,3,14,22,31,24,19,30,18,11,,,,,0.0,0.8,1.2*3A##0
$PGRME,0.00,M,0.00,M,0.00,M*1E##1416
$GPGGA,154234,3823.5218,N,11047.3315,W,1,08,0.80,1353.94,M,-18.586,M,,*40##0
$GPRMC,154234,A,3823.5218,N,11047.3315,W,0.0000,0.000,040610,,*3A##1
$GPGSA,A,3,14,22,31,24,19,30,18,11,,,,,0.0,0.8,1.2*3A##0
$PGRME,0.00,M,0.00,M,0.00,M*1E##579
$GPGGA,154235,3823.5218,N,11047.3315,W,1,08,0.80,1353.94,M,-18.586,M,,*41##0
$GPRMC,154235,A,3823.5218,N,11047.3315,W,0.0000,0.000,040610,,*3B##1
$GPGSA,A,3,14,22,31,24,19,30,18,11,,,,,0.0,0.8,1.2*3A##970
$GPGGA,154236,3823.5218,N,11047.3315,W,1,07,1.00,1353.94,M,-18.586,M,,*44##0
$GPRMC,154236,A,3823.5218,N,11047.3315,W,0.0000,0.000,040610,,*38##1
$GPGSA,A,3,14,22,24,19,30,18,11,,,,,,0.0,1.0,1.2*31##0
$PGRME,0.00,M,0.00,M,0.00,M*1E##1354
$GPGSV,3,1,10,03,03,222,33,22,47,088,21,31,40,171,22,14,69,019,29*70##1
$GPGSV,3,2,10,24,28,159,28,19,18,247,32,30,07,099,30,18,14,100,30*7A##0
$GPGSV,3,3,10,11,21,309,32,32,20,295,36*78##119
$GPGGA,154237,3823.5218,N,11047.3315,W,1,08,0.80,1353.94,M,-18.586,M,,*43##1
$GPRMC,154237,A,3823.5218,N,11047.3315,W,0.0000,0.000,040610,,*39##0
$GPGSA,A,3,14,22,31,24,19,30,18,11,,,,,0.0,0.8,1.2*3A##567
$GPGGA,154238,3823.5218,N,11047.3315,W,1,08,0.80,1353.94,M,-18.586,M,,*4C##0
$GPRMC,154238,A,3823.5218,N,11047.3315,W,0.3426,345.419,040610,,*3B##1
$GPGSA,A,3,14,22,31,24,19,30,18,11,,,,,0.0,0.8,1.2*3A##954
$GPGGA,154239,3823.5214,N,11047.3315,W,1,08,0.80,1353.32,M,-18.586,M,,*4D##1
$GPRMC,154239,A,3823.5214,N,11047.3315,W,0.0000,0.000,040610,,*3B##2
$GPGSA,A,3,14,22,31,24,19,30,18,11,,,,,0.0,0.8,1.2*3A##1449
$GPGGA,154240,3823.5214,N,11047.3315,W,1,08,0.80,1353.32,M,-18.586,M,,*43##0
$GPRMC,154240,A,3823.5214,N,11047.3315,W,0.0000,0.000,040610,,*35##1
$GPGSA,A,3,14,22,31,24,19,30,18,11,,,,,0.0,0.8,1.2*3A##0
$PGRME,0.00,M,0.00,M,0.00,M*1E##593
$GPGGA,154241,3823.5221,N,11047.3317,W,1,08,0.80,1353.20,M,-18.586,M,,*45##2
$GPRMC,154241,A,3823.5221,N,11047.3317,W,0.4101,20.100,040610,,*07##1
$GPGSA,A,3,14,22,31,24,19,30,18,11,,,,,0.0,0.8,1.2*3A##965
$GPGGA,154242,3823.5221,N,11047.3317,W,1,08,0.80,1353.20,M,-18.586,M,,*46##0
$GPRMC,154242,A,3823.5221,N,11047.3317,W,0.3426,345.419,040610,,*3E##1
$GPGSA,A,3,14,22,31,24,19,30,18,11,,,,,0.0,0.8,1.2*3A##1
$PGRME,0.00,M,0.00,M,0.00,M*1E##1437
$GPGGA,154243,3823.5217,N,11047.3317,W,1,08,0.80,1352.58,M,-18.586,M,,*4C##1
$GPRMC,154243,A,3823.5217,N,11047.3317,W,0.1904,180.000,040610,,*32##1
$GPGSA,A,3,14,22,31,24,19,30,18,11,,,,,0.0,0.8,1.2*3A##1
$PGRME,0.00,M,0.00,M,0.00,M*1E##593
$GPGGA,154244,3823.5217,N,11047.3317,W,1,08,0.80,1352.58,M,-18.586,M,,*4B##0
$GPRMC,154244,A,3823.5217,N,11047.3317,W,0.1904,180.000,040610,,*35##1
$GPGSA,A,3,14,22,31,24,19,30,18,11,,,,,0.0,0.8,1.2*3A##955
$GPGGA,154245,3823.5217,N,11047.3317,W,1,08,0.80,1352.58,M,-18.586,M,,*4A##0
$GPRMC,154245,A,3823.5217,N,11047.3317,W,0.1904,180.000,040610,,*34##1
$GPGSA,A,3,14,22,31,24,19,30,18,11,,,,,0.0,0.8,1.2*3A##1452
$GPGGA,154246,3823.5217,N,11047.3317,W,1,08,0.80,1352.58,M,-18.586,M,,*49##0
$GPRMC,154246,A,3823.5217,N,11047.3317,W,0.3426,345.419,040610,,*3F##2
$GPGSA,A,3,14,22,31,24,19,30,18,11,,,,,0.0,0.8,1.2*3A##0
$PGRME,0.00,M,0.00,M,0.00,M*1E##569
$GPGGA,154247,3823.5217,N,11047.3317,W,1,08,0.80,1352.58,M,-18.586,M,,*48##0
$GPRMC,154247,A,3823.5217,N,11047.3317,W,0.0000,0.000,040610,,*33##1
$GPGSA,A,3,14,22,31,24,19,30,18,11,,,,,0.0,0.8,1.2*3A##989
$GPGGA,154248,3823.5217,N,11047.3317,W,1,08,0.80,1352.58,M,-18.586,M,,*47##0
$GPRMC,154248,A,3823.5217,N,11047.3317,W,0.3334,222.953,040610,,*36##10
$GPGSA,A,3,14,22,31,24,19,30,18,11,,,,,0.0,0.8,1.2*3A##0
$PGRME,0.00,M,0.00,M,0.00,M*1E##1426
$GPGGA,154249,3823.5217,N,11047.3317,W,1,08,0.80,1352.58,M,-18.586,M,,*46##1
$GPRMC,154249,A,3823.5217,N,11047.3317,W,0.0000,0.000,040610,,*3D##1
$GPGSA,A,3,14,22,31,24,19,30,18,11,,,,,0.0,0.8,1.2*3A##581
$GPGGA,154250,3823.5213,N,11047.3317,W,1,08,0.80,1351.96,M,-18.586,M,,*4B##2
$GPRMC,154250,A,3823.5213,N,11047.3317,W,0.4101,200.100,040610,,*36##1
$GPGSA,A,3,14,22,31,24,19,30,18,11,,,,,0.0,0.8,1.2*3A##0
$PGRME,0.00,M,0.00,M,0.00,M*1E##977
$GPGGA,154251,3823.5213,N,11047.3317,W,1,08,0.80,1351.96,M,-18.586,M,,*4A##0
$GPRMC,154251,A,3823.5213,N,11047.3317,W,0.4101,200.100,040610,,*37##0
$GPGSA,A,3,14,22,31,24,19,30,18,11,,,,,0.0,0.8,1.2*3A##1333
$GPGSV,3,1,10,03,03,222,36,22,47,088,20,31,40,171,21,14,69,019,29*77##0
$GPGSV,3,2,10,24,28,159,19,19,18,247,22,30,07,099,29,18,14,100,28*78##0
$GPGSV,3,3,10,11,21,309,32,32,20,295,34*7A##116
$GPGGA,154252,3823.5212,N,11047.3324,W,1,08,0.80,1352.24,M,-18.586,M,,*42##1
$GPRMC,154252,A,3823.5212,N,11047.3324,W,0.5431,236.777,040610,,*31##2
$GPGSA,A,3,14,22,31,24,19,30,18,11,,,,,0.0,0.8,1.2*3A##578
$GPGGA,154253,3823.5213,N,11047.3317,W,1,08,0.80,1351.96,M,-18.586,M,,*48##2
$GPRMC,154253,A,3823.5213,N,11047.3317,W,0.2334,76.734,040610,,*05##1
$GPGSA,A,3,14,22,31,24,19,30,18,11,,,,,0.0,0.8,1.2*3A##954
$GPGGA,154254,3823.5213,N,11047.3317,W,1,08,0.80,1351.96,M,-18.586,M,,*4F##1
$GPRMC,154254,A,3823.5213,N,11047.3317,W,0.5431,56.777,040610,,*02##1
$GPGSA,A,3,14,22,31,24,19,30,18,11,,,,,0.0,0.8,1.2*3A##0
$PGRME,0.00,M,0.00,M,0.00,M*1E##1444
$GPGGA,154255,3823.5213,N,11047.3317,W,1,08,0.80,1351.96,M,-18.586,M,,*4E##1
$GPRMC,154255,A,3823.5213,N,11047.3317,W,0.1653,148.562,040610,,*39##1
$GPGSA,A,3,14,22,31,24,19,30,18,11,,,,,0.0,0.8,1.2*3A##592
$GPGGA,154256,3823.5213,N,11047.3317,W,1,08,0.80,1351.96,M,-18.586,M,,*4D##0
$GPRMC,154256,A,3823.5213,N,11047.3317,W,0.0000,0.000,040610,,*37##2
$GPGSA,A,3,14,22,31,24,19,30,18,11,,,,,0.0,0.8,1.2*3A##0
$PGRME,0.00,M,0.00,M,0.00,M*1E##956
$GPGGA,154257,3823.5213,N,11047.3317,W,1,08,0.80,1351.96,M,-18.586,M,,*4C##1
$GPRMC,154257,A,3823.5213,N,11047.3317,W,0.0000,0.000,040610,,*36##0
$GPGSA,A,3,14,22,31,24,19,30,18,11,,,,,0.0,0.8,1.2*3A##1447
$GPGGA,154258,3823.5213,N,11047.3317,W,1,08,0.80,1351.96,M,-18.586,M,,*43##0
$GPRMC,154258,A,3823.5213,N,11047.3317,W,0.1653,148.562,040610,,*34##2
$GPGSA,A,3,14,22,31,24,19,30,18,11,,,,,0.0,0.8,1.2*3A##0
$PGRME,0.00,M,0.00,M,0.00,M*1E##579
$GPGGA,154259,3823.5213,N,11047.3317,W,1,08,0.80,1351.96,M,-18.586,M,,*42##0
$GPRMC,154259,A,3823.5213,N,11047.3317,W,0.1653,148.562,040610,,*35##1
$GPGSA,A,3,14,22,31,24,19,30,18,11,,,,,0.0,0.8,1.2*3A##971
$GPGGA,154300,3823.5213,N,11047.3317,W,1,08,0.80,1351.96,M,-18.586,M,,*4F##0
$GPRMC,154300,A,3823.5213,N,11047.3317,W,0.0000,0.000,040610,,*35##1
$GPGSA,A,3,14,22,31,24,19,30,18,11,,,,,0.0,0.8,1.2*3A##1
$PGRME,0.00,M,0.00,M,0.00,M*1E##1446
$GPGGA,154301,3823.5213,N,11047.3317,W,1,08,0.80,1351.96,M,-18.586,M,,*4E##0
$GPRMC,154301,A,3823.5213,N,11047.3317,W,0.0000,0.000,040610,,*34##1
$GPGSA,A,3,14,22,31,24,19,30,18,11,,,,,0.0,0.8,1.2*3A##579
$GPGGA,154302,3823.5209,N,11047.3317,W,1,08,0.80,1351.34,M,-18.586,M,,*4E##2
$GPRMC,154302,A,3823.5209,N,11047.3317,W,0.1653,148.562,040610,,*31##1
$GPGSA,A,3,14,22,31,24,19,30,18,11,,,,,0.0,0.8,1.2*3A##1
$PGRME,0.00,M,0.00,M,0.00,M*1E##981
$GPGGA,154303,3823.5213,N,11047.3317,W,1,07,1.00,1351.96,M,-18.586,M,,*4A##2
$GPRMC,154303,A,3823.5213,N,11047.3317,W,0.1904,0.000,040610,,*3A##1
$GPGSA,A,3,14,22,31,19,30,18,11,,,,,,0.0,1.0,1.2*35##1429
$GPGGA,154304,3823.5213,N,11047.3317,W,1,07,1.00,1351.96,M,-18.586,M,,*4D##0
$GPRMC,154304,A,3823.5213,N,11047.3317,W,0.0000,0.000,040610,,*31##1
$GPGSA,A,3,14,22,31,19,30,18,11,,,,,,0.0,1.0,1.2*35##0
$PGRME,0.00,M,0.00,M,0.00,M*1E##579
$GPGGA,154305,3823.5209,N,11047.3317,W,1,08,0.80,1351.34,M,-18.586,M,,*49##2
$GPRMC,154305,A,3823.5209,N,11047.3317,W,0.3426,165.419,040610,,*36##1
$GPGSA,A,3,14,22,31,24,19,30,18,11,,,,,0.0,0.8,1.2*3A##984
$GPGGA,154306,3823.5209,N,11047.3317,W,1,08,0.80,1351.34,M,-18.586,M,,*4A##1
$GPRMC,154306,A,3823.5209,N,11047.3317,W,0.1653,148.562,040610,,*35##1
$GPGSA,A,3,14,22,31,24,19,30,18,11,,,,,0.0,0.8,1.2*3A##0
$PGRME,0.00,M,0.00,M,0.00,M*1E##1323
$GPGSV,3,1,10,03,03,222,31,22,47,088,31,31,40,171,32,14,69,019,28*73##0
$GPGSV,3,2,10,24,28,159,30,19,18,247,32,30,07,099,29,18,14,100,29*73##1
$GPGSV,3,3,10,11,21,309,32,32,20,295,27*78##123
$GPGGA,154307,3823.5213,N,11047.3317,W,1,08,0.80,1351.96,M,-18.586,M,,*48##2
$GPRMC,154307,A,3823.5213,N,11047.3317,W,0.1904,0.000,040610,,*3E##1
$GPGSA,A,3,14,22,31,24,19,30,18,11,,,,,0.0,0.8,1.2*3A##567
$GPGGA,154308,3823.5213,N,11047.3317,W,1,08,0.80,1351.96,M,-18.586,M,,*47##1
$GPRMC,154308,A,3823.5213,N,11047.3317,W,0.4189,311.570,040610,,*38##1
$GPGSA,A,3,14,22,31,24,19,30,18,11,,,,,0.0,0.8,1.2*3A##968
$GPGGA,154309,3823.5213,N,11047.3317,W,1,08,0.80,1351.96,M,-18.586,M,,*46##1
$GPRMC,154309,A,3823.5213,N,11047.3317,W,0.1904,0.000,040610,,*30##1
$GPGSA,A,3,14,22,31,24,19,30,18,11,,,,,0.0,0.8,1.2*3A##1463
$GPGGA,154310,3823.5213,N,11047.3317,W,1,08,0.80,1351.96,M,-18.586,M,,*4E##0
$GPRMC,154310,A,3823.5213,N,11047.3317,W,0.0000,0.000,040610,,*34##1
$GPGSA,A,3,14,22,31,24,19,30,18,11,,,,,0.0,0.8,1.2*3A##559
$GPGGA,154311,3823.5213,N,11047.3317,W,1,08,0.80,1351.96,M,-18.586,M,,*4F##0
$GPRMC,154311,A,3823.5213,N,11047.3317,W,0.0000,0.000,040610,,*35##0
$GPGSA,A,3,14,22,31,24,19,30,18,11,,,,,0.0,0.8,1.2*3A##972
$GPGGA,154312,3823.5213,N,11047.3317,W,1,08,0.80,1351.96,M,-18.586,M,,*4C##0
$GPRMC,154312,A,3823.5213,N,11047.3317,W,0.0000,0.000,040610,,*36##1
$GPGSA,A,3,14,22,31,24,19,30,18,11,,,,,0.0,0.8,1.2*3A##1451
$GPGGA,154313,3823.5213,N,11047.3317,W,1,08,0.80,1351.96,M,-18.586,M,,*4D##1
$GPRMC,154313,A,3823.5213,N,11047.3317,W,0.0000,0.000,040610,,*37##1
$GPGSA,A,3,14,22,31,24,19,30,18,11,,,,,0.0,0.8,1.2*3A##590
$GPGGA,154314,3823.5213,N,11047.3317,W,1,08,0.80,1351.96,M,-18.586,M,,*4A##0
$GPRMC,154314,A,3823.5213,N,11047.3317,W,0.0000,0.000,040610,,*30##1
$GPGSA,A,3,14,22,31,24,19,30,18,11,,,,,0.0,0.8,1.2*3A##0
$PGRME,0.00,M,0.00,M,0.00,M*1E##956
$GPGGA,154315,3823.5213,N,11047.3317,W,1,08,0.80,1351.96,M,-18.586,M,,*4B##0
$GPRMC,154315,A,3823.5213,N,11047.3317,W,0.1653,148.562,040610,,*3C##1
$GPGSA,A,3,14,22,31,24,19,30,18,11,,,,,0.0,0.8,1.2*3A##1455
$GPGGA,154316,3823.5213,N,11047.3317,W,1,08,0.80,1351.96,M,-18.586,M,,*48##0
$GPRMC,154316,A,3823.5213,N,11047.3317,W,0.1653,148.562,040610,,*3F##1
$GPGSA,A,3,14,22,31,24,19,30,18,11,,,,,0.0,0.8,1.2*3A##0
$PGRME,0.00,M,0.00,M,0.00,M*1E##765
$GPGGA,154317,3823.5213,N,11047.3317,W,1,08,0.80,1351.96,M,-18.586,M,,*49##0
$GPRMC,154317,A,3823.5213,N,11047.3317,W,0.1653,148.562,040610,,*3E##1
$GPGSA,A,3,14,22,31,24,19,30,18,11,,,,,0.0,0.8,1.2*3A##0
$PGRME,0.00,M,0.00,M,0.00,M*1E##777
$GPGGA,154318,3823.5217,N,11047.3317,W,1,08,0.80,1352.58,M,-18.586,M,,*43##1
$GPRMC,154318,A,3823.5217,N,11047.3317,W,0.0000,0.000,040610,,*38##0
$GPGSA,A,3,14,22,31,24,19,30,18,11,,,,,0.0,0.8,1.2*3A##1448
$GPGGA,154319,3823.5217,N,11047.3317,W,1,08,0.80,1352.58,M,-18.586,M,,*42##0
$GPRMC,154319,A,3823.5217,N,11047.3317,W,0.1653,148.562,040610,,*34##1
$GPGSA,A,3,14,22,31,24,19,30,18,11,,,,,0.0,0.8,1.2*3A##1
$PGRME,0.00,M,0.00,M,0.00,M*1E##597
$GPGGA,154320,3823.5217,N,11047.3317,W,1,08,0.80,1352.58,M,-18.586,M,,*48##0
$GPRMC,154320,A,3823.5217,N,11047.3317,W,0.0000,0.000,040610,,*33##1
$GPGSA,A,3,14,22,31,24,19,30,18,11,,,,,0.0,0.8,1.2*3A##963
$GPGGA,154321,3823.5217,N,11047.3317,W,1,08,0.80,1352.58,M,-18.586,M,,*49##0
$GPRMC,154321,A,3823.5217,N,11047.3317,W,0.1653,148.562,040610,,*3F##2
$GPGSA,A,3,14,22,31,24,19,30,18,11,,,,,0.0,0.8,1.2*3A##0
$PGRME,0.00,M,0.00,M,0.00,M*1E##1323
$GPGSV,3,1,12,03,03,222,32,22,46,088,31,31,40,169,28,14,69,021,24*76##0
$GPGSV,3,2,12,24,27,159,23,19,18,247,31,30,07,099,29,18,14,102,30*75##1
$GPGSV,3,3,12,11,21,307,26,32,20,295,21,12,04,066,27,138,45,174,32*4D##118
$GPGGA,154322,3823.5217,N,11047.3317,W,1,08,0.80,1352.58,M,-18.586,M,,*4A##1
$GPRMC,154322,A,3823.5217,N,11047.3317,W,0.2403,215.906,040610,,*3D##2
$GPGSA,A,3,14,22,31,24,19,30,18,11,,,,,0.0,0.8,1.2*3A##570
$GPGGA,154323,3823.5217,N,11047.3317,W,1,08,0.80,1352.58,M,-18.586,M,,*4B##0
$GPRMC,154323,A,3823.5217,N,11047.3317,W,0.1904,0.000,040610,,*3C##2
$GPGSA,A,3,14,22,31,24,19,30,18,11,,,,,0.0,0.8,1.2*3A##1
$PGRME,0.00,M,0.00,M,0.00,M*1E##980
$GPGGA,154324,3823.5221,N,11047.3317,W,1,08,0.80,1353.20,M,-18.586,M,,*47##2
$GPRMC,154324,A,3823.5221,N,11047.3317,W,0.1904,0.000,040610,,*3E##1
$GPGSA,A,3,14,22,31,24,19,30,18,11,,,,,0.0,0.8,1.2*3A##1438
